stop_lat,stop_name,stop_lon,location_type,parent_station,stop_id
5.3164439,Niangon Sud à Gauche,-4.0893341,0,,node/768587345
5.3198783,Yopougon Sideci,-4.0804016,0,,node/768587373
5.3158647,Gare lagunaire Aqualines du Plateau,-4.0148847,0,,node/1227889258
5.3608351,Agban,-4.0171229,0,,node/2381298633
5.3438972,Fraternité Matin,-4.018311,0,,node/2444131222
5.3423485,Saint André lavage,-4.0732432,0,,node/2460519991
5.3413464,Arrêt,-4.0238611,0,,node/2493226931
5.2942027,Gare Koumassi,-3.9551669,0,,node/2493730483
5.3121324,Koumassi Nord-Est - Lycée Municipal de Koumassi,-3.945225,0,,node/2760843854
5.3396167,Yopougon Attié,-4.0832298,0,,node/2948146673
5.3396157,Arrêt du Maroc,-4.0912463,0,,node/3067761599
5.3400629,Mosquée du Maroc,-4.0973067,0,,node/3067766555
5.3423254,Saint André,-4.0738295,0,,node/3075945505
5.3427541,[Arret sans nom],-4.0668084,0,,node/3137208051
5.3436761,2 poteaux,-4.0709484,0,,node/3137217828
5.3446768,Newton,-4.0679411,0,,node/3137243386
5.3531115,Riviera 2,-3.979568,0,,node/3145728412
5.3117096,Eglise Evangélique Internationnal Foursquare,-3.9487208,0,,node/3218806159
5.3368705,Saint Jean,-4.0037743,0,,node/3326195828
5.3470567,Pharmacie Port-Bouët II,-4.0884501,0,,node/3666057101
5.3493507,Ficgayo,-4.0734547,0,,node/3950172145
5.3616481,ENA,-3.9973698,0,,node/4029208102
5.2742845,Pharmacie de Bietry,-3.9787018,0,,node/4107240891
5.3296306,Yopougon Phalène,-4.061373,0,,node/4411562346
5.2948647,CHU Treichville,-4.004071,0,,node/4999458824
5.30185,Ex-pharmacie Mockey,-4.011123,0,,node/5057165424
5.3369029,Carrefour St Jean,-4.0039817,0,,node/5057297311
5.4158258,Abobo Belleville,-3.9933116,0,,node/5068855021
5.328322,M'pouto - CIAD,-3.940785,0,,node/5143730222
5.3284442,M'pouto - CIAD,-3.9410686,0,,node/5143751833
5.3437686,[Arret sans nom],-4.0711802,0,,node/5281604034
5.3078259,Gare lagunaire Aqualines Yopougon,-4.0374018,0,,node/5390465849
5.3555889,Stif,-4.0205264,0,,node/5414376221
5.3415133,Complexe sportif de Yopougon,-4.0623618,0,,node/5739489700
5.3493427,Fcigayo,-4.073208,0,,node/5927302128
5.3419897,Arrêt,-4.1003513,0,,node/5934409413
5.3671401,Gare Gesco,-4.1020437,0,,node/5936892363
5.3802448,Pharmacie Val de Grace,-3.967352,0,,node/5953580661
5.3618751,Carrefour Palmeraie,-3.9593077,0,,node/5953580667
5.3582581,Station Shell Riviera 3,-3.9643623,0,,node/5953580668
5.3286164,CIAD,-3.9498433,0,,node/5954541435
5.3347766,Boulevard de France,-3.9902179,0,,node/5954541439
5.3492831,Carrefour de la Vie,-4.0024723,0,,node/5954541440
5.3989296,Carrefour 22ème,-3.991548,0,,node/5957239662
5.3855754,Carrefour Opéra,-3.9931428,0,,node/5957239663
5.3615936,ENA,-3.9975968,0,,node/5957239665
5.328578,Hôtel Ivoire,-4.0050058,0,,node/5957239666
5.3975314,Pharmacie Les Laureades,-3.9860303,0,,node/5958266385
5.3806539,Petro Ivoire 7è Tranche,-3.9881294,0,,node/5958266386
5.373758,Commisariat 30è Art.,-3.9845519,0,,node/5958266387
5.3701109,Terminus 202 Attoban,-3.9813021,0,,node/5958266388
5.3673274,Parmacie St Bernard,-3.9797109,0,,node/5958266389
5.3573659,Pharmacie St Ange,-3.9782153,0,,node/5958266390
5.3558222,Collège André Malraux,-3.9779596,0,,node/5958266391
5.3541895,Riviera 2,-3.9773239,0,,node/5958266392
5.3247785,Saint Paul Plateau,-4.0207447,0,,node/6098848385
5.3238162,Hôtel de Ville,-4.0205509,0,,node/6136850508
5.3234932,Hôtel de Ville,-4.0205339,0,,node/6136850509
5.3226907,Hotel de Ville,-4.0205256,0,,node/6136858285
5.3317403,Cathédrale Saint paul,-4.021322,0,,node/6195348341
5.4148488,Abobo Sagbé,-4.0333199,0,,node/6281030720
5.4351428,Gare Abobo Sogephia,-4.0144508,0,,node/6474137921
5.4364247,BICICI,-4.0125419,0,,node/6474137923
5.4382745,Cours Sociaux,-4.0147435,0,,node/6474137925
5.4381179,Avenue Kaza,-4.019424,0,,node/6474137927
5.4355472,Camp Commando,-4.0202491,0,,node/6474137929
5.4306474,Station Shell,-4.0200922,0,,node/6474137931
5.4263959,Abobo Gendarmerie,-4.0198488,0,,node/6474137932
5.4234101,Abobo Gendarmerie,-4.0187446,0,,node/6474137934
5.4171616,2ème Arrêt,-4.0166455,0,,node/6474137936
5.4131456,Banco,-4.015971,0,,node/6474137938
5.4089746,Anador,-4.0160152,0,,node/6474137940
5.392647,Université Nangui Abrogoua,-4.0207427,0,,node/6474137942
5.3774907,Macaci,-4.0255918,0,,node/6474137944
5.3592442,Gare Nord,-4.027655,0,,node/6474137946
5.3591608,Gare Nord,-4.0274455,0,,node/6474137948
5.3533564,Grande Mosquée Adjamé,-4.0257671,0,,node/6474137950
5.347769,Foire de Chine,-4.0256668,0,,node/6474137952
5.3431984,Mairie d'Adjamé,-4.0259753,0,,node/6474137954
5.3312372,Cité Administrative,-4.0238205,0,,node/6474137956
5.3278045,Immeuble Sogefiha,-4.0238801,0,,node/6474137958
5.3145043,Gare Sud,-4.0181049,0,,node/6474137967
5.3179651,Présidence,-4.019718,0,,node/6474137979
5.3225013,Galerie du Parc,-4.0197472,0,,node/6474137980
5.3339569,Camp Galliéni,-4.0247204,0,,node/6474137981
5.3386571,Institut National de la Santé Publique,-4.026107,0,,node/6474137982
5.343713,Mairie d'Adjamé,-4.0260496,0,,node/6474137983
5.3459921,Marché Forum,-4.0258452,0,,node/6474137984
5.3503682,Pharmacie du Banco,-4.0255664,0,,node/6474138985
5.3534527,Grande Mosquée Adjamé,-4.0259071,0,,node/6474138986
5.3586829,Gare Nord,-4.028099,0,,node/6474138987
5.3765774,Macaci,-4.0263861,0,,node/6474138988
5.3906844,Filtisac,-4.021035,0,,node/6474138989
5.4085961,Anador,-4.0162969,0,,node/6474138990
5.4135848,Banco,-4.0162419,0,,node/6474138991
5.4183764,Collège Saint-Joseph,-4.0173344,0,,node/6474138992
5.4237125,Abobo Gendarmerie,-4.0190818,0,,node/6474138993
5.4315506,Bar Ivoire Abobo,-4.020231,0,,node/6474138994
5.4363436,DGI Abobo,-4.0203886,0,,node/6474138995
5.4382274,Avenue Kaza,-4.0189201,0,,node/6474138996
5.4383936,Carrefour Akeïkoi,-4.0138587,0,,node/6474138997
5.3149589,Terminus Gare Sud,-4.0190673,0,,node/6474138999
5.4350792,Cité Universitaire Abobo,-4.0127537,0,,node/6474139031
5.4354931,Gare Abobo Sogephia,-4.0154262,0,,node/6474139033
5.3580852,Station Shell Riviera 3,-3.9641507,0,,node/6815808830
5.3620442,Carrefour Palmeraie,-3.9591336,0,,node/6815808831
5.3865761,CNPS 9ème Tranche,-3.9744202,0,,node/6815808833
5.4010646,Marché COCOVICO,-3.9780418,0,,node/6815808834
5.3738506,Quick Market,-3.9618125,0,,node/6815808839
5.3737728,Quick Market,-3.9618581,0,,node/6815808840
5.3776142,Commissariat 35è Art.,-3.9635563,0,,node/6815808842
5.3866021,CNPS 9ème Tranche,-3.9745308,0,,node/6815808843
5.4010482,Marché COCOVICO,-3.9781939,0,,node/6815808844
5.3698807,Pharmacie du bonheur,-3.9587098,0,,node/6815808845
5.383206,Groupe Scolaire St Marc,-3.9725319,0,,node/6815808846
5.282599,Camp Commando de Koumassi,-3.9692172,0,,node/6819328985
5.2892136,Grand Carrefour de Koumassi,-3.9707407,0,,node/6819329085
5.2921087,Hôtel Ibis Marcory,-3.9741109,0,,node/6819329086
5.2916293,Hôtel Ibis Marcory,-3.973691,0,,node/6819329185
5.3008419,Chimtec Grand carrefour Marcory,-3.9897184,0,,node/6819329285
5.335819,Ambassade des USA,-3.9767155,0,,node/6820855646
5.3309825,Hotel du Golf,-3.9728877,0,,node/6820855647
5.3310297,Hotel du Golf,-3.9730064,0,,node/6820855648
5.3312498,Ex Terminus Sotra;Carrefour Sol Beni,-3.9579229,0,,node/6820855649
5.332764,Cathédrale Saint paul,-4.021605,0,,node/6831076677
5.3299678,Église Méthodiste Unie de Côte d'Ivoire,-4.0205671,0,,node/6831076678
5.3148704,Gare Sud,-4.0185085,0,,node/6831076682
5.2988832,Cap Sud,-3.9867521,0,,node/6832290086
5.2996481,Gare de Bassam,-4.0022393,0,,node/6899034705
5.3004143,Gendarmerie,-3.9997862,0,,node/6899034706
5.303315,Notre-dame,-4.0037983,0,,node/6899034707
5.3072484,Pharmacie Nanan Yamousso,-4.005186,0,,node/6899034708
5.3099574,Après le Pont,-4.0061407,0,,node/6899034709
5.3534116,Adjamé Liberté,-4.0160603,0,,node/6899034710
5.3534437,Adjamé Liberté,-4.014858,0,,node/6899053345
5.3535364,Gare de Bingerville,-4.0120307,0,,node/6899053346
5.325075,Feux du plateau,-4.0152949,0,,node/6899053347
5.3101491,Nanan Yamousso,-4.0061218,0,,node/6899053348
5.2996797,Gare de Bassam,-4.0024275,0,,node/6899053349
5.4200067,Abobo Gare Mairie,-4.0174383,0,,node/6899241573
5.4143755,Mobil,-4.0159818,0,,node/6899241574
5.3846198,Lavage,-4.0215227,0,,node/6899241575
5.37725,Macaci,-4.0257575,0,,node/6899241576
5.3543459,Adjamé Liberté,-4.0164004,0,,node/6899241577
5.349107,Marché Gouro,-4.0212174,0,,node/6899264970
5.3547097,Adjamé Liberté,-4.0163905,0,,node/6899264971
5.358734,Station Total,-4.016791,0,,node/6899264972
5.4215493,Abobo Gare Mairie,-4.0171184,0,,node/6899264973
5.4195759,Carrefour Marché,-4.0153363,0,,node/6902638988
5.4186048,Petro Ivoire,-4.0135168,0,,node/6902638989
5.4168519,Au Bar,-4.0101975,0,,node/6902638990
5.4157998,Petit Carrefour,-4.0080786,0,,node/6902638991
5.4152338,Samaké,-4.0067032,0,,node/6902638992
5.3994804,Azur,-4.0064894,0,,node/6902638993
5.3780522,Panneau ZOO,-4.0070352,0,,node/6902638994
5.4197843,Abobo Gare Mairie,-4.0157753,0,,node/6902638995
5.4176548,Ciné Cool,-4.0117095,0,,node/6902638996
5.4144283,Boulangerie Samake,-4.0062697,0,,node/6902638997
5.410863,Menuiserie,-4.0062877,0,,node/6902638998
5.4101067,Tchapatcha,-4.0063067,0,,node/6902638999
5.4092677,Chaîne Avion,-4.0063409,0,,node/6902639000
5.4051188,Pharmacie Dokui,-4.0063993,0,,node/6902639001
5.4036347,SODECI,-4.0064176,0,,node/6902639002
5.4020967,Étage Noir,-4.0064567,0,,node/6902639003
5.4001879,Mobil,-4.0064867,0,,node/6902639004
5.3968179,Arrêt Dokui,-4.006353,0,,node/6902639005
5.3929293,Ancien Feu,-4.005793,0,,node/6902639006
5.3872276,Bangui,-4.005732,0,,node/6902639007
5.3851864,Vidange,-4.0060126,0,,node/6902639008
5.382931,HMA,-4.0063262,0,,node/6902639009
5.3721147,Carrefour paillet,-4.0118134,0,,node/6902639010
5.3653117,Carrefour 2 Plateaux,-4.0157876,0,,node/6902639011
5.3553627,Gare des gbakas d’Abobo par le zoo,-4.0160705,0,,node/6902639012
5.4184847,Petro Ivoire,-4.0136214,0,,node/6902868224
5.4176463,Ciné Cool,-4.0120067,0,,node/6902868225
5.4167077,Au Bar,-4.0102981,0,,node/6902868226
5.4051935,Pharmacie Dokui,-4.0065403,0,,node/6902868227
5.4036701,SODECI,-4.0065873,0,,node/6902868228
5.40212,Étage Noir,-4.0066315,0,,node/6902868229
5.4002027,Mobil,-4.0066597,0,,node/6902868230
5.3994577,Azur,-4.0066034,0,,node/6902868231
5.3965911,Arrêt Dokui,-4.0064518,0,,node/6902868232
5.3928327,Ancien Feu,-4.0059301,0,,node/6902868233
5.387253,Bangui,-4.005859,0,,node/6902868234
5.3853034,Vidange,-4.0060952,0,,node/6902868235
5.382907,HMA,-4.0064118,0,,node/6902868236
5.3716859,Carrefour paillet,-4.0122239,0,,node/6902868237
5.365405,Carrefour 2 Plateaux,-4.0159576,0,,node/6902868238
5.3633371,Willy Agban,-4.0168128,0,,node/6902868239
5.3668297,Cimetière,-4.0152077,0,,node/6902868240
5.3765337,CIE,-4.0094557,0,,node/6902868241
5.3789939,ZOO,-4.0070149,0,,node/6902868242
5.3900553,Eglise,-4.0056173,0,,node/6902868243
5.41329,Pharmacie Racines,-4.0099567,0,,node/6902868244
5.4197639,Abobo Gare Mairie,-4.0160257,0,,node/6902868245
5.4500232,Christine Bar,-4.0135154,0,,node/6902975747
5.4607326,Akéikoi Village,-4.0109926,0,,node/6902975748
5.45899,À l'École,-4.0107733,0,,node/6902975749
5.455207,Destin,-4.0112928,0,,node/6902975750
5.4542173,Monnaie,-4.0119566,0,,node/6902975751
5.4528753,André Bar,-4.0128592,0,,node/6902975752
5.4510493,Carrefour Marché,-4.0133357,0,,node/6902975753
5.446249,A l'étage,-4.0143571,0,,node/6902975754
5.4394513,Boulangerie,-4.0141843,0,,node/6902975755
5.4384053,Carrefour Akéikoi,-4.0140378,0,,node/6902975756
5.4225885,Gare Gbaka Akeïkoi,-4.0161726,0,,node/6902975757
5.4510779,Carrefour Marché,-4.0134484,0,,node/6903084141
5.4530404,André Bar,-4.0129173,0,,node/6903084142
5.4542793,Monnaie,-4.0120751,0,,node/6903084143
5.438503,Au goudron,-4.0142825,0,,node/6903097494
5.4227551,Abobo Gare,-4.0160694,0,,node/6903097495
5.4230451,Au tournant,-4.013945,0,,node/6903097496
5.4278809,Lycée Moderne Abobo 1 & 2,-4.0146415,0,,node/6903097497
5.433455,Célibataire,-4.0124107,0,,node/6903097498
5.4352003,JAUG,-4.0124925,0,,node/6903097499
5.4383233,Cité,-4.0135883,0,,node/6903097500
5.449017,Boulangerie,-4.0138345,0,,node/6903097501
5.4500084,Christine Bar,-4.0136722,0,,node/6903097502
5.4552984,Destin,-4.01134,0,,node/6903097503
5.4594779,À l'École,-4.0109968,0,,node/6903097504
5.460775,Akéikoi Village,-4.0111868,0,,node/6903097505
5.4429021,Mosquée,-4.0144891,0,,node/6903193216
5.4463091,A l'étage,-4.0144891,0,,node/6903193217
5.42194,Abobo Gare Mairie,-4.0165181,0,,node/6903268819
5.4223082,Gare Abobo Kennedy-Marché/ Mosquée Ado,-4.0163197,0,,node/6903268820
5.4211585,Station,-4.0100057,0,,node/6903268821
5.4236887,Kennedy Marché,-4.0015221,0,,node/6903268822
5.4220774,Mosquée,-4.011662,0,,node/6903296476
5.4186997,Carrefour Kennedy,-4.0059623,0,,node/6903296477
5.418665,Carrefour Kennedy,-4.0058919,0,,node/6903296478
5.4211643,Makan Traoré,-4.0039433,0,,node/6903296479
5.4236156,Au marché,-4.0015453,0,,node/6903296480
5.423623,A Gauche,-4.0021714,0,,node/6903296481
5.4214359,Makan Traoré,-4.0037249,0,,node/6903296482
5.3286546,Cocody Riviera M'badon,-3.9324706,0,,node/6903347574
5.3293417,Nouveau marché,-3.9332267,0,,node/6903347575
5.329969,Ancien marché,-3.9339946,0,,node/6903347576
5.3307517,Centre de santé Municipal de M'Badon,-3.9350317,0,,node/6903347577
5.331008,La ferme,-3.9352626,0,,node/6903347578
5.3353839,Pharmacie,-3.9393933,0,,node/6903347579
5.3384154,2 poteaux,-3.9427407,0,,node/6903347580
5.339948,Antenne,-3.945032,0,,node/6903347581
5.345935,Carrefour Akouédo,-3.9457017,0,,node/6903347582
5.3461517,École,-3.9471733,0,,node/6903347583
5.3458217,2ème rond-point,-3.9505483,0,,node/6903347584
5.3503568,Gare en haut,-4.0227501,0,,node/6903370485
5.4210882,Station,-4.0100339,0,,node/6903374200
5.4196516,Immeuble Cercueil,-4.00729,0,,node/6903374201
5.4195942,Immeuble Cercueil,-4.0074087,0,,node/6903374202
5.4234508,Mosquée Ado Kenedy,-3.9978515,0,,node/6903397403
5.4215774,À l'École,-3.9978489,0,,node/6903397404
5.4198617,[Arret sans nom],-3.9979409,0,,node/6903397405
5.4185867,Dahico,-3.9980283,0,,node/6903397406
5.4157689,Étage Noir,-3.9992242,0,,node/6903397407
5.415578,Samaké,-4.0059533,0,,node/6903406997
5.4156012,Eglise,-4.0037563,0,,node/6903406998
5.4155167,Eglise,-4.0037625,0,,node/6903504058
5.4155583,Monastère,-4.0007112,0,,node/6903504059
5.4154526,Monastère,-4.0008035,0,,node/6903504060
5.4157731,Étage Noir,-3.999403,0,,node/6903504061
5.4185995,Dahico,-3.9981732,0,,node/6903504062
5.4339087,Hôtel du centre,-4.0272132,0,,node/6903525051
5.437375,A la Pompe,-4.0337387,0,,node/6903525052
5.4377181,Dépôt,-4.0360617,0,,node/6903525053
5.4390697,Anokoi,-4.0444772,0,,node/6903525054
5.439303,Anokoi,-4.0444823,0,,node/6903525055
5.4422211,Marahoué,-4.0479148,0,,node/6903525056
5.4439581,Agripac,-4.0487972,0,,node/6903525057
5.447775,Terminus,-4.0509604,0,,node/6903525058
5.4479797,Terminus,-4.0508555,0,,node/6903525059
5.4446545,Agripac,-4.0489498,0,,node/6903525060
5.4425017,Marahoué,-4.0477433,0,,node/6903525061
5.4379717,Dépôt,-4.0360937,0,,node/6903525062
5.4376377,A la Pompe,-4.033852,0,,node/6903525063
5.4367133,Marché de Nuit,-4.030245,0,,node/6903525064
5.4340417,Hôtel du centre,-4.026894,0,,node/6903525065
5.4217034,Abobo Gare,-4.018191,0,,node/6903525066
5.3489387,Complexe,-4.0206447,0,,node/6903535584
5.350348,Gare en haut,-4.0224464,0,,node/6903544086
5.3481387,Maternité,-4.0180948,0,,node/6903544087
5.3521055,Adjamé Liberté,-4.014163,0,,node/6903544088
5.3547793,2ème pont,-4.0029137,0,,node/6903544089
5.3301187,Marché,-3.9339759,0,,node/6903544090
5.4263231,Abobo Gendarmerie,-4.0203577,0,,node/6903602207
5.4298704,Mosquée Blanche,-4.0233336,0,,node/6903602208
5.4332219,Solibra,-4.0262471,0,,node/6903602209
5.4359152,Château,-4.0288774,0,,node/6903602210
5.4383388,A l'escalier,-4.0383071,0,,node/6903602211
5.4497913,PK 18 ancien marché,-4.0521369,0,,node/6903602212
5.4220421,Abobo Gare,-4.0184916,0,,node/6903602213
5.4260466,Abobo Gendarmerie,-4.0204342,0,,node/6903602214
5.426524,Gendarmerie Avant le Feu,-4.0208376,0,,node/6903602215
5.4297276,Mosquée Blanche,-4.0236152,0,,node/6903602216
5.4330817,Solibra,-4.0264367,0,,node/6903602217
5.4357519,Château,-4.0290698,0,,node/6903602218
5.4365893,Marché de Nuit,-4.0306363,0,,node/6903602219
5.4380495,A l'escalier,-4.0384581,0,,node/6903602220
5.4382834,Nouvelle Gare,-4.0411411,0,,node/6903602221
5.4448006,Agripac Avant le Feu,-4.0493193,0,,node/6903602222
5.4493883,Station Total,-4.0520966,0,,node/6903602223
5.4499639,PK 18 ancien marché,-4.052542,0,,node/6903602224
5.370557,Attoban camp,-3.9761316,0,,node/6903639366
5.3694267,Escalier,-3.9776678,0,,node/6903639367
5.3673899,Pharmacie Saint Bernard,-3.9794185,0,,node/6903639368
5.3658448,Carrefour Garage,-3.9793174,0,,node/6903639369
5.365069,Polyclinique Sacré-Coeur,-3.9792552,0,,node/6903639370
5.3642087,Jules ferry,-3.9790994,0,,node/6903639371
5.362115,Hôtel Manhatan,-3.9788028,0,,node/6903639372
5.3589924,Doraville,-3.978316,0,,node/6903639373
5.3571667,Pharmacie Saint ange,-3.9780678,0,,node/6903639374
5.356275,André Malraux,-3.9777617,0,,node/6903639375
5.3505392,Gare en haut,-4.0228251,0,,node/6903639376
5.3672689,Pharmacie Saint Bernard,-3.9796695,0,,node/6903968407
5.3655779,Carrefour Garage,-3.9794498,0,,node/6903968408
5.343795,Terminus 04,-4.0345833,0,,node/6904171063
5.346448,[Arret sans nom],-4.0345467,0,,node/6904171064
5.3490624,Marché,-4.033957,0,,node/6904171065
5.3501257,Station Afriquia,-4.032333,0,,node/6904171066
5.3524283,Carrefour Attecoubé,-4.0328135,0,,node/6904171067
5.3574167,[Arret sans nom],-4.0309717,0,,node/6904171068
5.3513557,Pharmacie du Banco,-4.0254169,0,,node/6904171070
5.3412757,Adjamé Santé,-4.0261722,0,,node/6904171071
5.3381159,Institut National de la Santé Publique,-4.025807,0,,node/6904171072
5.3318344,Cité Administrative,-4.0230192,0,,node/6904171073
5.3266073,Cité financière Plateau,-4.0206008,0,,node/6904171074
5.3237991,SIB Alpha 2000,-4.0196512,0,,node/6904171075
5.3206169,Primature,-4.0196681,0,,node/6904171076
5.3089287,Résidence Cheick Yacouba Sylla,-4.0157481,0,,node/6904171077
5.3094876,Marché Treichville,-4.0142576,0,,node/6904171078
5.3109791,[Arret sans nom],-4.0099697,0,,node/6904171079
5.3126563,Biafra,-4.006092,0,,node/6904171080
5.3076251,Banque Atlantique,-3.9933399,0,,node/6904171081
5.3052787,Hôtel Hamanieh,-3.9888629,0,,node/6904171082
5.3043423,Sainte Thérèse,-3.9869873,0,,node/6904171083
5.3064581,Commissariat du 9 ème,-3.9858381,0,,node/6904171084
5.3088083,Gare Marcory,-3.9839517,0,,node/6904188585
5.3589119,Gare Nord,-4.0281877,0,,node/6905326498
5.4366266,Château,-4.0307925,0,,node/6905326503
5.3843543,Préfecture de Police,-4.0219308,0,,node/6905344262
5.4375564,Arrêt Centre Bus,-4.0351608,0,,node/6905344263
5.4384645,Terminus 45 À l'escalier,-4.0390169,0,,node/6905344264
5.4378844,Arrêt Centre Bus,-4.0351391,0,,node/6905344265
5.4365245,Château,-4.0299554,0,,node/6905344266
5.4328931,Arrêt,-4.0259685,0,,node/6905344267
5.4284112,Abobo Gendarmerie,-4.0222108,0,,node/6905344268
5.3836534,Préfecture de Police,-4.0219627,0,,node/6905344273
5.4284566,Abobo Gendarmerie,-4.0225102,0,,node/6905553518
5.4327155,[Arret sans nom],-4.0261674,0,,node/6905553519
5.3485701,Foire de Chine,-4.0256884,0,,node/6905719605
5.3299376,Église Méthodiste Unie de Côte d'Ivoire,-4.0206943,0,,node/6905719606
5.3251345,60 logements Plateau,-4.0201163,0,,node/6905719607
5.3087867,Hôpital du port,-4.0177138,0,,node/6905719608
5.3097288,Maison du Congres,-4.0148424,0,,node/6905719609
5.3073425,Pharmacie du Rond-point,-4.0116929,0,,node/6905719610
5.3090218,[Arret sans nom],-4.0069793,0,,node/6905719611
5.3080275,Nanan Yamousso,-4.005442,0,,node/6905719612
5.3048828,Paroisse Notre-Dame de Treichville,-4.0043543,0,,node/6905719613
5.3045623,Pharmacie de l'Entente,-4.0015648,0,,node/6905719614
5.3055251,Marché de Belleville,-3.998829,0,,node/6905719615
5.3075214,Banque Atlantique,-3.9931172,0,,node/6905719616
5.3049722,Hôtel Hamanieh,-3.9887868,0,,node/6905719617
5.3055778,Commissariat du 9éme,-3.986118,0,,node/6905719618
5.308097,Station Shell,-3.9847286,0,,node/6905719619
5.3584965,Sitarail,-4.0284151,0,,node/6905719620
5.357702,[Arret sans nom],-4.0304951,0,,node/6905719621
5.3515438,Carrefour Attecoubé,-4.0321715,0,,node/6905719622
5.3489601,Banque Atlantique,-4.03386,0,,node/6905719623
5.3471108,Commissariat du 10ᵉ arrondissement,-4.0344246,0,,node/6905719624
5.3437946,Terminus 04,-4.0344802,0,,node/6905719625
5.3251603,Saint Paul,-4.0219475,0,,node/6905772459
5.3282245,Immeuble Sogephia Hévéa,-4.0239746,0,,node/6905772460
5.3337809,Musée du Plateau,-4.0245113,0,,node/6905772461
5.4383593,Cours Sociaux,-4.0160546,0,,node/6905772466
5.3590397,Gare Nord,-4.0275686,0,,node/6905842305
5.3252327,Long Champs,-4.0224693,0,,node/6905842307
5.293902,Gare Koumassi,-3.9560075,0,,node/6906463287
5.2928524,Pharmacie Ehilie,-3.9602508,0,,node/6906463288
5.2913568,Mosquée,-3.966735,0,,node/6906463289
5.2956714,Échangeur de Marcory,-3.980944,0,,node/6906463290
5.2998527,Grand carrefour Marcory,-3.98845,0,,node/6906463291
5.2998184,Collège Moderne Autoroute,-3.9976917,0,,node/6906463292
5.2999823,Gare de Bassam,-4.0026734,0,,node/6906463293
5.3018099,Ecobank,-4.003273,0,,node/6906463294
5.3534012,Adjamé Liberté,-4.0155251,0,,node/6906463296
5.4365892,BICICI,-4.0124238,0,,node/6906507833
5.3546594,Adjamé Liberté,-4.0164467,0,,node/6906575629
5.3631417,Williams-Ville,-4.0169033,0,,node/6906575630
5.3658197,Carrefour 2 Plateaux,-4.0157829,0,,node/6906575631
5.3662557,[Arret sans nom],-4.0156117,0,,node/6906575632
5.3716139,Paillet,-4.0122293,0,,node/6906575633
5.374069,[Arret sans nom],-4.0112578,0,,node/6906575634
5.3898833,[Arret sans nom],-4.005605,0,,node/6906575635
5.4045622,[Arret sans nom],-4.0065311,0,,node/6906575636
5.4113412,[Arret sans nom],-4.0064187,0,,node/6906575637
5.4126483,ANADER,-4.0064133,0,,node/6906575638
5.4148754,Samaké,-4.0064263,0,,node/6906590689
5.41527,Samaké,-4.0068417,0,,node/6906590691
5.4101483,Chaîne Avion,-4.0063152,0,,node/6906590692
5.4073533,1ere Boutique,-4.0063867,0,,node/6906590693
5.3659384,Carrefour 2 Plateaux,-4.0155634,0,,node/6906590694
5.3546002,Adajmé Liberté,-4.0162927,0,,node/6906590695
5.35345,Adjamé Liberté,-4.015528,0,,node/6906596960
5.3100359,Nanan Yamousso,-4.0060884,0,,node/6906596961
5.3054677,Karwil,-4.0044435,0,,node/6906596962
5.3031308,Notre-dame,-4.0036369,0,,node/6906596963
5.3003893,Gare de Bassam,-4.0026404,0,,node/6906596964
5.2998444,Collège Moderne Autoroute,-3.9983918,0,,node/6906596965
5.2987234,Cap Sud,-3.9859637,0,,node/6906596966
5.2959351,Échangeur Marcory,-3.981013,0,,node/6906596967
5.2912433,Auto-école,-3.9675638,0,,node/6906596968
5.2919737,Arrêt,-3.964494,0,,node/6906596969
5.292783,Boulangerie,-3.9610541,0,,node/6906596970
5.3790616,ZOO,-4.0069936,0,,node/6906699462
5.4074152,1ere Boutique,-4.0065336,0,,node/6906699463
5.3723989,Paillet,-4.0116794,0,,node/6906699464
5.3898979,[Arret sans nom],-4.0054621,0,,node/6906699465
5.3967647,Arrêt Dokui,-4.0065122,0,,node/6906699466
5.3968689,Arrêt Dokui,-4.0063445,0,,node/6906699467
5.4121402,ANADER,-4.0062842,0,,node/6906699468
5.4169293,[Arret sans nom],-4.0106347,0,,node/6906699469
5.4170815,[Arret sans nom],-4.0106159,0,,node/6906699470
5.4197017,Abobo Mairie,-4.0159368,0,,node/6906699471
5.4197512,Abobo Mairie,-4.0156192,0,,node/6906699472
5.3675641,Gare Williamsville,-4.0235294,0,,node/6907121506
5.3658243,Mosquée,-4.0207037,0,,node/6907121507
5.3643529,Croix Bleue,-4.0189161,0,,node/6907121508
5.3576606,Agban avant le pont,-4.0160715,0,,node/6907121509
5.3501391,Pharmacie le Belier,-4.0169929,0,,node/6907121510
5.3417336,Indenié,-4.0230855,0,,node/6907121511
5.3220152,Mairie du Plateau,-4.018503,0,,node/6907121512
5.3219502,Institut Français,-4.0170059,0,,node/6907121513
5.3195012,CNPS,-4.0144649,0,,node/6907121514
5.3088742,Gare Marcory,-3.984068,0,,node/6907121515
5.342209,RTI,-4.0033579,0,,node/6907141795
5.3459837,Archibat,-4.0029046,0,,node/6907141796
5.3356901,Marché de Cocody,-4.0007897,0,,node/6907141797
5.3232894,Gare Blockauss,-4.0021679,0,,node/6907141798
5.3278237,Banque Mondiale,-4.0013589,0,,node/6907141799
5.3355267,Marché de Cocody,-4.0007635,0,,node/6907141800
5.3384172,CIE,-4.0038072,0,,node/6907141801
5.351632,Palm Club,-4.0021657,0,,node/6907141802
5.3587491,Gare Nord,-4.0274511,0,,node/6907141803
5.3543654,Texaco,-4.0180323,0,,node/6907147644
5.3478735,Pont lycée technique,-4.0101289,0,,node/6907147645
5.3442806,SODEMI,-4.0038018,0,,node/6907147646
5.3404792,SGBCI,-4.0033259,0,,node/6907147647
5.336444,Marché de Cocody,-3.9999757,0,,node/6907147648
5.3334363,PMI,-4.0003179,0,,node/6907147649
5.3280617,Banque Mondiale,-4.00118,0,,node/6907147650
5.323287,Gare Blockauss,-4.0020444,0,,node/6907147651
5.3528511,Boulangerie Top baquette,-4.0168481,0,,node/6907154300
5.3472669,220 logements,-4.017115,0,,node/6907154301
5.3589598,Gare Nord,-4.0273707,0,,node/6907157792
5.3559786,Renault,-4.0213836,0,,node/6907157793
5.3534802,Adjamé Liberté,-4.0158064,0,,node/6907157794
5.339615,CERAP - INADES,-4.000587,0,,node/6907157795
5.3464621,Gare Campus Cocody,-3.9946557,0,,node/6908599212
5.343718,ISTC,-4.0013186,0,,node/6908599213
5.4354972,Gare Abobo Sogephia,-4.0153091,0,,node/6908599215
5.3456864,INSAAC,-3.9968976,0,,node/6908618074
5.427395,EPV Konaté,-4.016795,0,,node/6908618077
5.4286537,Lycée Moderne d'Abobo,-4.0146633,0,,node/6908618078
5.4339703,[Arret sans nom],-4.012329,0,,node/6908728765
5.432656,[Arret sans nom],-4.013431,0,,node/6908728766
5.4273213,[Arret sans nom],-4.0162121,0,,node/6908728767
5.343821,ISTC,-4.0008199,0,,node/6908728771
5.3462119,Gare Campus Cocody,-3.9937238,0,,node/6908728772
5.43182,[Arret sans nom],-4.0147361,0,,node/6908782549
5.429723,[Arret sans nom],-4.014638,0,,node/6908782550
5.3450487,Cité des Arts,-3.9978676,0,,node/6908782552
5.3466283,université méthodiste de Côte D'Ivoire,-3.993895,0,,node/6908782553
5.357415,[Arret sans nom],-4.0160582,0,,node/6908914485
5.3491257,Cours socio éducatif,-4.0171632,0,,node/6908914486
5.3082112,Piscine d’État de Treichville,-3.9996571,0,,node/6908914487
5.3090397,Gare Marcory,-3.9839441,0,,node/6908914488
5.3555536,Boulangerie Top Qualité,-4.0161239,0,,node/6908914489
5.3513262,Liberté,-4.0170747,0,,node/6908914490
5.3503722,Pharmacie le Belier,-4.0170975,0,,node/6908914491
5.3418097,Indenié,-4.0230188,0,,node/6908914492
5.3421743,Banque SIB,-4.025647,0,,node/6908914493
5.321186,Bicici plateau,-4.0183783,0,,node/6908914494
5.321624,Pyramide,-4.0167837,0,,node/6908914495
5.3184312,Siège Moov,-4.0145266,0,,node/6908914496
5.3641726,Croix Bleue,-4.0188664,0,,node/6908914498
5.3653249,Infirmerie Sinikeya,-4.0202826,0,,node/6908914499
5.3670874,Gare Williamsville,-4.0235066,0,,node/6908914500
5.3589877,Petro Ivoire,-4.0318263,0,,node/6909039462
5.3468603,Pharmacie Sainte Marie,-4.0257324,0,,node/6909039464
5.3080247,Cité Policière,-4.0159526,0,,node/6909039468
5.2958623,CHU,-4.0046789,0,,node/6909039469
5.2927793,PTT Km4,-3.9984496,0,,node/6909039470
5.2914467,Pharmacie Santé Publique,-3.9957435,0,,node/6909039471
5.3585383,Cité Fairmont,-4.0375583,0,,node/6909108442
5.305135,arrêt,-4.0149536,0,,node/6909108450
5.29123,Services Techniques du District,-3.9902017,0,,node/6909108451
5.3088407,Gare Marcory,-3.9840127,0,,node/6909121487
5.2971256,Parc des Sports,-4.0074831,0,,node/6909208699
5.2895393,"SIYOA, Boulevard de Marseille",-3.990781,0,,node/6909208700
5.36188,Arrêt,-4.0724972,0,,node/6909225529
5.3647534,Arrêt,-4.0745652,0,,node/6909225530
5.3727101,Pic Société,-4.0961792,0,,node/6909225533
5.3742257,[Arret sans nom],-4.0895635,0,,node/6909225534
5.372722,Nestlé,-4.0867558,0,,node/6909225535
5.3745633,Arrêt,-4.0781781,0,,node/6909225536
5.3703887,[Arret sans nom],-4.0796923,0,,node/6909225537
5.3683786,Arrêt,-4.0786743,0,,node/6909225538
5.3670367,Direction de la Sotra,-4.0761986,0,,node/6909225539
5.3628133,Arrêt,-4.0736157,0,,node/6909225540
5.3612471,[Arret sans nom],-4.0702482,0,,node/6909225541
5.3623019,Lycée Moderne Yopougon Andokoi,-4.0678704,0,,node/6909225542
5.3615148,Centre Ivoire Couture,-4.0667894,0,,node/6909225543
5.3585831,Gare Nord,-4.0278578,0,,node/6909225544
5.3146893,Gare Sud,-4.0183049,0,,node/6909225545
5.2948194,CHU Treichville,-4.0033954,0,,node/6909237619
5.301827,Délices de France,-3.9881326,0,,node/6909237622
5.2913004,Services Techniques du District,-3.9900511,0,,node/6909237623
5.2931333,PTT Km4,-3.9994307,0,,node/6909237624
5.3023437,Quincaillerie Générale,-4.0141223,0,,node/6909237625
5.3049356,Arrêt,-4.0150089,0,,node/6909237626
5.308109,Cité Policière,-4.0161832,0,,node/6909237627
5.3591167,Gare Nord,-4.0279602,0,,node/6909237631
5.358876,Station Petro Ivoire,-4.0319963,0,,node/6909237632
5.3582206,Cité Fairmont,-4.0364602,0,,node/6909237633
5.3765208,[Arret sans nom],-4.094158,0,,node/6909430718
5.3618706,Gare CTE,-4.0668847,0,,node/6909430720
5.3621938,Lycée Moderne Yopougon Andokoi,-4.0678369,0,,node/6909430721
5.3607938,Station Total,-4.0710622,0,,node/6909430722
5.362382,Arrêt,-4.0736572,0,,node/6909430723
5.365409,Arrêt,-4.0742996,0,,node/6909430724
5.36707,Direction de la Sotra,-4.0764347,0,,node/6909430725
5.3683719,Arrêt,-4.0788862,0,,node/6909430726
5.3690582,Station,-4.080222,0,,node/6909430727
5.3699698,[Arret sans nom],-4.0819788,0,,node/6909430728
5.3741086,JOMACO,-4.0896792,0,,node/6909430729
5.3741528,Dépôt Yopougon zone Industrielle,-4.0958456,0,,node/6909430730
5.2645534,Hôpital Municipal,-3.9848298,0,,node/6909521603
5.2632614,Groupe Scolaire N'Sikan,-3.9834323,0,,node/6909521604
5.257665,CIE,-3.9849267,0,,node/6909521605
5.2558751,arrêt,-3.9956283,0,,node/6909521606
5.26373,Gestoci,-3.9989162,0,,node/6909521607
5.2704314,Pont de Vridi,-4.0062621,0,,node/6909521608
5.2978357,"Etablissements Rey, Port",-4.0143099,0,,node/6909521609
5.3005436,Sicodis,-4.0175241,0,,node/6909521610
5.305037,Comissariat du Port,-4.0231458,0,,node/6909521611
5.3069377,Grand Moulin Abidjan,-4.0211629,0,,node/6909521612
5.3088247,Hôpital du Pont,-4.0179278,0,,node/6909521613
5.305655,"Avenue 11, Rue 12, Treichville",-4.0117363,0,,node/6909521614
5.3039938,"Avenue 15, Rue 12, Treichville",-4.0111588,0,,node/6909521615
5.3040254,Paroisse Notre Dame,-4.0034158,0,,node/6909521616
5.3056574,Marché Belleville,-3.9987874,0,,node/6909521617
5.3087649,Gare Marcory,-3.9838718,0,,node/6909521620
5.266603,Vridi Cité - Terminus 53,-3.9871428,0,,node/6909546905
5.259526,Pharmacie Vridi Port,-3.9818252,0,,node/6909546906
5.2571616,Stade de la SIR,-3.9892306,0,,node/6909546907
5.2588247,Vridi-Iran,-3.9978983,0,,node/6909546908
5.2676512,"CPMA, Vridi",-4.0031425,0,,node/6909546909
5.277976,PALM-CI,-4.0085496,0,,node/6909546910
5.2821643,Bolloré,-4.0084685,0,,node/6909546911
5.2864977,Siège SOTRA,-4.008455,0,,node/6909546912
5.292271,Arrêt,-4.008424,0,,node/6909546913
5.296841,Ciment Bélier,-4.0131528,0,,node/6909546914
5.3029759,Port Autonome Abidjan,-4.0212547,0,,node/6909546915
5.309804,Maison du Congres,-4.0149741,0,,node/6909546916
5.3059215,Collège Bosco,-4.0050815,0,,node/6909546917
5.3226268,Niangon Sud à droite,-4.1045,0,,node/6909707221
5.3233679,Carrefour Académie,-4.1057378,0,,node/6909707223
5.325714,Caféier,-4.1059349,0,,node/6909707224
5.3310513,Lubafrique,-4.1037691,0,,node/6909707225
5.3338915,2ème arrêt ANADOR,-4.1029765,0,,node/6909707226
5.3358784,Carrefour Anador,-4.1014047,0,,node/6909707227
5.3404237,Pharmacie Cité Maroc,-4.1004632,0,,node/6909707228
5.3407014,CIE,-4.0892462,0,,node/6909707229
5.3450164,[Arret sans nom],-4.0892456,0,,node/6909707230
5.3481316,Grand Centre,-4.0875008,0,,node/6909707231
5.3540742,Port-Bouët II,-4.0874934,0,,node/6909707232
5.3561104,[Arret sans nom],-4.0851103,0,,node/6909707233
5.3604209,BAE,-4.0850901,0,,node/6909707234
5.358951,Gare Nord,-4.0277736,0,,node/6909707236
5.3147518,Gare Sud,-4.0183735,0,,node/6909707238
5.3058324,Feu du Collège Bosco,-4.0049374,0,,node/6909737821
5.3062141,"Avenue 10, Rue 12, Treichville",-4.0120606,0,,node/6909737822
5.3067759,Grand Moulin Abidjan,-4.0211598,0,,node/6909737824
5.3033621,Siège Port Autonome Abidjan,-4.0217286,0,,node/6909737825
5.2945614,Port Autonome Abidjan,-4.0095509,0,,node/6909737826
5.2878677,Siège SOTRA,-4.0082981,0,,node/6909737827
5.2820277,Bolloré,-4.0083516,0,,node/6909737828
5.2787,Movis,-4.00841,0,,node/6909737829
5.2705271,Pont de Vridi,-4.0061063,0,,node/6909737830
5.3309411,Cité Administrative,-4.0239378,0,,node/6909812227
5.3572641,CHU de Yopougon,-4.0849641,0,,node/6909812228
5.3552565,[Arret sans nom],-4.0867444,0,,node/6909812229
5.3469666,Pharmacie Port-Bouët II,-4.0880983,0,,node/6909812230
5.3453455,[Arret sans nom],-4.0891591,0,,node/6909812231
5.3400138,Mosquée du Maroc,-4.0974297,0,,node/6909812232
5.3401827,Pharmacie Cité Maroc,-4.1003972,0,,node/6909812233
5.335861,Carrefour Anador,-4.1013081,0,,node/6909812234
5.3305692,Lubafrique,-4.1037999,0,,node/6909812235
5.3273952,[Arret sans nom],-4.1051263,0,,node/6909812236
5.32569,Caféier,-4.1058531,0,,node/6909812237
5.3226401,Niangon Sud à droite,-4.1045248,0,,node/6909812238
5.3568101,Siporex-Sicomex,-4.0739979,0,,node/6909923471
5.3538004,Siporex avant le feu,-4.0740046,0,,node/6909923472
5.3448074,William-Ponty,-4.0732898,0,,node/6909923473
5.3388868,Yopougon 16ème Advans,-4.0732871,0,,node/6909923474
5.3326109,Saguidiba,-4.0733247,0,,node/6909923475
5.3297734,Gare Yopougon Kouté,-4.0735526,0,,node/6909923477
5.3463096,Gare Campus Cocody,-3.9936456,0,,node/6910224899
5.3297134,Gare Yopougon Kouté,-4.0738578,0,,node/6910224902
5.3315587,Saguidiba,-4.0735191,0,,node/6910224905
5.3344863,Côte d'Ivoire-Telecom,-4.0734252,0,,node/6910224906
5.338834,Yopougon 16ème Advans,-4.0734096,0,,node/6910224907
5.3418778,Saint André lavage,-4.0734078,0,,node/6910224908
5.345666,William-Ponty,-4.0734038,0,,node/6910224909
5.3540928,Siporex après le feu,-4.0741883,0,,node/6910224910
5.3566819,Siporex-Sicomex,-4.0741772,0,,node/6910224911
5.2678334,CPMA-Vridi,-4.0031259,0,,node/6910272309
5.2588726,Vridi-Iran,-3.9977641,0,,node/6910272310
5.2565075,"SIR, Vridi",-3.9932473,0,,node/6910272311
5.2577882,CIE,-3.9854582,0,,node/6910272312
5.2582659,"Cité CIE, Vridi",-3.9824273,0,,node/6910272313
5.2600531,Temple des Vainqueurs,-3.9820028,0,,node/6910272314
5.2644761,Hôpital Municipal,-3.9850263,0,,node/6910272315
5.2666602,Cité Vridi,-3.9874196,0,,node/6910272316
5.3313223,Cité Administrative,-4.0228166,0,,node/6910518025
5.4267852,Abobo Gendarmerie,-4.0201529,0,,node/6910584802
5.350955,Institut des aveugles,-4.0632851,0,,node/6910703473
5.3476916,Bel Air,-4.0632758,0,,node/6910703474
5.3418057,Complexe sportif de Yopougon,-4.0622364,0,,node/6910703475
5.3380456,Nouveau quartier,-4.0622136,0,,node/6910703476
5.3333961,Clinique les Oliviers,-4.0621975,0,,node/6910703477
5.3294751,Yopougon Phalène,-4.061462,0,,node/6910743309
5.333826,Clinique les Oliviers,-4.0623826,0,,node/6910743310
5.3375141,Nouveau quartier,-4.0623477,0,,node/6910743311
5.3460439,Bel Air,-4.0634635,0,,node/6910743312
5.3556644,Sable,-4.0660062,0,,node/6910743313
5.3513983,Institut des aveugles,-4.0634474,0,,node/6910743314
5.3237979,Ben,-4.0804794,0,,node/6910755171
5.3255979,Marejea,-4.0764964,0,,node/6910755172
5.3255738,Iris3,-4.0718266,0,,node/6910755173
5.3198733,Yopougon Sideci,-4.0802502,0,,node/6910755174
5.3242746,Marché Kouté,-4.0667291,0,,node/6910755176
5.3236042,L'usine du camp,-4.0615042,0,,node/6910755177
5.3236336,Stenb,-4.0577316,0,,node/6910755178
5.3222355,Le petit soleil,-4.0535085,0,,node/6910755179
5.3222275,Yopougon Kowëit,-4.0507693,0,,node/6910755180
5.3222395,La faveur,-4.0464583,0,,node/6910755181
5.3198693,Pharmacie Chenain,-4.0439746,0,,node/6910755182
5.3171339,Iris 3,-4.0439826,0,,node/6910755183
5.3137348,Bon choix,-4.0440027,0,,node/6910755184
5.3095505,Santé Village,-4.0439558,0,,node/6910794085
5.3101983,Gare Abobo-Doumé,-4.0353389,0,,node/6910794088
5.4258812,Arrêt,-4.01971,0,,node/6910797790
5.4182684,Arrêt,-4.0128435,0,,node/6910797791
5.4156089,Arrêt,-4.0054353,0,,node/6910797792
5.4155902,Arrêt,-3.999584,0,,node/6910797793
5.4038607,Terminus 81/82,-3.9856156,0,,node/6910797794
5.4031254,BICICI,-3.9792073,0,,node/6910797795
5.4011881,Arrêt,-3.9780821,0,,node/6910797796
5.3988302,Arrêt,-3.9776878,0,,node/6910797797
5.3963428,Arrêt,-3.977036,0,,node/6910797798
5.3932466,Arrêt,-3.9761992,0,,node/6910797799
5.3946558,Arrêt,-3.971504,0,,node/6910797800
5.4000986,Cité Diaspora,-3.9649835,0,,node/6910797801
5.4025338,SOCIAM,-3.9621642,0,,node/6910797802
5.4022965,SOCIAM,-3.9620463,0,,node/6910797803
5.399963,CHU Angré,-3.9570893,0,,node/6910797804
5.4154527,Arrêt,-4.0022783,0,,node/6910797805
5.3997812,CHU Angré,-3.9570173,0,,node/6910797806
5.4003923,Arrêt,-3.9592423,0,,node/6910797807
5.4011774,Arrêt,-3.960527,0,,node/6910797808
5.3991713,Arrêt,-3.9657399,0,,node/6910797809
5.3964463,Arrêt,-3.9689626,0,,node/6910797810
5.3933681,Arrêt,-3.9736088,0,,node/6910797811
5.3929368,Arrêt,-3.9754415,0,,node/6910797812
5.3954823,Arrêt,-3.9769683,0,,node/6910797813
5.3963101,Arrêt,-3.9772754,0,,node/6910797814
5.4003569,Arrêt,-3.9781552,0,,node/6910797815
5.4022415,Arrêt,-3.978471,0,,node/6910797816
5.4029505,BICICI,-3.9794534,0,,node/6910797817
5.4042516,Petro Ivoire Angré,-3.9898295,0,,node/6910797818
5.4070126,Saint Ambroise,-3.9911934,0,,node/6910797819
5.4103992,Arrêt,-3.9941237,0,,node/6910797820
5.4136035,Arrêt,-3.9953287,0,,node/6910797821
5.3317315,Lycée Classique d'Abidjan,-4.0043772,0,,node/6912410269
5.3286968,Hôtel Ivoire,-4.0047695,0,,node/6912410270
5.3278806,Hôtel Ivoire,-4.0029871,0,,node/6912410271
5.3277329,Hôtel Ivoire,-4.0032565,0,,node/6912410272
5.3327049,Lycée Classique d'Abidjan,-4.0045047,0,,node/6912410273
5.3439798,SODEMI,-4.0037108,0,,node/6912410274
5.3477876,Pont lycée technique,-4.0095505,0,,node/6912410275
5.3290976,Carrefour Express,-4.0751626,0,,node/6912654329
5.3581253,BMW,-4.0012691,0,,node/6912729876
5.3601195,SOCITECH,-3.998725,0,,node/6912729877
5.3648148,Macaci,-3.9976354,0,,node/6912729878
5.367356,Mobil 2 Plateaux,-3.9983993,0,,node/6912729879
5.3718047,Sococé 2 Plateaux,-3.9984268,0,,node/6912729880
5.3745478,BOA,-3.9985198,0,,node/6912729881
5.3755833,Snedai,-3.9985338,0,,node/6912729882
5.3776569,Carrefour Duncan,-3.9976312,0,,node/6912729883
5.3809527,Las Palmas,-3.9943103,0,,node/6912729884
5.3388207,Pharmacie du Marché,-4.0792393,0,,node/6912805206
5.3373258,[Arret sans nom],-4.0765581,0,,node/6912805207
5.3384061,Patisserie,-4.0752894,0,,node/6912805208
5.3467623,Ex Chaine Avion Rue Princesse,-4.0652525,0,,node/6912805209
5.3408189,Camp FRCI,-4.0599974,0,,node/6912805210
5.3398655,Carrefour Marché,-4.0572368,0,,node/6912805211
5.3373205,Carrefour Lama Fofana,-4.0549944,0,,node/6912805212
5.3337105,Banque Atlantique,-4.0550186,0,,node/6912805213
5.3316575,Offoumou Yapo,-4.0520655,0,,node/6912805214
5.3293394,Tizra,-4.0497521,0,,node/6912805215
5.3264792,[Arret sans nom],-4.0494691,0,,node/6912805216
5.3247299,Arrêt,-4.0494999,0,,node/6912805217
5.3104606,Gare Abobo-Doumé,-4.0354465,0,,node/6912805219
5.3847656,Carrefour Opéra,-3.9932407,0,,node/6912820385
5.3888111,Mahikari,-3.9927523,0,,node/6912820386
5.3926338,Ambassade de Chine,-3.992269,0,,node/6912820387
5.3942154,Les Oscars,-3.9921141,0,,node/6912820388
5.3963811,BHCI,-3.9918337,0,,node/6912820389
5.4005109,Shawarma House,-3.9913221,0,,node/6912820390
5.4038172,Petro Ivoire Angré,-3.9909124,0,,node/6912820391
5.4042033,Notre Dame,-3.9882535,0,,node/6912820392
5.4034748,FIRDA,-3.9819806,0,,node/6912820393
5.4033098,Les Arcades,-3.9765606,0,,node/6912820394
5.4006902,Soleil 2,-3.9728354,0,,node/6912820395
5.3971939,Clinique Médicale Sainte Justine,-3.9694727,0,,node/6912820396
5.3998522,Cité Diaspora,-3.9648829,0,,node/6912820397
5.3972237,Clinique Médicale Sainte Justine,-3.9697282,0,,node/6912820398
5.4031598,Les Arcades,-3.9764213,0,,node/6912820399
5.4033208,FIRDA,-3.9820585,0,,node/6912820400
5.4037772,Termunis 81/82,-3.9856793,0,,node/6912820401
5.4041375,Notre Dame,-3.9887434,0,,node/6912820402
5.4037567,Petro Ivoire Angré,-3.9906882,0,,node/6912820403
5.4002961,Carrefour 22è,-3.9911377,0,,node/6912820404
5.3965825,BHCI,-3.9915941,0,,node/6912820405
5.3926201,Ambassade de Chine,-3.9920829,0,,node/6912820406
5.3895654,Mahikari,-3.9924668,0,,node/6912820407
5.3845481,Opéra,-3.9930996,0,,node/6912820408
5.3809502,Las Palmas,-3.9940546,0,,node/6912820409
5.3779505,Carrefour Duncan,-3.9970644,0,,node/6912820410
5.3753472,Le Roi du Pain,-3.9983567,0,,node/6912820411
5.3725038,Sococé 2 Plateaux,-3.9983278,0,,node/6912820412
5.3677225,Mobil 2 Plateaux,-3.9981432,0,,node/6912820413
5.3654376,Macaci,-3.9973648,0,,node/6912820414
5.3574699,Saint Jacques,-4.0012391,0,,node/6912820415
5.3525544,Palm Club,-4.0018639,0,,node/6912820416
5.3493692,Carrefour la Vie,-4.0022742,0,,node/6912820417
5.344562,Arrêt,-4.0028093,0,,node/6912820418
5.3266074,Sitarail,-4.0255438,0,,node/6913011676
5.3293875,Gare Yopougon Kouté,-4.073499,0,,node/6913011677
5.3134744,Bon choix,-4.0441328,0,,node/6913190443
5.3087112,Santé Village,-4.043768,0,,node/6913190444
5.3166799,Iris 3,-4.0440879,0,,node/6913190445
5.3208014,Arrêt,-4.0441167,0,,node/6913190446
5.3221154,La faveur,-4.0468311,0,,node/6913190447
5.323918,Arrêt,-4.0496448,0,,node/6913190448
5.3270841,Commissariat de Police du 19ᵉ Arrondissement,-4.0503167,0,,node/6913190449
5.3295798,Tizra,-4.0501732,0,,node/6913190450
5.3313998,Offoumou Yapo,-4.0519957,0,,node/6913190451
5.3337753,La Poste,-4.0550937,0,,node/6913190452
5.3369773,Pharmacie Sacré-cœur,-4.055093,0,,node/6913190453
5.3401473,Pharmacie Béatitude,-4.058547,0,,node/6913190454
5.3407362,Nouveau quartier,-4.0608235,0,,node/6913190455
5.3466167,Ex Chaine Avion Rue Princesse,-4.0650474,0,,node/6913190456
5.3447353,Newton,-4.0678006,0,,node/6913190457
5.3395304,Marche Sicogi,-4.0745628,0,,node/6913190458
5.3379928,Patisserie,-4.0751928,0,,node/6913190459
5.3372574,Pharmacie du Marché,-4.0770331,0,,node/6913190460
5.3372711,Terrain Sogefiha,-4.0806585,0,,node/6913190461
5.3335416,Antenne,-4.0733126,0,,node/6913201897
5.3290163,Cabine Bleue,-4.0757574,0,,node/6913201898
5.3243327,Akadjoba,-4.0799806,0,,node/6913201899
5.3239194,Saint Pierre,-4.0871836,0,,node/6913201900
5.3233739,EPP Niangon,-4.0925668,0,,node/6913201901
5.3197171,Clinique Sainte Thérèse,-4.0944323,0,,node/6913201902
5.3163701,Centre Social,-4.0947904,0,,node/6913201903
5.3152357,Arrêt Yop 38,-4.0928994,0,,node/6913201904
5.3160217,Niangon Sud à Gauche,-4.0900361,0,,node/6913201907
5.3150643,Centre Social,-4.0934497,0,,node/6913201908
5.3172602,EPP SICOGI Niangon Sud,-4.0948509,0,,node/6913201909
5.3202551,Carrefour Marché,-4.0943199,0,,node/6913201910
5.3233885,EPP Niangon,-4.0926667,0,,node/6913201911
5.3240967,Saint Pierre,-4.0869619,0,,node/6913201912
5.3246783,Akadjoba,-4.0797426,0,,node/6913201913
5.3287702,Arrêt de bus,-4.0762905,0,,node/6913201914
5.3146172,Gare Sud,-4.0184952,0,,node/6913201915
5.3144986,Gare Sud,-4.0183564,0,,node/6913291219
5.329485,CNTG-BNETD,-3.9977011,0,,node/6913703797
5.3310059,UCAO,-3.9970399,0,,node/6913703798
5.3350719,Maison du PDCI-RDA,-3.9973538,0,,node/6913703799
5.3084936,Piscine d’État de Treichville,-3.9997195,0,,node/6913703800
5.3074734,NSIA,-3.990551,0,,node/6913703801
5.3086966,Gare Marcory,-3.9837714,0,,node/6913703802
5.3353656,Maison du Parti,-3.9975172,0,,node/6913703803
5.3310313,UCAO,-3.9969162,0,,node/6913703804
5.3293836,CNTG-BNETD,-3.9976804,0,,node/6913703805
5.3557108,Sable,-4.0658826,0,,node/6913857608
5.3407344,Complexe Sportif de Yopougon,-4.0646331,0,,node/6913857611
5.3424009,Mairie de Yopougon,-4.0665987,0,,node/6913857612
5.3443401,La Marine,-4.0375561,0,,node/6913929664
5.3278599,Sitarail,-4.0262003,0,,node/6913929665
5.3146272,Gare Sud,-4.0182404,0,,node/6913929666
5.3441859,La Marine,-4.0376761,0,,node/6913929668
5.3295615,Gare Yopougon Kouté,-4.0737128,0,,node/6913929669
5.3367091,Gendarmerie,-4.0216157,0,,node/6913931703
5.3369705,Gendarmerie,-4.0217222,0,,node/6913974340
5.400545,Soleil 2,-3.9728972,0,,node/6915341517
5.4035247,Cash Express,-3.9837323,0,,node/6915341518
5.4062326,Arrêt,-3.9906836,0,,node/6915341519
5.4297269,Arrêt,-3.9894234,0,,node/6915341520
5.4313416,Arrêt,-3.9891222,0,,node/6915341521
5.4564179,Abobo Biabou,-3.9725804,0,,node/6915341523
5.4564283,Abobo Biabou,-3.9726482,0,,node/6915341525
5.4454571,Arrêt,-3.978184,0,,node/6915341526
5.4430187,Arrêt,-3.9810371,0,,node/6915341527
5.441543,Arrêt,-3.9831075,0,,node/6915341528
5.4403681,Arrêt,-3.9847859,0,,node/6915341529
5.4391313,Arrêt,-3.9859783,0,,node/6915341530
5.4368688,Arrêt,-3.9875153,0,,node/6915341531
5.4356843,Arrêt,-3.987991,0,,node/6915341532
5.434457,Arrêt,-3.9883619,0,,node/6915341533
5.4327625,Arrêt,-3.9887503,0,,node/6915341534
5.4312302,Arrêt,-3.9889419,0,,node/6915341535
5.4293215,Arrêt,-3.9892581,0,,node/6915341536
5.4264243,Arrêt,-3.9896961,0,,node/6915341537
5.4229496,Arrêt,-3.9902515,0,,node/6915341538
5.4208149,Arrêt,-3.9905681,0,,node/6915341539
5.4195345,Arrêt,-3.9907254,0,,node/6915341540
5.4182159,Arrêt,-3.9909298,0,,node/6915341541
5.4158878,Arrêt,-3.9922122,0,,node/6915341542
5.4154923,Arrêt,-3.9928597,0,,node/6915341543
5.4148205,Arrêt,-3.9947036,0,,node/6915341544
5.4141247,Arrêt,-3.9952879,0,,node/6915341545
5.409531,Arrêt,-3.9932262,0,,node/6915341546
5.4050885,Petro Ivoire Angré,-3.990564,0,,node/6915341547
5.403643,Sib,-3.9829561,0,,node/6915341548
5.4033522,Arrêt,-3.9807645,0,,node/6915341549
5.3585446,9 Kilo,-3.96346,0,,node/6915487638
5.360974,Rond-Point de la Palmeraie,-3.9586683,0,,node/6915487639
5.3606149,Carrefour de la Gendarmerie,-3.9598948,0,,node/6915487640
5.3568703,Cap Nord,-3.9665508,0,,node/6915487641
5.3532599,Riviera 2,-3.9779824,0,,node/6915487642
5.3502292,École de Police,-3.9881887,0,,node/6915487643
5.3492233,École de la Gendarmerie,-3.9943092,0,,node/6915487644
5.3485522,Carrefour de la Vie,-4.0018322,0,,node/6915487645
5.4217637,Mairie d'ABOBO,-4.0185375,0,,node/6915647682
5.4270593,Arrêt,-4.0212736,0,,node/6915647683
5.4303911,Arrêt,-4.0241622,0,,node/6915647684
5.3587403,9 Kilo,-3.9635319,0,,node/6915696792
5.3596047,Chic Shop,-3.9620358,0,,node/6915696795
5.3574857,Cap Nord,-3.9657802,0,,node/6915696796
5.3504609,École de Police,-3.9881605,0,,node/6915696797
5.3494956,Carrefour CHU,-3.9916044,0,,node/6915696798
5.3493834,École de la Gendarmerie,-3.994457,0,,node/6915696799
5.3485982,Carrefour de la Vie,-4.0029649,0,,node/6915696800
5.4333404,Arrêt,-4.0266778,0,,node/6915722685
5.4390733,Anokoi,-4.0446977,0,,node/6915722686
5.4434752,PK 18 Agripac,-4.0485036,0,,node/6915722687
5.4482915,Arrêt,-4.0512502,0,,node/6915722688
5.4503535,Arrêt,-4.0529903,0,,node/6915722689
5.4565524,Arrêt,-4.0545715,0,,node/6915722690
5.4574448,Arrêt,-4.054497,0,,node/6915722691
5.465098,Arrêt,-4.0544278,0,,node/6915722692
5.4662168,Arrêt,-4.0540279,0,,node/6915722693
5.4680953,Arrêt,-4.0530974,0,,node/6915722694
5.4794949,Arrêt,-4.0538658,0,,node/6915722695
5.4828953,Arrêt,-4.0513358,0,,node/6915722696
5.4837187,Arrêt,-4.0513476,0,,node/6915722697
5.4866626,Arrêt,-4.05146,0,,node/6915722698
5.4890597,Arrêt,-4.0515593,0,,node/6915722699
5.4904279,Arrêt,-4.0516047,0,,node/6915722700
5.490915,Arrêt,-4.0516233,0,,node/6915722701
5.4914503,Arrêt,-4.051639,0,,node/6915722702
5.4928779,Arrêt,-4.0516636,0,,node/6915722703
5.4940805,Arrêt,-4.0517658,0,,node/6915722704
5.495095,Arrêt,-4.0517794,0,,node/6915722705
5.4960474,Arrêt,-4.0516644,0,,node/6915722706
5.4970767,Arrêt,-4.0515036,0,,node/6915722707
5.497669,Arrêt,-4.051438,0,,node/6915722708
5.4979794,Arrêt,-4.0513918,0,,node/6915722709
5.4995751,Arrêt,-4.0516497,0,,node/6915722710
5.500507,Arrêt,-4.0519247,0,,node/6915722711
5.5011338,Arrêt,-4.0520934,0,,node/6915722712
5.5015989,Arrêt,-4.0522125,0,,node/6915722713
5.5026911,Arrêt,-4.0525268,0,,node/6915722714
5.5045432,Arrêt,-4.0530594,0,,node/6915722715
5.5053444,Arrêt,-4.0532829,0,,node/6915722716
5.5064599,Mairie d'Anyama,-4.0531365,0,,node/6915722717
5.5064064,Mairie d'Anyama,-4.0530408,0,,node/6915722719
5.4976427,Arrêt,-4.0513828,0,,node/6915722720
5.5027177,Arrêt,-4.0523687,0,,node/6915722721
5.4994894,Arrêt,-4.0514357,0,,node/6915722722
5.4949787,Arrêt,-4.0516383,0,,node/6915722723
5.4888603,Arrêt,-4.051407,0,,node/6915722724
5.4863031,Arrêt,-4.0513417,0,,node/6915722725
5.4825896,Arrêt,-4.0512201,0,,node/6915722726
5.479955,Arrêt,-4.0531887,0,,node/6915722727
5.4757466,Arrêt A l'Ecole,-4.0552147,0,,node/6915722728
5.470731,Arrêt Contrôle,-4.0531044,0,,node/6915722729
5.4669354,Arrêt,-4.0534141,0,,node/6915722730
5.4611068,Arrêt Ancienne Gendarmerie,-4.053759,0,,node/6915722731
5.4526174,Arrêt,-4.0544875,0,,node/6915722732
5.4503748,Arrêt Ancien Marché,-4.0526523,0,,node/6915722733
5.4483606,Arrêt Terminus,-4.0510764,0,,node/6915722734
5.4449974,Arrêt Agripac,-4.0491425,0,,node/6915722735
5.4436482,Arrêt,-4.0484067,0,,node/6915722736
5.28758,Port de pêche,-4.0057551,0,,node/6916152424
5.2890666,Pharmacie du Port,-4.0084018,0,,node/6916152425
5.2961604,Arrêt du CHU,-4.0033572,0,,node/6916152426
5.2991407,Gare de Bassam,-4.0024808,0,,node/6916152427
5.3478959,La Vie,-4.0026565,0,,node/6916181080
5.3700062,Grande Pharmacie /Terminus 300FCFA,-3.9983308,0,,node/6916181081
5.4157357,Arrêt,-3.9930971,0,,node/6916280433
5.4149921,Abobo Baoulé,-3.9940399,0,,node/6916280434
5.4129627,Pharmacie Actuelle,-3.9948875,0,,node/6916280435
5.4103431,Arrêt,-3.9939447,0,,node/6916280436
5.4085794,Arrêt,-3.9923863,0,,node/6916280437
5.4071215,Saint Ambroise,-3.9910921,0,,node/6916280438
5.4055233,Arrêt,-3.990494,0,,node/6916280439
5.4011787,Citydia,-3.9910264,0,,node/6916280440
5.3991513,Carrefour 22ème,-3.9912618,0,,node/6916280441
5.3973362,SODECI,-3.991524,0,,node/6916280442
5.3945043,Paris Baguette,-3.9918311,0,,node/6916280443
5.3875127,Arrêt,-3.9927256,0,,node/6916280444
5.3797969,Patisserie Abidjanaise,-3.9952144,0,,node/6916280445
5.3737207,NSIA,-3.9983542,0,,node/6916280446
5.3700155,SGBGI,-3.9981216,0,,node/6916280447
5.3465781,Cité BAD,-4.002571,0,,node/6916280448
5.3386878,CIE,-4.0035403,0,,node/6916280449
5.3065218,Commissariat du 9 ème,-3.9865047,0,,node/6917146061
5.3061086,Commissariat du 9 ème,-3.9857063,0,,node/6917146062
5.3034179,King Cash,-3.9807831,0,,node/6917146063
5.3015677,Cabinet Médical du 3ème pont,-3.9776047,0,,node/6917146064
5.3005869,Marché de Marcory,-3.9757915,0,,node/6917146065
5.2986259,Paroisse Sainte Bernadette,-3.9722389,0,,node/6917146066
5.2982013,Pharmacie Bagoué,-3.9714765,0,,node/6917146067
5.2968312,Bank of Africa,-3.9688084,0,,node/6917146068
5.2965895,Arrêt,-3.9650103,0,,node/6917146069
5.2975636,Arrêt,-3.9608221,0,,node/6917146070
5.2983628,Place Inchallah,-3.9572333,0,,node/6917146071
5.299281,Koumassi Prodomo,-3.9531506,0,,node/6917146072
5.3001329,Gare Mesano,-3.9494388,0,,node/6917146073
5.3008577,Koumassi Mesano,-3.9476752,0,,node/6917146074
5.3002935,Koumassi Mesano,-3.9483867,0,,node/6917146075
5.2998074,Station Petro Ivoire,-3.9505841,0,,node/6917146076
5.2989496,Place Inchallah,-3.9543702,0,,node/6917146077
5.2980163,Arrêt,-3.9585451,0,,node/6917146078
5.2972737,Arrêt,-3.9619419,0,,node/6917146079
5.2962808,Arrêt,-3.9660523,0,,node/6917146080
5.296728,Bank of Africa,-3.9687629,0,,node/6917146081
5.2980069,Pharmacie Bagoué,-3.9712863,0,,node/6917146082
5.3006211,Marché de Marcory,-3.9759814,0,,node/6917146083
5.3016585,Cabinet Médical du 3ème pont,-3.9778785,0,,node/6917146084
5.3044464,Arrêt,-3.9828404,0,,node/6917151685
5.3062161,Commissariat du 9 ème,-3.9860886,0,,node/6917151686
5.3077309,Arrêt,-3.988849,0,,node/6917151687
5.3084636,Yan Auto Ecole,-3.9904413,0,,node/6917151688
5.3106101,Gare Abobo-Doumé,-4.0352896,0,,node/6919194336
5.3270854,Cité Bracodi Rte Cité verte,-4.0923844,0,,node/6919312942
5.332209,Cité Verte,-4.1119954,0,,node/6919312943
5.3316148,Collège Sebaco,-4.109973,0,,node/6919312945
5.3306787,Cité Bracodi Rte Cité verte,-4.1058974,0,,node/6919312946
5.3296893,Banque BNI,-4.1035223,0,,node/6919312947
5.3284241,Le repère,-4.100539,0,,node/6919312948
5.3278005,Carrefour de Niangon,-4.0976201,0,,node/6919312949
5.3241547,Akadjoba,-4.0812954,0,,node/6919312950
5.3103655,Gare Abobo-Doumé,-4.0351267,0,,node/6919312951
5.322126,Le petit soleil,-4.053652,0,,node/6919327587
5.3235388,Blé Doré,-4.0573213,0,,node/6919327588
5.3241224,Marché Kouté,-4.0669544,0,,node/6919327589
5.3251706,Carrefour Kouté,-4.0710314,0,,node/6919327590
5.325455,Marejea,-4.0761933,0,,node/6919327591
5.3238646,Akadjoba,-4.0818366,0,,node/6919327593
5.3264405,Ayaba Couture,-4.0914322,0,,node/6919327594
5.327729,Carrefour de Niangon,-4.0976496,0,,node/6919327595
5.3283566,Le repère,-4.1005786,0,,node/6919327596
5.3295851,Top Qualitée,-4.1035169,0,,node/6919327597
5.3307695,Cité Bracodi Rte Cité verte,-4.1063239,0,,node/6919327598
5.2982594,Arrêt,-3.9831407,0,,node/6919758025
5.2961308,Arrêt,-3.9792079,0,,node/6919758026
5.2945624,Arrêt,-3.9763809,0,,node/6919758027
5.293456,Arrêt,-3.9743974,0,,node/6919758028
5.2927669,Arrêt,-3.9712223,0,,node/6919758029
5.2932236,Arrêt,-3.9690283,0,,node/6919758030
5.2940469,Arrêt,-3.965347,0,,node/6919758031
5.2951953,Arrêt,-3.9603108,0,,node/6919758032
5.2961324,Arrêt,-3.9565101,0,,node/6919758033
5.297599,Sogefia,-3.9526269,0,,node/6919758034
5.2987064,Arrêt,-3.9478318,0,,node/6919758035
5.3015424,Station Petro Ivoire,-3.9469644,0,,node/6919758036
5.3043266,Arrêt,-3.9453759,0,,node/6919758037
5.3080062,Bon Samaritain,-3.946713,0,,node/6919758038
5.3099762,Pharmacie Fanny,-3.9473403,0,,node/6919758039
5.3109106,Patisserie MC,-3.9466942,0,,node/6919758040
5.311165,Koumassi Nord-Est - Lycée Municipal de Koumassi,-3.9450346,0,,node/6919758041
5.3023303,"Avenue 19, Rue 12, Treichville",-4.0106387,0,,node/6924851825
5.3047639,FIESTA,-4.0115547,0,,node/6924851826
5.3028704,Treichville Entente,-4.0006757,0,,node/6924851828
5.3015791,Nostalgie,-4.0016802,0,,node/6924851829
5.300882,Banque Bicici,-4.003555,0,,node/6924851830
5.2999593,[Arret sans nom],-4.0062869,0,,node/6924851831
5.3586294,Gare Nord,-4.0277536,0,,node/6924851833
5.3025272,"Avenue 19, Rue 12, Treichville",-4.0106307,0,,node/6924979791
5.3029946,Pharmacie de l'Avenue 27,-4.0062426,0,,node/6924979792
5.3032777,Treichville Entente,-4.0008245,0,,node/6924979794
5.3296238,[Arret sans nom],-4.0208888,0,,node/6926746685
5.3309876,Cité Administrative,-4.0236032,0,,node/6926746686
5.3149603,Terminus Gare Sud,-4.018979,0,,node/6926746688
5.3018048,Station Total,-4.0096436,0,,node/6926746689
5.4538834,Arrêt,-3.9737989,0,,node/6926746749
5.4385456,Arrêt,-3.9864522,0,,node/6926746750
5.4222388,Arrêt,-3.9903197,0,,node/6926746751
5.4154549,Arrêt,-3.9996626,0,,node/6926746752
5.4154484,Arrêt,-4.0016378,0,,node/6926746753
5.4155231,Arrêt,-4.0054049,0,,node/6926746754
5.4152696,Samaké,-4.0071858,0,,node/6926746755
5.3590439,Gare Nord,-4.0280449,0,,node/6926746757
5.4155963,Arrêt,-4.0019605,0,,node/6926746758
5.4156232,Arrêt,-3.9928882,0,,node/6926746759
5.4196603,Sotra,-3.9908193,0,,node/6926746760
5.422222,Arrêt,-3.9904401,0,,node/6926746761
5.426491,Arrêt,-3.9898022,0,,node/6926746762
5.43368,Arrêt,-3.9886816,0,,node/6926746763
5.4374054,Arrêt,-3.9873449,0,,node/6926746764
5.4402786,Arrêt,-3.9850082,0,,node/6926746765
5.443381,Arrêt,-3.9807703,0,,node/6926746766
5.4451883,Arrêt,-3.9785569,0,,node/6926746767
5.3079127,Bon Samaritain,-3.946597,0,,node/6926943107
5.3050831,Pharmacie Campement,-3.9451392,0,,node/6926943108
5.3011838,Hôpital Général de Marcory,-3.9835873,0,,node/6926943109
5.3034579,Pharmacie Notre-Dame,-4.0046641,0,,node/6926943110
5.3146776,Gare Sud,-4.0185633,0,,node/6926943111
5.3311928,Cité Administrative,-4.0236086,0,,node/6926943112
5.3051694,[Arret sans nom],-3.9840318,0,,node/6927022357
5.4159386,Arrêt,-3.9930649,0,,node/6927037611
5.408251,Arrêt,-4.0063405,0,,node/6927037612
5.4057129,Arrêt,-4.0063848,0,,node/6927037613
5.4013897,Arrêt,-4.0064518,0,,node/6927037614
5.3930717,Arrêt,-4.0057893,0,,node/6927037615
5.3875774,Arrêt,-4.0056726,0,,node/6927037616
5.3801858,Arrêt,-4.0066168,0,,node/6927037617
5.3625903,Arrêt,-4.0168427,0,,node/6927037618
5.3503578,Pharmacie le Belier,-4.0169801,0,,node/6927037619
5.3456673,Fraternité Matin,-4.0178358,0,,node/6927037620
5.3411247,Arrêt,-4.0237561,0,,node/6927037621
5.3372751,Arrêt,-4.0237963,0,,node/6927037622
5.3339228,Arrêt,-4.0238252,0,,node/6927037623
5.3310139,Cité Administrative,-4.0238251,0,,node/6927037625
5.3339515,Arrêt,-4.0238861,0,,node/6927037626
5.3377117,Ministère de la défense,-4.0238741,0,,node/6927037627
5.3557539,Arrêt,-4.0161668,0,,node/6927037628
5.379605,Arrêt,-4.0068716,0,,node/6927037629
5.386285,Arrêt,-4.0059958,0,,node/6927037630
5.4018603,Arrêt,-4.0065437,0,,node/6927037631
5.4158855,Abobo Belleville,-3.9933257,0,,node/6927037633
5.3434193,Arrêt,-4.0125125,0,,node/6927327302
5.346265,Arrêt,-4.0103402,0,,node/6927327303
5.3494085,Arrêt,-4.0088409,0,,node/6927327304
5.3529759,Arrêt,-4.0044479,0,,node/6927327305
5.4043844,Petro Ivoire Angré,-3.989773,0,,node/6927327306
5.4048944,Angré,-3.9851483,0,,node/6927327307
5.4082838,Arrêt,-3.9867901,0,,node/6927327308
5.407261,Arrêt,-3.9890592,0,,node/6927327309
5.3528041,Arrêt,-4.0043218,0,,node/6927327310
5.3493597,Arrêt,-4.0085859,0,,node/6927327311
5.3461658,Arrêt,-4.0102683,0,,node/6927327312
5.3433536,Polyclinique,-4.0124663,0,,node/6927327313
5.3147983,Gare Sud,-4.0186967,0,,node/6927327314
5.3022414,Campement,-3.9464354,0,,node/6927330411
5.3120389,Koumassi Nord-Est - Lycée Municipal de Koumassi,-3.9450815,0,,node/6927330412
5.3099838,Pharmacie Fanny,-3.9472561,0,,node/6927330413
5.3362229,Arrêt,-4.0047298,0,,node/6927330414
5.3462362,Gare Campus Cocody,-3.9938503,0,,node/6927330416
5.3463523,INSAAC,-3.9972169,0,,node/6927544633
5.3359628,Saint Jean,-4.0030417,0,,node/6927544634
5.3358129,Saint Jean,-4.0029552,0,,node/6927544636
5.3482687,Gendarmerie,-3.9970998,0,,node/6927544637
5.3536864,Liberté,-4.0175371,0,,node/6927600976
5.3567305,Mirador,-4.0250561,0,,node/6927600977
5.3566458,Sicogi,-4.0241115,0,,node/6927631763
5.3592856,Gare Nord,-4.0275494,0,,node/6927694921
5.3470894,Arrêt,-3.9971908,0,,node/6927701716
5.3534453,Riviera 2,-3.9700449,0,,node/6928179123
5.3533983,Cité étudiante Riviera 2,-3.9736351,0,,node/6928179124
5.3525929,Riviera 2,-3.9780678,0,,node/6928179125
5.3512739,Petite Mosquée Riviéra Jardin,-3.9805625,0,,node/6928179126
5.3516026,Petite Mosquée Riviéra Jardin,-3.9803499,0,,node/6928250859
5.3526374,Riviera 2,-3.9781867,0,,node/6928250860
5.3530707,Arrêt,-3.9761267,0,,node/6928250861
5.3534857,Riviera 2,-3.9702004,0,,node/6928250862
5.2563753,Vridi-Iran,-3.9975737,0,,node/6928681599
5.2947326,Arrêt Cuirasse Ciment,-4.0101948,0,,node/6928681601
5.3588804,Gare Nord,-4.0279685,0,,node/6928681602
5.3050571,Comissariat du Port,-4.0228924,0,,node/6928704112
5.3002851,[Arret sans nom],-4.0170398,0,,node/6928704113
5.29778,"Etablissements Rey, Port",-4.0140854,0,,node/6928704114
5.264595,Arrêt Bolloré logistique,-3.9995223,0,,node/6928704115
5.2562337,Vridi-Iran,-3.9975522,0,,node/6928704117
5.3143818,Gare Sud,-4.0182207,0,,node/6929796960
5.314962,Terminus Gare Sud,-4.0189046,0,,node/6929849943
5.3078566,Arrêt,-3.9888954,0,,node/6930487819
5.3612016,Station Corlay Bingerville,-3.8943455,0,,node/6930917942
5.3618466,Après barrage,-3.9581935,0,,node/6930917943
5.364055,Dalia,-3.9537437,0,,node/6930917944
5.3653603,Église Apostolique de Côte d'Ivoire,-3.9497378,0,,node/6930917945
5.3673945,Camp Militaire d'Akouédo,-3.94563,0,,node/6930917946
5.370105,Carrefour Faya,-3.9389929,0,,node/6930917947
5.3712573,Résidence Genie 2000,-3.9347483,0,,node/6930917948
5.3725084,Optic 2000,-3.9301188,0,,node/6930917949
5.3741413,Jules Verne,-3.9237472,0,,node/6930917950
5.3718715,Pharmacie Saint Sylvestre,-3.9108525,0,,node/6930917951
5.3645064,Cité Hévéas,-3.9083956,0,,node/6930917952
5.3606115,Université de Cocody Pole Scientifique,-3.9031767,0,,node/6930917953
5.360275,CIE,-3.8979524,0,,node/6930917954
5.360916,[Arret sans nom],-3.8963887,0,,node/6930917955
5.3577634,Lycée Garçon de Bingerville,-3.8909747,0,,node/6930917956
5.3574363,Carrefour Marché,-3.8866322,0,,node/6930917957
5.3583363,Espace Orange,-3.8843503,0,,node/6930917958
5.360674,Hôpital Mère-Enfant de Bingerville,-3.8841063,0,,node/6930917959
5.3573589,Carrefour Marché,-3.886655,0,,node/6930917961
5.3576746,Lycée Garçon de Bingerville,-3.8908299,0,,node/6930917962
5.3601255,CIE,-3.8980114,0,,node/6930917963
5.360215,Université de Cocody Pole Scientifique,-3.9020951,0,,node/6930917964
5.3643261,Cité Hévéas,-3.9084667,0,,node/6930917965
5.368265,Cité Marina,-3.9097783,0,,node/6930917966
5.3714883,Arrêt,-3.9108391,0,,node/6930917967
5.3740098,Jules Verne,-3.9233838,0,,node/6930917968
5.3716378,Coris Bank,-3.9324215,0,,node/6930917969
5.3701704,Arrêt,-3.9379911,0,,node/6930917970
5.3671088,Camp Militaire d'Akouédo,-3.9456984,0,,node/6930917971
5.3640882,Arrêt,-3.9528454,0,,node/6930917972
5.3617224,Après barrage,-3.9579964,0,,node/6930917973
5.2993777,Arrêt,-3.94723,0,,node/6931151021
5.2975523,Sogefia,-3.9523798,0,,node/6931151022
5.2958991,Arrêt,-3.9571428,0,,node/6931151023
5.2952895,Pharmacie Saint François,-3.9596352,0,,node/6931151024
5.2941237,Grande Pharmacie Iroko,-3.9646348,0,,node/6931151025
5.2929966,Arrêt,-3.9695299,0,,node/6931151026
5.2924858,Pharmacie Du Boulevard Du Gabon,-3.971683,0,,node/6931151027
5.2940696,Polyclinique La Madone,-3.9757097,0,,node/6931151028
5.2965781,Arrêt,-3.9801776,0,,node/6931151029
5.298031,Arrêt,-3.9828604,0,,node/6931151030
5.3590066,Gare Nord,-4.027668,0,,node/6931151031
5.2873212,Koumassi Sicogi - Dépôt SOTRA,-3.9540428,0,,node/6931273195
5.2849829,[Arret sans nom],-3.964256,0,,node/6931273196
5.2875055,[Arret sans nom],-3.9651793,0,,node/6931273197
5.2873493,Arrêt,-3.9684516,0,,node/6931273198
5.2883388,[Arret sans nom],-3.9694119,0,,node/6931273199
5.293018,Sicomex,-3.9762314,0,,node/6931273200
5.3148159,Gare Sud,-4.0184375,0,,node/6931273203
5.3074119,Pharmacie du Rond-point,-4.0117713,0,,node/6931792543
5.3090558,[Arret sans nom],-4.0071049,0,,node/6931792544
5.2889971,Centre Commercial Koumassi,-3.9672808,0,,node/6931792545
5.2839293,Arrêt,-3.9622262,0,,node/6931792546
5.2847439,Pharmacie Bethanie,-3.9586401,0,,node/6931792547
5.2857761,Arrêt,-3.9543311,0,,node/6931792548
5.2884523,Koumassi Sicogi - Dépôt SOTRA,-3.9538698,0,,node/6931792550
5.2870688,Grand Carrefour de Koumassi,-3.970533,0,,node/6931985671
5.2985627,Ivosep Treichville,-4.001299,0,,node/6931985672
5.3266769,Arrêt,-4.060057,0,,node/6932152400
5.3250076,Ghandi,-4.0598402,0,,node/6932152402
5.3253408,Ghandi,-4.0599193,0,,node/6932152404
5.3600658,Arrêt,-4.0669167,0,,node/6932152405
5.314853,Gare Sud,-4.0182858,0,,node/6932152407
5.3286224,CIAD,-3.9502595,0,,node/6932239010
5.3291271,Arrêt,-3.951901,0,,node/6932239011
5.338314,Arrêt,-3.9522216,0,,node/6932239012
5.3443655,Carrefour Mel Theodore,-3.9526011,0,,node/6932239013
5.348653,Pharmacie Riviera III,-3.9535043,0,,node/6932239014
5.3509724,Collège l'Ardoise,-3.9545015,0,,node/6932239015
5.3550168,Arrêt,-3.9606719,0,,node/6932239016
5.3569209,Arrêt,-3.9637336,0,,node/6932239017
5.3149333,Gare Sud,-4.0185761,0,,node/6932239019
5.4127978,Angré Château,-3.9808642,0,,node/6932253478
5.4102497,Arrêt,-3.984559,0,,node/6932253479
5.3866094,Coqivoire,-3.9930569,0,,node/6932253480
5.4076842,Arrêt,-3.9885655,0,,node/6932253481
5.4128518,Angré Château,-3.9809279,0,,node/6932253483
5.3569409,Arrêt,-3.9635029,0,,node/6932323632
5.3517214,Collège Ardoise,-3.9543647,0,,node/6932323633
5.3485048,Pharmacie Riviera III,-3.9531872,0,,node/6932323634
5.3446873,Carrefour Mel Theodore,-3.9524998,0,,node/6932323635
5.3284521,École libanaise Al Ghadir,-3.9448656,0,,node/6932323636
5.3228845,Yopougon Camp Militaire,-4.0617429,0,,node/6933043352
5.3245991,Ghandi,-4.0599163,0,,node/6933043354
5.3278586,Arrêt,-4.0607049,0,,node/6933043355
5.3300685,Arrêt,-4.0581514,0,,node/6933043356
5.3314439,[Arret sans nom],-4.0559573,0,,node/6933043357
5.3145591,Gare Sud,-4.018425,0,,node/6933043359
5.3283246,Arrêt,-3.9428298,0,,node/6933080250
5.3282992,École libanaise Al Ghadir,-3.9447637,0,,node/6933080251
5.3283286,Arrêt,-3.9460498,0,,node/6933080252
5.328364,Pharmacie M'pouto,-3.9479502,0,,node/6933080253
5.3380122,Beverly,-3.9527768,0,,node/6933080254
5.3311481,Carrefour Sol Béni,-3.9578046,0,,node/6933080255
5.329493,Arrêt,-3.980421,0,,node/6933080256
5.3353723,SIB,-3.9996752,0,,node/6933080257
5.3284154,Mosquée Cité Eden,-3.9401878,0,,node/6933080258
5.3283646,Cité Eden,-3.9401855,0,,node/6933080260
5.3461454,Arrêt,-4.0026096,0,,node/6933080262
5.3391939,Mosquée Golf,-3.9789297,0,,node/6933080263
5.3325809,Arrêt,-3.9812806,0,,node/6933080264
5.3297881,Arrêt,-3.9790913,0,,node/6933080265
5.3380134,Beverly,-3.9529652,0,,node/6933080266
5.3312516,[Arret sans nom],-4.0560298,0,,node/6933128807
5.3299817,Arrêt,-4.0580978,0,,node/6933128808
5.3222556,Yopougon Camp Militaire,-4.0623571,0,,node/6933128810
5.3017767,Station Total,-4.0094478,0,,node/6933231056
5.3029158,Pharmacie de l'Avenue 27,-4.0061849,0,,node/6933231057
5.3589712,Gare Nord,-4.0272913,0,,node/6933291484
5.3591995,Gare Nord,-4.0277539,0,,node/6933302185
5.4266332,Arrêt,-4.0210558,0,,node/6934648710
5.4438112,Arrêt,-4.0538116,0,,node/6934648711
5.4435976,Arrêt,-4.0603428,0,,node/6934648712
5.4434975,Arrêt,-4.0647738,0,,node/6934648713
5.4433733,Arrêt,-4.0679455,0,,node/6934648714
5.442806,Arrêt,-4.0693985,0,,node/6934648715
5.4392747,Arrêt,-4.0686147,0,,node/6934648716
5.4321434,Arrêt,-4.068663,0,,node/6934648717
5.428223,Arrêt,-4.0699659,0,,node/6934648718
5.413004,Arrêt,-4.0783779,0,,node/6934648719
5.4036687,Arrêt,-4.0834808,0,,node/6934648720
5.4009224,Arrêt,-4.0842761,0,,node/6934648721
5.3935763,Arrêt,-4.0810159,0,,node/6934648722
5.3892384,Arrêt,-4.078453,0,,node/6934648723
5.3836466,Arrêt,-4.0757427,0,,node/6934648724
5.3747704,Arrêt,-4.0773951,0,,node/6934648725
5.3762544,Arrêt,-4.0820444,0,,node/6934648726
5.3838941,Arrêt,-4.0759718,0,,node/6934648728
5.389032,Arrêt,-4.0784458,0,,node/6934648729
5.3928929,Arrêt,-4.0806236,0,,node/6934648730
5.4014804,Arrêt,-4.0842976,0,,node/6934648731
5.4130749,Arrêt,-4.0784144,0,,node/6934648732
5.4279813,Arrêt,-4.070195,0,,node/6934648733
5.4326393,Arrêt,-4.0686617,0,,node/6934648734
5.4427909,Arrêt,-4.069498,0,,node/6934648735
5.4435987,Arrêt,-4.0650186,0,,node/6934648736
5.4437261,Arrêt,-4.0602688,0,,node/6934648737
5.4438909,Arrêt,-4.0536714,0,,node/6934648738
5.4432611,Arrêt,-4.0481434,0,,node/6934648739
5.4392603,Arrêt,-4.0438735,0,,node/6934648740
5.3480962,220 logements,-4.0169741,0,,node/6934657650
5.2690497,Carrefour Akwaba,-3.9618933,0,,node/6934657651
5.2629137,Hôpital de Port-Bouët,-3.9633662,0,,node/6934657652
5.2574343,Nouveau Marché Port-Bouët,-3.9637684,0,,node/6934657653
5.2567198,Océan Espadon,-3.961553,0,,node/6934657654
5.2542438,Église Méthodiste Unie Port-Bouët,-3.9621216,0,,node/6934657655
5.2530566,Wharf Port-Bouët,-3.9607128,0,,node/6934657656
5.2510654,Port-Bouët Phare,-3.9560196,0,,node/6934657657
5.400118,Arrêt,-4.0201934,0,,node/6934749721
5.3970398,Centre Commercial du Dokui,-4.0027148,0,,node/6934798183
5.3997114,Sainte Monique,-4.0014133,0,,node/6934798184
5.3994163,Superette Akwaba,-3.9960703,0,,node/6934815685
5.3979557,22ème,-3.9916306,0,,node/6934815686
5.3992227,Superette Akwaba,-3.9959845,0,,node/6934815687
5.3994417,Pharmacie Sainte Monique,-3.9972693,0,,node/6934815688
5.3997942,Station Petro Ivoire,-4.0008152,0,,node/6934815689
5.3994657,Sainte Monique,-4.0013301,0,,node/6934815690
5.3970104,Centre Commercial du Dokui,-4.0026122,0,,node/6934815692
5.3221354,Yopougon Kowëit,-4.0506908,0,,node/6934872150
5.3218817,Sideci Matignon,-4.0802555,0,,node/6934872151
5.4604925,Akéikoi Village,-4.0109827,0,,node/6934922723
5.4554315,Destin,-4.0111108,0,,node/6934922724
5.4531085,André Bar,-4.0126598,0,,node/6934922725
5.4493063,Arrêt,-4.0136415,0,,node/6934922726
5.4446991,Arrêt,-4.0143429,0,,node/6934922727
5.4400103,Arrêt,-4.0141618,0,,node/6934922728
5.4327535,Arrêt,-4.0137548,0,,node/6934922731
5.4336247,Arrêt,-4.0124023,0,,node/6934922732
5.4393221,Arrêt,-4.0143033,0,,node/6934922733
5.4445716,Arrêt,-4.0145279,0,,node/6934922734
5.4493357,Arrêt,-4.0137662,0,,node/6934922735
5.4531566,André Bar,-4.0127617,0,,node/6934922736
5.4554448,Destin,-4.0112489,0,,node/6934922737
5.4604068,Akéikoi Village,-4.0110518,0,,node/6934922738
5.3102833,Gare Abobo-Doumé,-4.0352396,0,,node/6934970640
5.4306528,Arrêt,-4.0240914,0,,node/6935113685
5.3314011,Cité Administrative,-4.0236072,0,,node/6935113687
5.3591731,Gare Nord,-4.0273828,0,,node/6935117220
5.3610508,Woodin,-3.9897309,0,,node/6935117222
5.3653222,[Arret sans nom],-3.9897537,0,,node/6935117223
5.3685842,NSIA Banque,-3.9898489,0,,node/6935117224
5.372732,Leader Price,-3.9904759,0,,node/6935117225
5.3770534,Cocody Gogelet - Carrefour Sainte Cécile,-3.9926612,0,,node/6935117227
5.3771843,Cocody Gogelet - Carrefour Sainte Cécile,-3.9926425,0,,node/6935251104
5.3742722,Sococé Vallon,-3.9904471,0,,node/6935251105
5.3686002,NSIA Banque,-3.9897873,0,,node/6935251106
5.364963,[Arret sans nom],-3.9897014,0,,node/6935251107
5.3606736,Woodin,-3.9896753,0,,node/6935251108
5.3576192,Versus Bank,-3.9907542,0,,node/6935251109
5.3522302,École de Police,-3.9912866,0,,node/6935251110
5.3387479,Mermoz,-3.99993,0,,node/6935251111
5.3591581,Gare Nord,-4.0278565,0,,node/6935251112
5.2627714,Groupe Scolaire Kouamé Konan,-3.9831166,0,,node/6935274791
5.2569108,Groupe Scolaire Petit Bassam,-3.9774759,0,,node/6935274792
5.2576259,Arrêt,-3.9696513,0,,node/6935274793
5.2585828,Marché,-3.965703,0,,node/6935274794
5.2568159,Pharmacie Océan,-3.9608596,0,,node/6935274796
5.256199,Lycée Moderne de Port-Bouët,-3.9581761,0,,node/6935274797
5.2658583,Carrefour Akwaba,-3.9610527,0,,node/6935274798
5.2758153,Digue de Koumassi,-3.9661886,0,,node/6935274799
5.2813533,CIE Bia Sud,-3.9692871,0,,node/6935274800
5.2900094,Arrêt,-3.962945,0,,node/6935274801
5.2907532,Arrêt,-3.9596587,0,,node/6935274802
5.294113,Gare Koumassi,-3.9555147,0,,node/6935274803
5.298266,Pharmacie Regina,-3.9498116,0,,node/6935274804
5.2982253,Pharmacie Regina,-3.9495504,0,,node/6935274805
5.2909815,Ajavon,-3.9582726,0,,node/6935274806
5.2902818,Foyer des Jeunes,-3.9612938,0,,node/6935274807
5.2889304,Centre Commercial Koumassi,-3.9668678,0,,node/6935274808
5.2768282,Carrefour Ancien Koumassi,-3.9667035,0,,node/6935274809
5.2576733,43ème Bima,-3.9577992,0,,node/6935274810
5.2560567,Lycée Moderne de Port-Bouët,-3.9579253,0,,node/6935274811
5.2574824,Nouveau Marché Port-Bouët,-3.9642432,0,,node/6935274812
5.2584759,District de Port-Bouet,-3.965754,0,,node/6935274813
5.2576319,Arrêt,-3.9693877,0,,node/6935274814
5.2572754,Arrêt,-3.9790309,0,,node/6935274815
5.2569161,Stade de la SIR,-3.9893487,0,,node/6935274816
5.3852315,Arrêt,-4.006142,0,,node/6935401276
5.3852595,Arrêt,-4.0060079,0,,node/6935401277
5.3984537,Arrêt,-4.0064532,0,,node/6935401278
5.4022949,Arrêt,-4.0064304,0,,node/6935401279
5.4087036,Arrêt,-4.0063405,0,,node/6935401280
5.4109493,Arrêt,-4.0062828,0,,node/6935401281
5.4143906,Arrêt,-4.0062493,0,,node/6935401282
5.420498,Arrêt,-4.0170009,0,,node/6935401283
5.4189547,Arrêt,-4.0141176,0,,node/6935401284
5.4179854,Arrêt,-4.0123071,0,,node/6935407385
5.4164927,Arrêt,-4.0094626,0,,node/6935407386
5.2983706,"Parc des Sports, Boulevard Valéry Giscard d'Estaing",-4.0041834,0,,node/6935488165
5.2470403,Carrefour Aéroport,-3.9445075,0,,node/6935488166
5.2446806,Arrêt,-3.9295542,0,,node/6935488167
5.2440381,Arrêt,-3.925598,0,,node/6935488168
5.2434545,Arrêt,-3.922044,0,,node/6935488169
5.2426599,Casier,-3.9170243,0,,node/6935488170
5.2417851,Arrêt,-3.9115848,0,,node/6935488171
5.2407648,Mosquée,-3.9051327,0,,node/6935488172
5.260825,Arrêt,-3.9593026,0,,node/6935494486
5.2976825,Avenue de la Côte d'Ivoire / Boulevard V.G.E.,-3.984569,0,,node/6935494487
5.2402774,Gonzagueville,-3.9005903,0,,node/6935494488
5.2405691,Mosquée,-3.9050053,0,,node/6935494499
5.2414058,Arrêt,-3.9104489,0,,node/6935494500
5.2422365,Arrêt,-3.9156765,0,,node/6935494501
5.243186,Arrêt,-3.9216458,0,,node/6935494502
5.2437256,Arrêt,-3.9251152,0,,node/6935494503
5.2444775,Arrêt,-3.9298091,0,,node/6935494504
5.2456701,Arrêt,-3.9372025,0,,node/6935494505
5.2467051,Arrêt,-3.94366,0,,node/6935494506
5.2492829,Arrêt,-3.9541537,0,,node/6935494507
5.2573475,43ème Bima,-3.9579213,0,,node/6935494508
5.299118,Palais des Sports,-4.0065188,0,,node/6935494509
5.3101948,Avenue Christiani,-4.0149692,0,,node/6935494511
5.3002327,Arrêt,-4.0082087,0,,node/6937770645
5.2618319,Arrêt,-3.9594314,0,,node/6937770646
5.2467278,33é Arrondissement,-3.9424717,0,,node/6937770647
5.2400864,Gonzagueville,-3.9007735,0,,node/6937770648
5.2395482,Corridor,-3.8973275,0,,node/6937770649
5.2389973,Carrefour Chien,-3.893671,0,,node/6937770650
5.2375957,Pharmacie Bénediction,-3.8845293,0,,node/6937770652
5.2369286,Anani,-3.8802069,0,,node/6937770653
5.2368898,Anani,-3.8798529,0,,node/6937770654
5.2369172,Anani - Rond-point,-3.8749894,0,,node/6937770655
5.2372444,Arrêt,-3.8833565,0,,node/6937770656
5.2380744,Collège privé les Cartésiens d'Abidjan,-3.888965,0,,node/6937770657
5.2386868,Carrefour Chien,-3.8928086,0,,node/6937770658
5.2391862,Corridor,-3.8962466,0,,node/6937770659
5.2399789,Gonzagueville,-3.9013763,0,,node/6937770660
5.256211,Arrêt,-3.9649889,0,,node/6937789671
5.4354794,Gare Abobo Sogephia,-4.01522,0,,node/6938095648
5.4251869,Arrêt,-4.0222809,0,,node/6938222040
5.4191963,Arrêt,-4.0239143,0,,node/6938222041
5.4148659,Arrêt,-4.0240283,0,,node/6938222042
5.4147991,Arrêt,-4.0292727,0,,node/6938222043
5.5005578,Ebimpé Village,-4.0807772,0,,node/6938324861
5.5031942,Arrêt,-4.0807946,0,,node/6938324862
5.5033771,Arrêt,-4.0801696,0,,node/6938324863
5.5031182,Arrêt,-4.0769751,0,,node/6938324864
5.5007033,Arrêt,-4.0770207,0,,node/6938324865
5.5002134,Arrêt,-4.0762322,0,,node/6938324866
5.5002334,Arrêt,-4.07344,0,,node/6938324867
5.5000185,Arrêt,-4.0699397,0,,node/6938324868
5.4982283,Arrêt,-4.066591,0,,node/6938324869
5.4912933,Arrêt,-4.0678543,0,,node/6938324870
5.4869787,Arrêt,-4.0690076,0,,node/6938324871
5.4842033,Arrêt,-4.0697157,0,,node/6938324872
5.4791892,Arrêt,-4.0709844,0,,node/6938324873
5.4769371,Arrêt,-4.0715718,0,,node/6938324874
5.4724328,Arrêt,-4.072693,0,,node/6938324875
5.4679499,Arrêt,-4.0737471,0,,node/6938324876
5.4644949,Arrêt,-4.0739322,0,,node/6938324877
5.4606874,Arrêt,-4.0733501,0,,node/6938324878
5.4565342,Arrêt,-4.0724757,0,,node/6938324879
5.4517454,Arrêt,-4.0713693,0,,node/6938324880
5.4485133,Arrêt,-4.0706693,0,,node/6938324881
5.4441757,Arrêt,-4.0696567,0,,node/6938324882
5.4435135,Arrêt,-4.0681963,0,,node/6938324883
5.443862,Arrêt,-4.056062,0,,node/6938324884
5.4440736,Agripac,-4.0494295,0,,node/6938343085
5.2608437,Hotel Communal Port-Bouët;Pharmacie Baltique,-3.9639542,0,,node/6938407500
5.2629757,Hôpital Géneral de Port-Bouët,-3.9635653,0,,node/6938407501
5.293872,Gare Koumassi,-3.9564407,0,,node/6938407503
5.2382227,Collège privé les Cartésiens d'Abidjan,-3.8886204,0,,node/6938407504
5.3640511,Farandole,-3.9975952,0,,node/6938756997
5.4036801,Terminus 81/82,-3.9845087,0,,node/6938792077
5.3829263,Pharmacie les Tulipes,-3.993252,0,,node/6938792078
5.3147389,Gare Sud,-4.0186301,0,,node/6938792079
5.3010837,Arrêt,-3.9887345,0,,node/6939014886
5.3023803,Pharmacie Sainte Aghate,-3.9663789,0,,node/6939014887
5.3029659,Marcory Anoumabo Aliodan,-3.9640502,0,,node/6939014888
5.302855,Marcory Anoumabo Aliodan,-3.9638825,0,,node/6939014890
5.3018088,Arrêt,-3.9684999,0,,node/6939014891
5.2984764,Arrêt,-3.9714879,0,,node/6939014892
5.3022895,Arrêt,-3.9848064,0,,node/6939014894
5.359076,Gare Nord,-4.0274686,0,,node/6939014895
5.2875728,Port de pêche,-4.0059154,0,,node/6939076692
5.3314425,Sideci Pharmacie Lem,-4.0768933,0,,node/6944816371
5.3305385,Sideci Lem,-4.0798317,0,,node/6944816372
5.3270574,[Arret sans nom],-4.0813807,0,,node/6944816373
5.3246445,Akadjoba,-4.0806283,0,,node/6944816374
5.3310827,Cité Administrative,-4.0237293,0,,node/6944887181
5.4253525,Arrêt,-4.0220542,0,,node/6944887182
5.4193151,Arrêt,-4.0240122,0,,node/6944887183
5.4150828,Arrêt,-4.0241008,0,,node/6944887184
5.4148679,Arrêt,-4.0292533,0,,node/6944920985
5.4148038,Abobo Sagbé,-4.0334697,0,,node/6944920986
5.3274379,Arrêt,-4.0817052,0,,node/6944934858
5.330154,Sideci Lem - Carrefour Sgbci,-4.080812,0,,node/6944934859
5.3314305,Sideci Pharmacie Lem,-4.0773064,0,,node/6944934860
5.3521541,École de Police,-3.99141,0,,node/6945017053
5.3569943,Arrêt,-3.9914516,0,,node/6945017054
5.2865574,Siège SOTRA,-4.0082677,0,,node/6945458783
5.2569502,Station Oilibya,-3.9722067,0,,node/6945659474
5.2566851,Arrêt,-3.9647529,0,,node/6945659475
5.2546846,Pharmacie Atlantique,-3.9643009,0,,node/6945659476
5.2511255,Port-Bouët Phare,-3.9565238,0,,node/6945659477
5.2531341,Vridi canal,-4.0047848,0,,node/6945864857
5.2531701,Vridi canal,-4.0046923,0,,node/6945864858
5.2657115,[Arret sans nom],-4.0087358,0,,node/6945864859
5.2957541,Arrêt du CHU,-4.0033337,0,,node/6945864860
5.260642,Ciprel,-4.0134249,0,,node/6945966271
5.2649101,[Arret sans nom],-4.0138507,0,,node/6945966272
5.265254,[Arret sans nom],-4.011446,0,,node/6945966273
5.2660346,[Arret sans nom],-4.0086137,0,,node/6945966274
5.2688363,[Arret sans nom],-4.0060763,0,,node/6945966275
5.3539352,Arrêt,-3.9581171,0,,node/6948222228
5.3417576,Arrêt,-3.9522725,0,,node/6948222230
5.3392567,Arrêt,-3.9521505,0,,node/6948222231
5.3384929,Arrêt,-3.952243,0,,node/6948222232
5.334941,Carrefour Ambassade de Chine,-3.943904,0,,node/6948222233
5.3392333,Antenne,-3.9452136,0,,node/6948222234
5.3385917,Akwaba,-3.9428439,0,,node/6948222235
5.3355172,Pharmacie,-3.9393644,0,,node/6948222236
5.3328633,Arrêt,-3.9368539,0,,node/6948222237
5.3307248,Centre de santé Municipal de M'Badon,-3.9348771,0,,node/6948222238
5.3286344,Teminus M'Badon,-3.9323347,0,,node/6948222239
5.3285142,Teminus M'Badon,-3.9322612,0,,node/6948270620
5.3305385,Centre de santé Municipal de M'Badon,-3.9347577,0,,node/6948270621
5.3357956,Pharmacie,-3.9397017,0,,node/6948270622
5.339027,Arrêt,-3.9451191,0,,node/6948270623
5.3329114,Ambassade de Chine,-3.9418454,0,,node/6948270624
5.3538285,Arrêt,-3.9568537,0,,node/6948270625
5.3327177,Arrêt,-3.9368337,0,,node/6948290580
5.3385823,Bureau Bad,-3.9429814,0,,node/6948290581
5.3350024,[Arret sans nom],-3.9438068,0,,node/6948290582
5.353946,Arrêt,-3.9767852,0,,node/6948466331
5.3560356,Arrêt,-3.9695473,0,,node/6948466332
5.3732347,Arrêt,-3.9273548,0,,node/6948466333
5.3744488,Arrêt,-3.9221262,0,,node/6948466334
5.3738883,Kessé,-3.9116914,0,,node/6948466335
5.3664705,Syndicat,-3.9090387,0,,node/6948466336
5.3613312,Station TEXACO,-3.8946091,0,,node/6948466337
5.357652,La Poste,-3.8895766,0,,node/6948466338
5.357433,Pharmacie du Marché,-3.8879555,0,,node/6948466339
5.3576379,Sous-Prefecture de Bingerville,-3.8903531,0,,node/6948466341
5.372677,Nouveau Goudron,-3.9285967,0,,node/6948466343
5.3455151,Pharmacie les 7 Colonnes,-4.0026914,0,,node/6948466345
5.3346312,Arrêt,-3.9906777,0,,node/6948695731
5.3396564,Arrêt,-3.9758237,0,,node/6948695732
5.3414919,Arrêt,-3.9761442,0,,node/6948695733
5.3438403,Arrêt,-3.9751571,0,,node/6948695734
5.3470921,Arrêt,-3.975412,0,,node/6948695735
5.3520693,Arrêt,-3.9767209,0,,node/6948695736
5.3530066,Arrêt,-3.9760919,0,,node/6948695738
5.35209,Arrêt,-3.9766203,0,,node/6948695739
5.3468223,Arrêt,-3.9752188,0,,node/6948695740
5.343802,Arrêt,-3.9750874,0,,node/6948695741
5.3416148,Arrêt,-3.9760651,0,,node/6948695742
5.3397193,Arrêt,-3.9757586,0,,node/6948695743
5.3385022,Arrêt,-3.9754911,0,,node/6948695744
5.3344937,Arrêt,-3.9902714,0,,node/6948695745
5.3349056,Arrêt,-3.9957176,0,,node/6948695746
5.321664,Warafa Assurance,-4.0157926,0,,node/6948706680
5.3184017,Arrêt Résidence Nabil,-4.0152582,0,,node/6948706681
5.3044274,[Arret sans nom],-4.0092923,0,,node/6948706682
5.2949249,CHU Treichville,-4.0042001,0,,node/6948791226
5.3565604,Arrêt,-3.9679608,0,,node/6948855820
5.3599399,Arrêt,-3.9614752,0,,node/6948855821
5.3717967,Cité Millenium,-3.9289306,0,,node/6948855822
5.3584311,Arrêt,-3.9253854,0,,node/6948855823
5.3556661,Arrêt,-3.9247158,0,,node/6948855824
5.3532496,Arrêt,-3.924163,0,,node/6948855825
5.3498507,Collège Jeune Filles,-3.9233825,0,,node/6948855826
5.3397928,Oribat Cité Don Mello,-3.9225573,0,,node/6948855827
5.3329467,Arrêt,-3.9226348,0,,node/6948855828
5.3282217,Arrêt,-3.9191627,0,,node/6948855829
5.3283086,Paroisse,-3.9169304,0,,node/6948855830
5.3267112,EPP Abatta,-3.9161199,0,,node/6948855831
5.3342136,Arrêt,-3.923136,0,,node/6948920956
5.3262131,Arrêt,-3.9158679,0,,node/6948920957
5.3267028,EPP Abatta,-3.9161935,0,,node/6948920958
5.3282218,Paroisse,-3.9169358,0,,node/6948920959
5.3329487,Arrêt,-3.9227374,0,,node/6948920960
5.3417243,Arrêt,-3.9220896,0,,node/6948920961
5.3443775,Arrêt,-3.9222706,0,,node/6948920962
5.3471041,Arrêt,-3.9228521,0,,node/6948920963
5.3532917,Arrêt,-3.9242797,0,,node/6948920964
5.3583733,Arrêt,-3.9254397,0,,node/6948920965
5.359984,Sodeci Abatta,-3.9258534,0,,node/6948920966
5.3722754,Nouveau Goudron,-3.9301027,0,,node/6948920967
5.2579604,Arrêt,-3.968976,0,,node/6951127812
5.2597086,Mairie Port-Bouët,-3.9654422,0,,node/6951127813
5.2595919,[Arret sans nom],-3.9687383,0,,node/6951127815
5.3145654,Gare Sud,-4.0181731,0,,node/6951127816
5.3373639,Arrêt,-3.9533649,0,,node/6951182059
5.3344449,Arrêt,-3.9559445,0,,node/6951182060
5.3308416,Arrêt,-3.9570247,0,,node/6951182061
5.3295658,Arrêt,-3.9531144,0,,node/6951182062
5.3296352,Arrêt,-3.9535137,0,,node/6951182064
5.330835,Arrêt,-3.9572031,0,,node/6951182065
5.3414479,Arrêt,-3.952412,0,,node/6951182066
5.2921887,Arrêt,-3.9630926,0,,node/6951224049
5.2898815,Commissariat de Police du 6ᵉ,-3.9694045,0,,node/6951224050
5.3586694,Gare Nord,-4.0276527,0,,node/6951224051
5.2941431,Gare Koumassi,-3.9554248,0,,node/6951939383
5.3587923,Gare Nord,-4.0273499,0,,node/6951939384
5.3024324,Terminus 31 Remblais,-3.9635003,0,,node/6952071069
5.2975569,Trois Ampoules,-3.9623322,0,,node/6952071070
5.2988296,"BIAO, Treichville",-4.0109539,0,,node/6952132224
5.2884669,"Pizza, Marcory",-3.9883861,0,,node/6952132225
5.2853422,"Bernabé Parc à Fer, Boulevard de Marseille",-3.9855024,0,,node/6952132226
5.2786718,[Arret sans nom],-3.9824903,0,,node/6952132227
5.2734369,Église Notre-Dame d'Afrique,-3.9767262,0,,node/6952132228
5.2734089,Sept Villas,-3.9714865,0,,node/6952132229
5.276028,Arrêt,-3.9672503,0,,node/6952132230
5.2486135,Derrière warf,-3.9434065,0,,node/6952132232
5.2544081,EPP Aéroport,-3.9386439,0,,node/6952132233
5.2536201,Aéroport,-3.934246,0,,node/6952132234
5.2469401,Carrefour Aéroport,-3.9450909,0,,node/6952132235
5.2544028,Cité ASECNA,-3.9409603,0,,node/6952132240
5.2508117,Arrêt,-3.9424355,0,,node/6952132241
5.2480679,Arrêt,-3.9435728,0,,node/6952132242
5.247278,Maquis 5 sur 5,-3.947171,0,,node/6952132243
5.2567618,Pharmacie Océan,-3.9610943,0,,node/6952132244
5.266498,Abattoir Port-Bouët,-3.9627318,0,,node/6952132245
5.2726637,Arrêt,-3.9751598,0,,node/6952132246
5.28785,Arrêt,-3.9878453,0,,node/6952132247
5.2895893,Arrêt,-3.9917104,0,,node/6952132248
5.2912033,Arrêt,-3.9954532,0,,node/6952132250
5.2984459,"BIAO, Treichville",-4.0104501,0,,node/6952132251
5.3144382,Gare Sud,-4.0182926,0,,node/6952132252
5.3091986,Arrêt,-3.9495367,0,,node/6952200468
5.3097742,Centre Médico-social,-3.9481486,0,,node/6952200469
5.3012025,Hôpital Général de Marcory,-3.9837456,0,,node/6952200470
5.3034286,Arrêt,-3.986865,0,,node/6952200471
5.3042605,Arrêt,-4.0094613,0,,node/6952200472
5.3052353,Arrêt,-4.007007,0,,node/6952200475
5.3028209,Arrêt,-3.9855795,0,,node/6952200476
5.3118954,Akromiambla,-3.952005,0,,node/6952200477
5.441531,Arrêt,-4.0471624,0,,node/6952244517
5.4436978,Arrêt,-4.0559909,0,,node/6952566208
5.4448793,Arrêt,-4.0699545,0,,node/6952566209
5.4490874,Arrêt,-4.0708852,0,,node/6952566210
5.4522514,Arrêt,-4.0716147,0,,node/6952566211
5.4532246,Arrêt,-4.0718146,0,,node/6952566212
5.4567491,Arrêt,-4.0726206,0,,node/6952566213
5.4606701,Arrêt,-4.0734789,0,,node/6952566214
5.4636378,Arrêt,-4.0739724,0,,node/6952566215
5.4644695,Arrêt,-4.074022,0,,node/6952566216
5.4679793,Arrêt,-4.0738437,0,,node/6952566217
5.4724295,Arrêt,-4.0727828,0,,node/6952566218
5.4769985,Arrêt,-4.0716872,0,,node/6952566219
5.4793881,Arrêt,-4.0710461,0,,node/6952566220
5.4821955,Arrêt,-4.0703045,0,,node/6952566221
5.4839777,Arrêt,-4.0699115,0,,node/6952566222
5.486354,Arrêt,-4.0692893,0,,node/6952566223
5.4911611,Arrêt,-4.0680795,0,,node/6952566224
5.4982644,Arrêt,-4.0667948,0,,node/6952566225
5.5001119,Arrêt,-4.0740864,0,,node/6952566226
5.5000518,Arrêt,-4.0767123,0,,node/6952566227
5.2862329,Petit Café,-3.9734097,0,,node/6954138437
5.2807083,Arrêt,-3.9775054,0,,node/6954138438
5.2823321,Arrêt,-3.9804116,0,,node/6954138439
5.300639,Arrêt,-4.0126625,0,,node/6954138440
5.28394,Agence Nationale de la Formation Professionnelle (AGEFOP),-3.9828832,0,,node/6954138442
5.2809293,Arrêt,-3.9776556,0,,node/6954138443
5.2870755,UTTb Université Loko,-3.973057,0,,node/6954138444
5.2892455,Marché DjeKonan,-3.9693475,0,,node/6954138445
5.3133129,Arrêt,-3.9518099,0,,node/6954138446
5.2834138,CIE Koumassi,-3.9679319,0,,node/6954511639
5.286559,Hôpital de Koumassi,-3.9686649,0,,node/6954511640
5.3583583,[Arret sans nom],-4.0989914,0,,node/6954926526
5.3615502,[Arret sans nom],-4.1000086,0,,node/6954926527
5.3641759,[Arret sans nom],-4.0967993,0,,node/6954926528
5.2859504,Koumassi Soweto - Dépôt 5,-3.9531577,0,,node/6955038705
5.2847586,Pharmacie Bethanie,-3.9582532,0,,node/6955038706
5.2840528,Sation Lavage,-3.9611265,0,,node/6955038707
5.2836422,CIE Koumassi,-3.9680882,0,,node/6955038708
5.2870421,Hôpital de Koumassi,-3.9688808,0,,node/6955038709
5.2996014,Pharmacie Massarana,-3.984628,0,,node/6955038710
5.3587075,Gare Nord,-4.0275521,0,,node/6955038711
5.3331711,Cité Administrative,-4.0217512,0,,node/6955514933
5.3635931,Pharmacie Palmeraie,-3.9597532,0,,node/6955514934
5.3710263,Arrêt,-3.9580205,0,,node/6955514935
5.3720811,Arrêt,-3.9587393,0,,node/6955514936
5.3808935,Cocody SCI Les Rosiers,-3.964382,0,,node/6955514937
5.3727874,Arrêt,-3.9598592,0,,node/6955514938
5.3685488,Arrêt,-3.9592516,0,,node/6955514939
5.3149553,Gare Sud,-4.0184346,0,,node/6955514940
5.253474,Aéroport,-3.9341971,0,,node/6958966895
5.2774525,Arrêt,-3.981805,0,,node/6961370878
5.2744205,Pharmacie de Bietry,-3.9788787,0,,node/6961370879
5.2516684,Arrêt Dr08,-3.9421921,0,,node/6961370880
5.2543801,Cité ASECNA,-3.9410589,0,,node/6961370881
5.3618139,Arrêt,-4.0725361,0,,node/6961643500
5.373881,Soa-ci,-4.0923724,0,,node/6961643501
5.3718154,[Arret sans nom],-4.0945986,0,,node/6961643502
5.3396466,Amondji,-4.0858988,0,,node/6963093974
5.3395998,Arrêt,-4.0810166,0,,node/6963093975
5.3382505,Pont Vagabond,-4.0792436,0,,node/6963093976
5.3403236,Arrêt,-4.0747274,0,,node/6963093977
5.3147296,Gare Sud,-4.0181436,0,,node/6963093979
5.3415106,Saint André lavage,-4.0732643,0,,node/6963093981
5.3395197,Amondji,-4.0859069,0,,node/6963093982
5.3883091,Aghien 2 plateaux,-3.9928235,0,,node/6964184463
5.3359625,[Arret sans nom],-4.0044791,0,,node/6964184464
5.3885302,Aghien 2 plateaux,-3.9923066,0,,node/6964184466
5.3502206,Carrefour la Vie,-4.0021368,0,,node/6964184467
5.3635871,Pharmacie Palmeraie,-3.9596674,0,,node/6964502135
5.3609547,BAE,-4.0846449,0,,node/6966758103
5.3551851,Arrêt,-4.0882243,0,,node/6966758104
5.3549701,Carrefour Antenne Ananeraie,-4.0957546,0,,node/6966758105
5.354878,Oasis,-4.0988526,0,,node/6966758106
5.3502259,Sorbonne,-4.0993729,0,,node/6966758107
5.3462622,Arrêt,-4.0997625,0,,node/6966758108
5.333344,Arrêt,-4.1031267,0,,node/6966758109
5.3292232,Arrêt,-4.1044571,0,,node/6966758111
5.3441658,Arrêt,-4.1004723,0,,node/6966758112
5.3460138,Arrêt,-4.0999784,0,,node/6966758113
5.3500978,Sorbonne,-4.0994869,0,,node/6966758114
5.3529605,Arrêt,-4.0994742,0,,node/6966758115
5.3549421,Oasis,-4.0992308,0,,node/6966758116
5.3551971,Arrêt,-4.0918869,0,,node/6966758117
5.3233545,Arrêt,-4.016671,0,,node/6966849451
5.4486134,Arrêt,-4.0138976,0,,node/6966849452
5.2613392,Hotel Communal Port-Bouët,-3.9637296,0,,node/6966927285
5.2528723,Wharf Port-Bouët,-3.9605525,0,,node/6966927286
5.3027916,Arrêt,-4.0132633,0,,node/6966927287
5.4469386,Arrêt,-4.0140968,0,,node/6966942817
5.4381706,Arrêt,-4.0166429,0,,node/6966942818
5.4141149,Arrêt,-4.0159589,0,,node/6966942819
5.4069719,Arrêt,-4.0164229,0,,node/6966942820
5.2655592,Arrêt,-4.0007964,0,,node/6967070473
5.2772629,Arrêt,-4.0085238,0,,node/6967070474
5.279469,Arrêt,-4.0085185,0,,node/6967070475
5.3959876,Arrêt,-4.0210712,0,,node/6967070476
5.4118438,Arrêt,-4.016604,0,,node/6967070477
5.4197437,Arrêt,-4.0178807,0,,node/6967070478
5.4227157,Arrêt,-4.0187565,0,,node/6967070479
5.4356834,Arrêt,-4.0289891,0,,node/6967070480
5.4364023,Arrêt,-4.0302558,0,,node/6967070481
5.4370672,Arrêt,-4.0319341,0,,node/6967070482
5.4373075,Arrêt,-4.0332256,0,,node/6967070483
5.4377581,Arrêt,-4.0362847,0,,node/6967070484
5.4381539,Arrêt,-4.0391982,0,,node/6967074785
5.4435976,PK 18 Agripac,-4.0485819,0,,node/6967074787
5.4255661,Arrêt,-4.0197301,0,,node/6967158577
5.4195782,Arrêt,-4.017465,0,,node/6967158578
5.3053862,Arrêt,-4.0226068,0,,node/6967158579
5.2891307,Pharmacie du Port,-4.0082905,0,,node/6967158580
5.4269192,Abobo Gendarmerie,-4.0212006,0,,node/6968911549
5.4289586,Arrêt,-4.0229219,0,,node/6968911550
5.4078444,Arrêt,-4.0812264,0,,node/6968911551
5.3570551,CHU de Yopougon,-4.0851445,0,,node/6968911556
5.3698106,Arrêt,-4.080236,0,,node/6968911557
5.3746728,Arrêt,-4.0777087,0,,node/6968911558
5.4392253,Arrêt,-4.0687166,0,,node/6968911559
5.3423532,Arrêt,-4.0793476,0,,node/6969221528
5.3141434,Gare Sud,-4.0177429,0,,node/6969221530
5.3743039,Feh Kessé,-3.9117702,0,,node/6969371620
5.3472803,Clinique Providence,-4.0097992,0,,node/6969583471
5.3451973,Supermarché Casino,-4.0106696,0,,node/6969583472
5.3147951,Gare Sud,-4.0185824,0,,node/6969583474
5.3154387,Gare Sud,-4.01752,0,,node/6969583476
5.3161731,Novotel,-4.0166201,0,,node/6969583477
5.3172748,[Arret sans nom],-4.0151837,0,,node/6969583478
5.3202726,Arrêt,-4.015578,0,,node/6969583479
5.3209056,Arrêt,-4.0192916,0,,node/6969583480
5.3217388,Arrêt,-4.0207359,0,,node/6969583481
5.3233639,Hôtel de Ville,-4.0207185,0,,node/6969583482
5.3257514,Arrêt,-4.0207171,0,,node/6969583483
5.3278011,Arrêt,-4.0207332,0,,node/6969583484
5.3335937,Cité Administrative,-4.0217525,0,,node/6969620785
5.4031227,Termunis 81/82,-3.985249,0,,node/6970095632
5.3971746,Arrêt,-3.9859892,0,,node/6970095633
5.3841166,Pharmacie Les 7 Lys,-3.9875704,0,,node/6970095634
5.3643008,Arrêt,-3.979157,0,,node/6970095635
5.3542958,Riviera 2,-3.977256,0,,node/6970095637
5.3623286,Arrêt,-3.978931,0,,node/6970095638
5.3924174,DGI,-3.9866585,0,,node/6970095639
5.4031427,Termunis 81/82,-3.9853522,0,,node/6970095641
5.3554107,Nouveau Camp Akouedo,-3.9506122,0,,node/6970366278
5.3552038,Nouveau Camp Akouedo,-3.950804,0,,node/6970366281
5.3652007,Arrêt,-3.9482653,0,,node/6970366282
5.3643008,Arrêt,-3.9522095,0,,node/6970366283
5.403546,Arrêt,-4.0181825,0,,node/6979256984
5.4038146,Terminus 81/82,-3.9848581,0,,node/6979431044
5.39671,Arrêt,-3.977142,0,,node/6979431045
5.3902524,Arrêt,-3.9754421,0,,node/6979431046
5.387788,Arrêt,-3.9747639,0,,node/6979431047
5.3839137,Arrêt,-3.9737651,0,,node/6979431048
5.3828575,Arrêt,-3.9734902,0,,node/6979431049
5.3749859,Arrêt,-3.9627425,0,,node/6979431051
5.4036825,Terminus 81/82,-3.984727,0,,node/6979431052
5.3281463,Arrêt,-3.9195342,0,,node/6979712503
5.3318471,Arrêt,-3.9224169,0,,node/6979712504
5.3394623,Arrêt,-3.9227159,0,,node/6979712505
5.3479974,Arrêt,-3.923066,0,,node/6979712506
5.3497346,Arrêt,-3.9234415,0,,node/6979712507
5.3546363,Arrêt,-3.924564,0,,node/6979712508
5.3579717,Arrêt,-3.9253713,0,,node/6979712509
5.3614206,Arrêt,-3.9263014,0,,node/6979712510
5.3635464,Arrêt,-3.9268023,0,,node/6979712512
5.3687351,Arrêt,-3.928193,0,,node/6979712513
5.3703787,Arrêt,-3.9379911,0,,node/6979712514
5.3679286,Arrêt,-3.9279167,0,,node/6979712515
5.3470093,Arrêt,-3.9227716,0,,node/6979712516
5.3449917,Arrêt,-3.9223344,0,,node/6979712517
5.3428352,Arrêt,-3.9218402,0,,node/6979712518
5.3413324,Arrêt,-3.9221104,0,,node/6979712519
5.2452454,Arrêt,-3.9344399,0,,node/6980029236
5.2569228,Arrêt,-3.9723435,0,,node/6980029237
5.2684644,Bank Of Africa,-4.0062828,0,,node/6980029238
5.2646043,Arrêt,-4.0139727,0,,node/6980029239
5.2587043,[Arret sans nom],-4.0112543,0,,node/6980029241
5.2648347,[Arret sans nom],-4.0138916,0,,node/6980029242
5.2686721,[Arret sans nom],-4.006083,0,,node/6980029243
5.2509145,Port-Bouët Phare,-3.9560491,0,,node/6980258130
5.3433974,Arrêt,-4.0032211,0,,node/6980521688
5.3628414,Farandole,-3.9976139,0,,node/6980521689
5.399921,Arrêt,-4.0057075,0,,node/6980521690
5.4015232,Arrêt,-4.0065511,0,,node/6980521691
5.4034191,Arrêt,-4.0065081,0,,node/6980521692
5.4241696,Abobo Gendarmerie,-4.0192406,0,,node/6980521695
5.4185708,Arrêt,-4.0134712,0,,node/6980521696
5.4155561,Arrêt,-4.0074744,0,,node/6980521697
5.4135434,Arrêt,-4.0062694,0,,node/6980521698
5.4035807,Arrêt,-4.0064277,0,,node/6980521699
5.3998663,Arrêt,-3.9990999,0,,node/6980521700
5.3987194,Arrêt,-3.992904,0,,node/6980521701
5.387006,Carrefour Sanon,-3.9927913,0,,node/6980521702
5.3819122,Sgbci,-3.9934525,0,,node/6980521703
5.2578469,Arrêt,-3.9718473,0,,node/7025968250
5.2642798,Arrêt,-3.9994057,0,,node/7025975082
5.2682835,Arrêt,-4.003783,0,,node/7025975083
5.3292373,Arrêt,-4.10439,0,,node/7025992286
5.2771214,[Arret sans nom],-4.0083388,0,,node/7026069662
5.341978,Arrêt,-4.0149826,0,,node/7026279881
5.2855772,Arrêt,-3.9547831,0,,node/7026364429
5.2850417,[Arret sans nom],-3.9641359,0,,node/7026390486
5.2566557,Océan Espadon,-3.9616643,0,,node/7028872830
5.3588917,Gare Nord,-4.0278525,0,,node/7028872831
5.3534289,Cité étudiante Riviera 2,-3.9736383,0,,node/7043603291
5.3550743,Carrefour Antenne Ananeraie,-4.0957761,0,,node/7043642288
5.3109066,Gare Lagunaire Yopougon STL,-4.0344058,0,,node/7044975088
5.3143858,Gare Lagunaire Plateau STL,-4.0170439,0,,node/7044975089
5.3135839,Gare Lagunaire Treichville STL,-4.0100701,0,,node/7044975090
5.315627,Gare Lagunaire Koumassi STL,-3.952125,0,,node/7046900012
5.3240676,Gare Lagunaire M'pouto STL,-3.9603245,0,,node/7046900013
5.3108107,Gare Lagunaire de Treichville Sotra,-4.015859,0,,node/7046964142
5.3107009,Gare Lagunaire d’Abobo-Doumé Sotra,-4.0347196,0,,node/7046964143
5.3140753,Gare Lagunaire du Plateau Sotra,-4.0176728,0,,node/7047063325
5.3212342,Gare lagunaire de Blockauss Sotra,-4.0021442,0,,node/7047101136
5.3562773,Donwahi,-4.0016118,0,,node/7047930662
5.4096636,Arrêt,-3.9856634,0,,node/7047930663
5.3665112,Syndicat,-3.9091802,0,,node/7048020780
5.3739184,Kessé,-3.9119428,0,,node/7048020781
5.3676562,Camp Millitaire d'Akouédo,-3.9446417,0,,node/7048020782
5.3652501,Église Apostolique de Côte d'Ivoire,-3.9495032,0,,node/7048020783
5.3672056,Gare Gesco,-4.1020069,0,,node/7049258139
5.365903,Arrêt,-4.0973914,0,,node/7049258140
5.3634963,Arrêt,-4.0976979,0,,node/7049258141
5.3608051,Arrêt,-4.1003995,0,,node/7049258142
5.3587021,Arrêt,-4.0998034,0,,node/7049258143
5.3582214,Mamie Adjoua,-4.0940326,0,,node/7049258144
5.3552799,Arrêt,-4.088628,0,,node/7049258145
5.3009034,Arrêt,-4.0120965,0,,node/7049730219
5.2545644,EPP Aéroport,-3.9392397,0,,node/7049730220
5.2734289,Sept Villas,-3.9712512,0,,node/7049730221
5.2844982,Arrêt,-3.9852691,0,,node/7049730222
5.3485715,Carrefour la Vie,-4.0031956,0,,node/7051810979
5.3528057,Terminus Liberté,-4.0128221,0,,node/7051810981
5.3503194,École de Police,-3.9885668,0,,node/7051810982
5.3530834,Riviera 2,-3.9797437,0,,node/7051810984
5.3529853,Station Total Riviera 2,-3.9788968,0,,node/7051811086
5.35446,Vallon,-3.9909077,0,,node/7051811087
5.3546991,Escalier,-4.0043946,0,,node/7051811088
5.3533605,Adjamé Liberté,-4.0146225,0,,node/7051811090
5.3498521,Gare Anono,-4.0228106,0,,node/7051905145
5.3495777,Station,-4.0223607,0,,node/7051905146
5.347757,Banfora,-4.0227932,0,,node/7051905147
5.3464705,Saint Michel,-4.0227107,0,,node/7051905148
5.3451372,Eglise Saint Michel,-4.0226899,0,,node/7051905149
5.343631,Eglise,-4.0234597,0,,node/7051905150
5.3490415,SODEFOR,-3.9993949,0,,node/7051905151
5.3494341,Carrefour CHU,-3.9919236,0,,node/7051905152
5.3505471,Arrêt,-3.9869374,0,,node/7051905153
5.3445751,Marché Anono,-3.9724706,0,,node/7051905154
5.3452895,Marché,-3.9744008,0,,node/7051905155
5.34455,Marché Anono,-3.9724521,0,,node/7051905157
5.3504075,Arrêt,-3.9769623,0,,node/7051905159
5.3500924,Au Lavage,-3.9778259,0,,node/7051905160
5.3510311,A la Mosquée,-3.9809205,0,,node/7051905161
5.349577,Carrefour CHU,-3.9905101,0,,node/7051905162
5.3497766,Gare Anono,-4.0228461,0,,node/7051905163
5.3501191,École de Police,-3.989405,0,,node/7052162358
5.3454176,Carrefour Saint Michel,-4.0226577,0,,node/7052162359
5.3418391,A La Caisse,-4.0216117,0,,node/7052162360
5.3673438,Akouédo,-3.9457347,0,,node/7052162361
5.3719142,Playce Palmeraie,-3.9324155,0,,node/7052162362
5.3728529,Nouveau Goudron,-3.9287925,0,,node/7052162363
5.3743603,Kessé,-3.9122875,0,,node/7052162364
5.3602229,CIE,-3.8981583,0,,node/7052162365
5.3613609,Station Texaco,-3.8947412,0,,node/7052162366
5.3575885,Collège Moderne,-3.8882764,0,,node/7052162367
5.3573081,Carrefour Bangui,-3.8845441,0,,node/7052162369
5.357718,Gare Carrefour Bangui,-3.8843443,0,,node/7052162370
5.3571933,Carrefour Bangui,-3.8844985,0,,node/7052162371
5.3574283,Collège Moderne,-3.887693,0,,node/7052162372
5.3703106,Faya,-3.9374359,0,,node/7052162373
5.350286,Gare en haut,-4.0224532,0,,node/7052162375
5.3493033,Clinique Fraternité,-4.0218316,0,,node/7052340401
5.3548993,Escalier,-4.0042631,0,,node/7052340402
5.3546376,Vallon-1er Pont,-3.9904813,0,,node/7052340403
5.3504162,Gare en haut,-4.0227482,0,,node/7052340404
5.3271876,M'Pouto,-3.9542839,0,,node/7052340405
5.3271989,M'Pouto,-3.9543486,0,,node/7052340406
5.3310206,A l'Arrêt,-3.9579682,0,,node/7052340407
5.3347781,Banny,-3.9557567,0,,node/7052340408
5.337175,Maison Blanche,-3.9537035,0,,node/7052340409
5.3452694,Mel Théodore,-3.952691,0,,node/7052340410
5.3508856,Carrefour Lycée Français,-3.9545229,0,,node/7052340411
5.3564619,Cap Nord,-3.9676865,0,,node/7052340412
5.3503214,Gare en haut,-4.0226343,0,,node/7052340415
5.3543439,Adjamé Texaco,-4.0177533,0,,node/7052366500
5.353538,Adjamé Liberté,-4.0145789,0,,node/7052366501
5.3635436,Station Shell,-4.0256001,0,,node/7052366502
5.3644663,Pont Ferrail,-4.0288496,0,,node/7052366503
5.353767,Institut des aveugles,-4.064189,0,,node/7052366504
5.3410046,Complexe,-4.062227,0,,node/7052366505
5.3381504,Carrefour Bicici,-4.0622612,0,,node/7052366506
5.3372905,Nouveau bureau,-4.0622391,0,,node/7052366507
5.3222141,Yopougon Kowëit,-4.0542723,0,,node/7052366509
5.3221811,Yopougon Kowëit,-4.0547359,0,,node/7052366510
5.3243801,Ghandi,-4.0599163,0,,node/7052366511
5.3279734,Après le feu,-4.0607867,0,,node/7052366512
5.3287946,Carrefour sapeur-pompier,-4.0611273,0,,node/7052366513
5.3328513,Pharmacie Garage,-4.0623853,0,,node/7052366514
5.3352972,Brésil,-4.0623149,0,,node/7052366515
5.336739,5 étoiles,-4.0623618,0,,node/7052366516
5.3389242,Coup d'oeil,-4.0623685,0,,node/7052366517
5.3402167,Boulagerie T7 Blé,-4.0623544,0,,node/7052366518
5.341289,Complexe,-4.0623383,0,,node/7052366519
5.3437319,Menuiserie,-4.063367,0,,node/7052366520
5.3451185,Centre Commercial,-4.0634467,0,,node/7052366521
5.3473378,Bel Air,-4.0634152,0,,node/7052366522
5.3524365,Institut des aveugles,-4.0636855,0,,node/7052366523
5.3545094,Adjamé Texaco,-4.0179776,0,,node/7052366525
5.356037,Arrêt,-3.9694898,0,,node/7052994960
5.3575504,9 Kilo,-3.9655883,0,,node/7052994961
5.3538035,Chez Momo,-3.9554317,0,,node/7052994962
5.3504159,Gare en haut,-4.0228876,0,,node/7052994963
5.3484325,Akouédo,-3.9409667,0,,node/7052994964
5.3514052,Residence Axa,-3.9420924,0,,node/7052994965
5.3536652,Pharmacie,-3.9409302,0,,node/7052994966
5.3555925,Marché,-3.9407426,0,,node/7052994967
5.3603993,Carrefour Village,-3.9399876,0,,node/7052994968
5.3594329,Garage,-3.9413817,0,,node/7052994969
5.3574386,Ancien Camp Akouedo,-3.9463048,0,,node/7052994970
5.3584115,Rond Point,-3.9500902,0,,node/7052994971
5.3505274,Gare en haut,-4.0229766,0,,node/7052994973
5.2987194,Grand Carrefour de Treichville,-4.0014656,0,,node/7054593049
5.2998985,Feux Collège Autoroute,-3.9982536,0,,node/7054593050
5.3004494,Solibra,-3.9967114,0,,node/7054593051
5.3006443,Grand Carrefour de Marcory,-3.9893769,0,,node/7054593052
5.2985331,Cap Sud,-3.9856721,0,,node/7054593053
5.2957328,Échangeur Marcory,-3.9806651,0,,node/7054593054
5.2915945,Hôpital Ibis,-3.9731844,0,,node/7054593055
5.2863103,Grand Carrefour de Koumassi,-3.9700744,0,,node/7054593056
5.2821639,Camp commando de Koumassi,-3.9691208,0,,node/7054593057
5.2760791,Ancien Koumassi,-3.9660276,0,,node/7054593058
5.2593053,Carrefour Mosquée,-3.958447,0,,node/7054593059
5.2565175,43ème Bima,-3.9573392,0,,node/7054593060
5.2511455,Port-Bouët Phare,-3.9553222,0,,node/7054593061
5.2470683,Carrefour Aéroport,-3.9447315,0,,node/7054593062
5.2418205,Mosquée Sylla,-3.9118691,0,,node/7054593063
5.242513,Casier,-3.9161177,0,,node/7054593064
5.2412776,Jean folly,-3.9084828,0,,node/7054593065
5.239452,Corridor,-3.8968273,0,,node/7054593066
5.239249,Corridor,-3.8965698,0,,node/7054593068
5.2397004,Terre rouge,-3.8998461,0,,node/7054593069
5.2416175,Mosquée Sylla,-3.9120106,0,,node/7054593070
5.2423247,Casier,-3.9165281,0,,node/7054593071
5.246864,Carrefour Aéroport - Après le pont,-3.9446484,0,,node/7054593072
5.2667851,Akwaba - Rond-Point,-3.9614162,0,,node/7054593073
5.2690216,Akwaba - Station Total,-3.9621313,0,,node/7054593074
5.2862983,Grand Carrefour de Koumassi - Après le feu,-3.9702836,0,,node/7054593075
5.2888222,Grand Carrefour de Koumassi - Avant le feu,-3.9709514,0,,node/7054593076
5.2999966,Grand Carrefour de Marcory,-3.9887989,0,,node/7054593077
5.2994752,Gare de Bassam,-4.0026612,0,,node/7054593081
5.3547164,Siporex après le feu,-4.0741669,0,,node/7054787049
5.3275194,Yopougon Palais,-4.0768819,0,,node/7054787050
5.330849,Kouté Terminus 40,-4.074128,0,,node/7054787051
5.3324467,Saguidiba,-4.073444,0,,node/7054787052
5.3334922,L'antenne,-4.0734789,0,,node/7054787053
5.335172,Mosquée,-4.073448,0,,node/7054787054
5.3377208,16ème,-4.0733823,0,,node/7054787055
5.3404604,Score,-4.0734051,0,,node/7054787056
5.3431871,Saint André,-4.0734266,0,,node/7054787057
5.3461828,Keneya après le feu,-4.0734024,0,,node/7054787058
5.3468143,Keneya,-4.0733783,0,,node/7054787059
5.3522047,La Poste,-4.0739724,0,,node/7054787060
5.3568288,Siporex,-4.0741628,0,,node/7054787061
5.3601442,Pont piéton,-4.0731409,0,,node/7054787062
5.3609066,Premier pont,-4.0672085,0,,node/7054787063
5.3642968,Pont Ferrail,-4.0306333,0,,node/7054787064
5.3570214,Mirador,-4.0257033,0,,node/7054787065
5.3567139,Renault,-4.0243931,0,,node/7054787067
5.3566011,Renault,-4.0244374,0,,node/7054787069
5.3573903,Ran,-4.0275842,0,,node/7054787070
5.3607397,En bas du pont,-4.028218,0,,node/7054787071
5.3627158,Wangler,-4.0292184,0,,node/7054787072
5.3561658,Siporex après le feu,-4.0740167,0,,node/7054787073
5.3553927,Siporex au feux,-4.0740153,0,,node/7054787074
5.3547952,Siporex,-4.0740033,0,,node/7054787075
5.3433827,Saint André,-4.0732482,0,,node/7054787076
5.3342854,Foyer des Jeunes,-4.07333,0,,node/7054787077
5.3320274,Saguidiba,-4.0733314,0,,node/7054787078
5.3307989,Kouté Terminus 40,-4.0740274,0,,node/7054787079
5.327506,Yopougon Palais,-4.0767995,0,,node/7054787080
5.3161184,Niangon Sud à Gauche,-4.0900737,0,,node/7054917910
5.3173936,Collège Gloris,-4.0886039,0,,node/7054917911
5.3200176,Carrefour Depôt,-4.0887192,0,,node/7054917912
5.3211459,Carrefour Timotel,-4.0882632,0,,node/7054917913
5.3244175,Akadjoba,-4.080462,0,,node/7054917914
5.3487652,Cosmos Yopougon,-4.0734239,0,,node/7054917915
5.3558587,Gabriel Gare,-4.0715101,0,,node/7054917916
5.3560583,Sable,-4.0670134,0,,node/7054917917
5.3603942,Premier pont,-4.0669081,0,,node/7054917918
5.3558654,Adjamé Renault,-4.020917,0,,node/7054917919
5.3501558,Ficgayo,-4.0732348,0,,node/7054917922
5.3464872,Keneya,-4.0732536,0,,node/7054917923
5.3402595,Lavage,-4.0732616,0,,node/7054917924
5.3210711,Carrefour Timotel,-4.0881318,0,,node/7054917925
5.3163548,Niangon Sud à Gauche,-4.0892006,0,,node/7054917926
5.2922114,Ibis Marcory,-3.9740923,0,,node/7054999100
5.2924331,Ibis Marcory,-3.9752094,0,,node/7054999103
5.296287,Échangeur Marcory,-3.9820196,0,,node/7054999104
5.2978587,Siège de Orange Côte d'Ivoire,-3.9849244,0,,node/7054999105
5.2993537,Cap Sud,-3.9875966,0,,node/7054999106
5.3527876,Adjamé Liberté,-4.0145963,0,,node/7054999108
5.359793,Pont piéton,-4.0716402,0,,node/7055147054
5.3334014,L'antenne,-4.0732871,0,,node/7055147055
5.3294603,Exprex,-4.0754168,0,,node/7055147056
5.3261567,Yopougon Palais,-4.0771924,0,,node/7055147057
5.3509336,Ficgayo,-4.0734722,0,,node/7055147058
5.3557716,Siporex,-4.0735272,0,,node/7055147059
5.3604967,En bas du pont,-4.0276406,0,,node/7055147060
5.3540868,Adjamé Texaco,-4.0177184,0,,node/7055147061
5.3615088,Pont piéton,-4.0227342,0,,node/7055596701
5.3643395,Pont Ferrail,-4.0271464,0,,node/7055596702
5.346558,Bel Air,-4.0632784,0,,node/7055596703
5.3283313,Carrefour sapeur-pompier,-4.0608108,0,,node/7055596704
5.3241945,Carrefour Gandhi,-4.0597688,0,,node/7055596705
5.3197051,Yopougon camp militaire,-4.0616222,0,,node/7055596706
5.3196904,Yopougon camp militaire,-4.0617268,0,,node/7055596707
5.3210872,Église catholique Sainte Marie,-4.0622967,0,,node/7055596709
5.3241978,Carrefour Gandhi,-4.0599223,0,,node/7055596710
5.3289148,Carrefour sapeur-pompier,-4.0606928,0,,node/7055596711
5.3305786,Centre de santé B.A.E,-4.0568438,0,,node/7055596712
5.3342053,La Poste,-4.0550801,0,,node/7055596713
5.337685,Carrefour Lama Fofana,-4.0551138,0,,node/7055596714
5.3397387,Carrefour Marché,-4.0576699,0,,node/7055596715
5.3404714,Pharmacie les Béatitudes,-4.0586778,0,,node/7055596716
5.341791,Hôtel,-4.0548255,0,,node/7055596717
5.3415507,Sibeco,-4.0463094,0,,node/7055596718
5.3527389,1er Terrain,-4.0456362,0,,node/7055596719
5.3545669,Adjamé Texaco,-4.0181838,0,,node/7055596720
5.3242799,Carrefour Académie,-4.1065625,0,,node/7055696176
5.3269826,Carrefour Super marché,-4.1054173,0,,node/7055696177
5.3297734,Lubafrique,-4.103749,0,,node/7055696178
5.3286184,Ancien terminus,-4.1009715,0,,node/7055696179
5.327928,Carrefour Marché,-4.0983658,0,,node/7055696180
5.3276115,Église Sainte-Rita,-4.0966304,0,,node/7055696181
5.3269332,Carrefour Texaco - Saguidiba,-4.091797,0,,node/7055696182
5.3396078,Carrefour Cité CIE,-4.0893938,0,,node/7055696183
5.3469185,Carrefour Niangon,-4.0892637,0,,node/7055696184
5.3619681,Carrefour B.A.E,-4.084437,0,,node/7055717185
5.3648682,Gesco BATIM,-4.0956353,0,,node/7055717187
5.3626751,Boulagerie,-4.0988465,0,,node/7055717188
5.361169,Boutique,-4.1001937,0,,node/7055717189
5.3591227,Rond-point de Gesco,-4.1010211,0,,node/7055717190
5.3514577,Pharmacie Alicia,-4.1039213,0,,node/7055717191
5.3495944,Sorbonne,-4.0993984,0,,node/7055717192
5.3436885,Carrefour petit canari,-4.1003834,0,,node/7055717193
5.3356127,Carrefour Anador,-4.1014852,0,,node/7055717194
5.3300979,Lubafrique,-4.1040306,0,,node/7055717195
5.3239214,Carrefour Académie,-4.1066156,0,,node/7055717196
5.3809122,Petro Ivoire 7è Tranche,-3.9878869,0,,node/7056143583
5.3977447,Complexe Sportif Angré,-3.9858967,0,,node/7056143584
5.3643355,Jules ferry,-3.9792247,0,,node/7056198867
5.370611,Attoban camp,-3.9761945,0,,node/7056198868
5.3667376,Ong Joie de vivre,-3.9794621,0,,node/7056198869
5.3954656,Rue Lamine,-3.9861703,0,,node/7056202785
5.3879726,Côte d'Ivoire Télécom,-3.9870822,0,,node/7056202786
5.3740465,Commisariat 30è Art.,-3.9846173,0,,node/7056202787
5.369376,Église Saint Bernard,-3.9805088,0,,node/7056202788
5.353759,Riviera 2,-3.9778085,0,,node/7056202789
5.3569076,Clinique Médicale Sainte-Philomène,-3.9789565,0,,node/7056202790
5.361908,Hôtel Manhatan,-3.9788693,0,,node/7056202791
5.3693426,Église Saint Bernard,-3.9806268,0,,node/7056202792
5.3735592,Commisariat 30è Art.,-3.9843625,0,,node/7056202793
5.3876602,Côte d'Ivoire Télécom,-3.9872687,0,,node/7056202794
5.3953414,Rue Lamine,-3.9863406,0,,node/7056202795
5.4028717,Termunis 81/82,-3.9853992,0,,node/7056202797
5.4032849,Termunis 81/82,-3.9852449,0,,node/7056202798
5.3538358,Riviera 2,-3.9777998,0,,node/7056202800
5.3538378,Riviera 2,-3.9775175,0,,node/7056217830
5.3980238,Angré 22ème,-3.9905188,0,,node/7056217831
5.3980298,Angré 22ème,-3.9905684,0,,node/7056217832
5.3941384,Carrefour Bluethooth,-3.98635,0,,node/7056217834
5.3563174,Gabriel Gare,-4.0717421,0,,node/7056274249
5.3577741,Sicomex,-4.0741675,0,,node/7056274250
5.3826599,Micao,-4.0947756,0,,node/7056274251
5.3826332,Micao,-4.0946871,0,,node/7056274253
5.3810256,Pharmacie Micao,-4.0955186,0,,node/7056274254
5.3768899,Carrefour Gargill,-4.0946435,0,,node/7056274255
5.3562386,Gabriel Gare,-4.0717945,0,,node/7056274256
5.2981499,Gare de Bassam,-4.0031198,0,,node/7056277272
5.3089927,Gare bateau-bus,-4.0169063,0,,node/7056277274
5.3091966,Gare bateau-bus,-4.0166887,0,,node/7056277275
5.2983743,Gare de Bassam,-4.0029929,0,,node/7056277277
5.3653423,Garage en Haut,-4.0295215,0,,node/7056562832
5.3811191,Cissé 1er,-4.0237091,0,,node/7056562833
5.3844945,Lavage,-4.0218383,0,,node/7056562834
5.3999911,Express,-4.0204348,0,,node/7056562835
5.4068598,Plaque Anador,-4.0166858,0,,node/7056562836
5.4090694,Anador,-4.0162446,0,,node/7056562837
5.4211603,Abobo Gare,-4.0182616,0,,node/7056562838
5.4197117,Au Feu,-4.0175159,0,,node/7056562841
5.4093979,Anador,-4.0160079,0,,node/7056562842
5.4017782,Garage Machine,-4.0193063,0,,node/7056562843
5.3811124,Cissé 2ème,-4.023445,0,,node/7056562844
5.3693433,Guinness,-4.0291976,0,,node/7056562845
5.3192337,Carrefour Lokoa,-4.0997437,0,,node/7056730266
5.321877,Carrefour Jatak,-4.1035451,0,,node/7056730267
5.3228151,Carrefour Internat,-4.1049439,0,,node/7056730268
5.329073,Pharmacie Niangon Nord,-4.1024722,0,,node/7056730270
5.3355058,Poubelle,-4.0859498,0,,node/7056730272
5.3396813,Marché Sicogi,-4.0792899,0,,node/7056730273
5.3447246,Ecole William Ponty,-4.0724006,0,,node/7056730275
5.3466955,Pharmacie Wassakara,-4.068439,0,,node/7056730276
5.3587519,Pharmacie d'Agban,-4.0301589,0,,node/7056730277
5.3573188,Brigade d'Adjamé,-4.0261245,0,,node/7056730278
5.3467743,Keneya,-4.0732878,0,,node/7056730279
5.3395304,Au Score,-4.0751439,0,,node/7056730280
5.3395324,Marche de Sicogi,-4.0778583,0,,node/7056730281
5.3229132,Carrefour Internat,-4.1049284,0,,node/7056730282
5.3192899,Carrefour Lokoa,-4.0997248,0,,node/7056730283
5.347978,Lycée Technique,-4.0096691,0,,node/7057184297
5.3567647,Cap Nord,-3.9674538,0,,node/7057184298
5.3584671,9 Kilo,-3.9639542,0,,node/7057184299
5.3597316,Warren,-3.9618024,0,,node/7057184300
5.3702292,Faya,-3.9385383,0,,node/7057184301
5.3726259,Nouveau Goudron,-3.9295623,0,,node/7057184302
5.3742081,Jules Verne,-3.9234073,0,,node/7057184303
5.3739865,Kessé,-3.9117752,0,,node/7057184304
5.3716031,Coup de Frein,-3.9107318,0,,node/7057184305
5.3692678,Adaman,-3.9099567,0,,node/7057184306
5.3581139,Gare Bingerville,-3.8843697,0,,node/7057184307
5.3581563,Gare Bingerville,-3.8844157,0,,node/7057184308
5.35769,Sous-Préfecture,-3.8911718,0,,node/7057184309
5.3612451,Station Texaco,-3.8944883,0,,node/7057184310
5.3601282,CIE,-3.8980879,0,,node/7057184311
5.3715337,Coup de Frein,-3.9108606,0,,node/7057184312
5.3742268,Kessé,-3.9124618,0,,node/7057184313
5.3743256,Panneau Orange,-3.9214982,0,,node/7057184314
5.3740305,Jules Verne,-3.9232584,0,,node/7057184315
5.3724022,Nouveau Goudron,-3.9296582,0,,node/7057184316
5.3717513,Chantier,-3.9321224,0,,node/7057184317
5.3699835,Faya,-3.9387314,0,,node/7057184318
5.3614581,Après barrage,-3.9585087,0,,node/7057184319
5.3536652,Adjamé Liberté Gare de Bingerville,-4.0117645,0,,node/7057184320
5.3602513,En bas du pont,-4.0284221,0,,node/7057276357
5.3672735,Gare Gesco,-4.1022643,0,,node/7057276359
5.3589064,Adjamé Agban,-4.029457,0,,node/7057276360
5.3672679,Gare Gesco,-4.102291,0,,node/7057912884
5.3659041,Grand Carrefour,-4.097619,0,,node/7057928785
5.3637686,Marché,-4.0972832,0,,node/7057928786
5.3628857,Boulagerie,-4.0985783,0,,node/7057928787
5.3586789,2ème,-4.0997664,0,,node/7057928788
5.3576374,Cité Mamie Adjoua,-4.093125,0,,node/7057928789
5.3560909,Station Shell du CHU,-4.0911866,0,,node/7057928790
5.355257,Carrefour CHU,-4.0893689,0,,node/7057928791
5.3553702,Carrefour Zone,-4.0845871,0,,node/7057928792
5.3555545,Carrefour Marché Siporex,-4.0790175,0,,node/7057928793
5.3556706,Marché Siporex,-4.0761345,0,,node/7057928794
5.3559647,Auto Ecole,-4.0684835,0,,node/7057928795
5.3566367,Au Feu Du Sable,-4.0657128,0,,node/7057928796
5.357507,Garage Massa,-4.0526099,0,,node/7057928797
5.3786237,"Gare de Woro Woro, Deux Plateau - Vallon",-4.0062581,0,,node/7058023894
5.3750146,Sococé Vallon,-3.9904665,0,,node/7058023895
5.3644019,Cash Center Vallon,-3.9897725,0,,node/7058023898
5.378199,Carrefour Duncan,-3.9979144,0,,node/7058023899
5.3781977,"Gare de Woro Woro, Deux Plateau - Vallon",-4.0062734,0,,node/7058023900
5.3735899,Sococé 2 Plateaux,-3.9985393,0,,node/7058050530
5.37797,"Gare de Woro Woro, Deux Plateau - Vallon",-4.0061165,0,,node/7058050532
5.4000018,Mobil Azur,-4.0061853,0,,node/7058185549
5.4041573,Petro Ivoire Angré,-3.9908917,0,,node/7058185550
5.4041442,Carrefour Notre Dame Angré,-3.987793,0,,node/7058185551
5.4030314,Marché COCOVICO,-3.9789792,0,,node/7058185552
5.3998841,CHU Angré,-3.9564684,0,,node/7058185553
5.4006928,Cité Wedouwel,-3.9735586,0,,node/7058185554
5.402907,BICICI Djibi,-3.9781993,0,,node/7058185555
5.4029561,Marché COCOVICO,-3.9789967,0,,node/7058185556
5.4037764,Terminus 81/82,-3.9853318,0,,node/7058185557
5.3999255,Mobil,-4.0063248,0,,node/7058185559
5.3999811,Azur 2,-4.003952,0,,node/7058225058
5.3998756,Geo-Beton,-3.9992702,0,,node/7058225059
5.3984871,22ème,-3.9917627,0,,node/7058225060
5.4039118,Terminus 81/82,-3.9859705,0,,node/7058225061
5.4037866,Terminus 81/82,-3.9848982,0,,node/7058225062
5.3789427,CNPS en Haut- Boulangerie Mary's,-3.9717246,0,,node/7058225063
5.3789741,CNPS en Haut-Mary's,-3.9717749,0,,node/7058225064
5.3860526,Cash Center 8ème Tranche,-3.9744048,0,,node/7058225066
5.3934562,Temple El Bethel,-3.9764325,0,,node/7058225067
5.3966352,king Deco,-3.9772882,0,,node/7058225068
5.3977521,Complexe Sportif Angré,-3.9870594,0,,node/7058225069
5.3547411,Adjamé Liberté,-4.0162553,0,,node/7058310539
5.3411122,Adjame Mairie-Dallas,-4.0256925,0,,node/7058310540
5.3414766,Adjame Mairie-Dallas,-4.0256196,0,,node/7058310541
5.3540087,Adjamé Liberté,-4.0166228,0,,node/7058310543
5.3999884,Mobil Azur,-4.0059187,0,,node/7058499892
5.4000185,Marché,-4.0054393,0,,node/7058499893
5.3996113,Mahou,-3.99739,0,,node/7058499894
5.4146182,Angré Château,-3.9783463,0,,node/7058499895
5.4147717,Angré Château Fin Goudron,-3.9779788,0,,node/7058499896
5.4124193,Fin goudron-Angré Château,-3.9814241,0,,node/7058499897
5.4075881,Star 6,-3.988534,0,,node/7058499898
5.3999304,Mobil Azur,-4.0062064,0,,node/7058499899
5.3603471,Warren Palmeraie,-3.9618668,0,,node/7060277170
5.380575,Pharmacie Rosiers,-3.9643954,0,,node/7060277171
5.3808721,Termunis des Rosiers,-3.9646855,0,,node/7060277172
5.3812913,Termunis des Rosiers,-3.9647388,0,,node/7060277173
5.3738329,Ivoire Center,-3.9617602,0,,node/7060277174
5.3715597,Pharmacie Saint-Paul,-3.9648145,0,,node/7060277175
5.3603634,Warren Palmeraie,-3.9618018,0,,node/7060277177
5.3622726,Après barrage,-3.959375,0,,node/7060486566
5.362842,Station,-3.9595487,0,,node/7060486567
5.3659533,Foursquare,-3.9604227,0,,node/7060486568
5.3667122,King Cash,-3.9603172,0,,node/7060486569
5.3695475,Chez Miss Zahui,-3.9602964,0,,node/7060486570
5.3833115,Carrefour Saint Viateur,-3.9563294,0,,node/7060486571
5.3849164,Palmeraie SIPIM 4,-3.9533937,0,,node/7060486572
5.384859,Palmeraie SIPIM 4,-3.9533441,0,,node/7060486573
5.3835051,Carrefour Saint Viateur,-3.9558144,0,,node/7060486574
5.3609493,Warren Palmeraie,-3.961907,0,,node/7060486576
5.4208804,Abobo Gare,-4.0184881,0,,node/7066056999
5.4242953,A l'Arrêt,-4.0192654,0,,node/7066057000
5.4374636,A la Pompe,-4.0342335,0,,node/7066057001
5.4433257,Carrefour N'Dotré,-4.0691039,0,,node/7066057003
5.443419,Carrefour N'Dotré,-4.0692913,0,,node/7066057005
5.4434682,Blé d'Oré,-4.0678744,0,,node/7066057006
5.4435515,Céleste,-4.0653184,0,,node/7066057007
5.4436197,Plaque Rouge,-4.0636905,0,,node/7066057008
5.4436954,Carrefour Diallo,-4.059904,0,,node/7066057009
5.443826,Saphirs,-4.0555298,0,,node/7066057010
5.4217468,Abobo Gare,-4.0180128,0,,node/7066057012
5.3969777,SODECI,-3.9915461,0,,node/7066086746
5.3718141,Sococé 2 Plateaux,-3.9982422,0,,node/7066086747
5.3480868,La vie,-4.0024044,0,,node/7066086748
5.3470961,Écoles des Architectes,-4.0025103,0,,node/7066086749
5.3334295,Mairie de Cocody,-4.0041921,0,,node/7066086751
5.3329481,Lycée Classique d'Abidjan,-4.0044522,0,,node/7066086752
5.339732,Carrefour Mermoz,-4.0036603,0,,node/7066086753
5.3418979,RTI,-4.0033861,0,,node/7066086754
5.3582735,BMW,-4.0011296,0,,node/7066086755
5.3783072,Carrefour Duncan,-3.9978513,0,,node/7066239480
5.3844504,Aghien sinsou,-3.9860141,0,,node/7066239481
5.3836643,Termunis Aghien,-3.9823508,0,,node/7066239483
5.3842341,Aghien sinsou,-3.9851202,0,,node/7066239484
5.38365,Termunis Aghien,-3.9824129,0,,node/7066277285
5.4267083,Abobo Gendarmerie,-4.0211061,0,,node/7066312406
5.4383201,Au Feu,-4.0400586,0,,node/7066312407
5.4439813,Agripac,-4.0493647,0,,node/7066312408
5.4434869,Céleste,-4.0653548,0,,node/7066312409
5.443623,Carrefour Diallo,-4.0600615,0,,node/7066312410
5.4433989,Blé d'Oré,-4.067652,0,,node/7066312411
5.4423614,Arrêt,-4.0692986,0,,node/7066312412
5.4394855,Lavage,-4.0686564,0,,node/7066312413
5.437834,Garage,-4.0683965,0,,node/7066312414
5.4321703,2ème Porte,-4.0686605,0,,node/7066312415
5.4305892,Première Porte,-4.0690669,0,,node/7066312416
5.3697196,Carrefour Zone,-4.0800353,0,,node/7066312418
5.3695567,Zone Industrielle,-4.0803618,0,,node/7066312420
5.3745044,Premier,-4.0777511,0,,node/7066312421
5.3889288,Prison Civile,-4.0783717,0,,node/7066312422
5.3926346,Barrage,-4.0804343,0,,node/7066312423
5.4005297,Cité Ado,-4.0843471,0,,node/7066312424
5.4287382,Garage,-4.0697767,0,,node/7066312425
5.4325555,Sotrapim,-4.0686597,0,,node/7066312426
5.427181,Abobo Gendarmerie,-4.0211289,0,,node/7066312427
5.3792124,Carrefour Zoo,-4.0022273,0,,node/7066654372
5.3771676,Carrefour Sainte Cécile,-3.9931682,0,,node/7066654373
5.3771769,Carrefour Sainte Cécile,-3.992562,0,,node/7066654374
5.3723568,Pharmacie Arc-en-ciel,-3.9903539,0,,node/7066654375
5.3673458,Pharmacie Saint Bernard,-3.9796103,0,,node/7066654376
5.3673715,Pharmacie Saint Bernard,-3.9796985,0,,node/7066654377
5.3770962,Carrefour Vallon,-3.9932553,0,,node/7066654378
5.3789855,Carrefour Gadji,-3.9997047,0,,node/7066654379
5.3492659,Carrefour CHU,-3.9919008,0,,node/7068199654
5.3423365,Arrêt,-4.1004713,0,,node/7068199655
5.3190808,Yopougon IGES,-4.0803581,0,,node/7071584250
5.3291632,Cabine Bleue,-4.0758406,0,,node/7071584251
5.345451,Dialogue,-4.0734266,0,,node/7071584252
5.3529499,Kabadougou,-4.0742031,0,,node/7071584253
5.3598,Motar,-4.0678546,0,,node/7071584254
5.3572334,Brigade d'Adjamé,-4.0262935,0,,node/7071584255
5.3574483,Sicomex,-4.0739858,0,,node/7071584256
5.3529459,Kabadougou,-4.0739939,0,,node/7071584257
5.3521848,La Poste,-4.0737994,0,,node/7071584258
5.3454484,Dialogue,-4.0732348,0,,node/7071584259
5.3438661,William-Ponty,-4.0732549,0,,node/7071584260
5.3424867,Saint André,-4.0732643,0,,node/7071584261
5.341062,Ancien Lavage,-4.0732509,0,,node/7071584262
5.3380482,16ème,-4.0732938,0,,node/7071584263
5.3190728,Yopougon IGES,-4.0802675,0,,node/7071584264
5.3166085,Niangon Sud à Gauche,-4.0889874,0,,node/7076835390
5.3228805,Église des Assemblés de Dieu de Niangon-Sud,-4.0877382,0,,node/7076835391
5.32477,Marché,-4.0792564,0,,node/7076835392
5.3415894,Saint André,-4.0734105,0,,node/7076835393
5.3591428,Adjamé Nouvelle Gare,-4.0290092,0,,node/7076835394
5.3593604,Adjamé Nouvelle Gare,-4.028861,0,,node/7076835395
5.348406,Cosmos Yopougon,-4.0732683,0,,node/7076835397
5.326606,Carrefour Texaco - Saguidiba,-4.0917099,0,,node/7076835398
5.315878,Centre Social,-4.0949781,0,,node/7076835399
5.3558069,Lavage,-4.0161093,0,,node/7076873473
5.3653489,Eglise Evangélique la victoire Gesco,-4.0934305,0,,node/7076873474
5.3551016,Star Oil,-4.1025641,0,,node/7076873475
5.3530266,Resto Glacier Boulangerie,-4.1032943,0,,node/7076873476
5.3449316,2ème,-4.1071916,0,,node/7076873477
5.3404104,Yopougon marché Bagnon,-4.1097672,0,,node/7076873478
5.361685,Boutique,-4.0998886,0,,node/7076873479
5.3442292,2ème,-4.1077065,0,,node/7076873480
5.3423766,Moayé,-4.1087124,0,,node/7076873481
5.3404397,Yopougon marché Bagnon,-4.1098228,0,,node/7076873482
5.3480615,Centre de Santé Médecine Prophétique,-4.1055688,0,,node/7076873484
5.3534032,Centre médical Les archanges,-4.1033024,0,,node/7076942285
5.359287,Rond-point de Gesco,-4.1011097,0,,node/7076942286
5.3632459,A l'étage,-4.0981807,0,,node/7076942287
5.3645037,Gesco BATIM,-4.0963393,0,,node/7076942288
5.3668524,Fourrière,-4.0971507,0,,node/7076942289
5.3634943,Arrêt,-4.0823543,0,,node/7076942290
5.3626067,Station OLA,-4.0806602,0,,node/7076942291
5.3618166,Gare Kobenan Agban,-4.0175125,0,,node/7076942292
5.4421097,BC (Belle Cité),-4.0207091,0,,node/7077860787
5.4399903,Station,-4.0204509,0,,node/7077860789
5.4376433,Carrefour Commissaire,-4.01246,0,,node/7077860790
5.4349504,JAUG,-4.0123668,0,,node/7077860791
5.4333677,Célibataire,-4.0123426,0,,node/7077860792
5.4230761,Pharmacie de la MÉ,-4.0186451,0,,node/7077860793
5.3602016,Adjamé Nouvelle Gare,-4.0287953,0,,node/7077860796
5.3599225,Adjamé Nouvelle Gare,-4.0286243,0,,node/7077860797
5.3636692,Après le Pont,-4.0293163,0,,node/7077860798
5.3772737,Macaci,-4.0259609,0,,node/7077860799
5.4422706,BC (Belle Cité),-4.0206327,0,,node/7077860800
5.4155715,Étage Noir,-4.0000655,0,,node/7077917683
5.4219587,À l'École,-3.997913,0,,node/7077917684
5.4232043,Manioc,-3.9925513,0,,node/7077935885
5.4315403,Elite/ Carrefour Marché,-3.9889867,0,,node/7077935886
5.4334458,Pharmacie Belle-Ville,-3.9887057,0,,node/7077935887
5.4334495,Pharmacie Belle-Ville,-3.9886215,0,,node/7077935888
5.4327142,Boulangerie,-3.9887479,0,,node/7077935889
5.4315313,Elite/ Carrefour Marché,-3.9889269,0,,node/7077935890
5.4300173,Mosquée,-3.9891576,0,,node/7077935891
5.4264012,Fofana CDCI,-3.9896987,0,,node/7077935892
5.4236689,Conteneur,-3.9901212,0,,node/7077935893
5.4224126,Maternité,-3.9903116,0,,node/7077935894
5.4154033,Cité Grâce,-3.9931306,0,,node/7077935895
5.4147389,Carrefour Angré,-3.995691,0,,node/7077935896
5.4196489,Abobo Gare Mairie,-4.015655,0,,node/7077935897
5.4488985,Collège Djessou,-4.0517014,0,,node/7078020131
5.4501674,PK 18 ancien marché,-4.0526924,0,,node/7078020132
5.459566,Carrefour Marché,-4.054167,0,,node/7078020133
5.4805949,Gare d'Anyama,-4.0533234,0,,node/7078020134
5.4808672,Gare d'Anyama,-4.0531236,0,,node/7078020135
5.4797886,Impôt,-4.053314,0,,node/7078020142
5.4671649,Berté,-4.0533181,0,,node/7078020143
5.4613977,Ancienne Gendarmerie,-4.0537646,0,,node/7078020144
5.4223472,Abobo Gare,-4.0183461,0,,node/7078020146
5.4167304,COOPEC,-4.0098824,0,,node/7078189936
5.4046655,Petro Ivoire Angré,-3.992281,0,,node/7078189937
5.432693,15ème Arrondissement,-4.013354,0,,node/7078209296
5.4272496,Collège Elites,-4.0186773,0,,node/7078209297
5.3599299,Adjamé Nouvelle Gare,-4.0289535,0,,node/7078209298
5.3595346,Adjamé Nouvelle Gare,-4.028787,0,,node/7078209300
5.379115,Ancien Garage,-4.0248987,0,,node/7078209301
5.3929515,Filtisac,-4.0210323,0,,node/7078209302
5.4109146,Banco,-4.0163626,0,,node/7078209303
5.4150388,Mobil,-4.0162727,0,,node/7078209304
5.4349342,JAUG,-4.0124505,0,,node/7078209306
5.3272523,Bracodi,-4.0927144,0,,node/7078451669
5.3309578,Station Shell,-4.0908596,0,,node/7078451670
5.3355379,Bon Prix,-4.0895319,0,,node/7078451671
5.3355259,Canal,-4.0881895,0,,node/7078451672
5.3423158,École,-4.0768088,0,,node/7078451673
5.3565898,Sable,-4.0665682,0,,node/7078451674
5.3583082,Première Station,-4.0669021,0,,node/7078451675
5.357423,Brigade d'Adjamé,-4.0264906,0,,node/7078451676
5.3488787,Cosmos Yopougon,-4.0732435,0,,node/7078451678
5.3393334,Sicogi,-4.0792798,0,,node/7078451679
5.3269759,Carrefour Texaco - Saguidiba,-4.0916267,0,,node/7078451680
5.3265554,Caféier,-4.1054882,0,,node/7078451681
5.3593995,1er Pont,-4.0656745,0,,node/7079601690
5.3600535,Siporex,-4.0749877,0,,node/7079601691
5.3647662,Carrefour,-4.0851595,0,,node/7079601692
5.365998,Yoplait,-4.0898102,0,,node/7079601693
5.3660404,Bon Prix,-4.0955651,0,,node/7079601694
5.311038,Gare lagunaire Aqualines Treichville,-4.0153262,0,,node/7079693847
5.3263049,Gare lagunaire Aqualines Abatta,-3.9211819,0,,node/7079782626
5.2508384,Port-Bouët Phare,-3.9562047,0,,node/7079839319
5.2549022,Église Méthodiste Unie Port-Bouët,-3.9620733,0,,node/7079839320
5.4213115,Abobo Gare Mairie,-4.0153718,0,,node/7082269144
5.4044846,Petro Ivoire Angré,-3.9914757,0,,node/7082269146
5.4048277,Star 5,-3.9944986,0,,node/7082269147
5.4213352,Abobo Gare Mairie,-4.0154935,0,,node/7082269148
5.3582975,1er Pont,-4.0662497,0,,node/7082416533
5.3569436,Station Total,-4.0664729,0,,node/7082416534
5.3471802,Bel Air - Station Shell,-4.0632664,0,,node/7082416535
5.332673,Pharmacie Garage,-4.0621962,0,,node/7082416536
5.3291458,Carrefour sapeur-pompier,-4.0611622,0,,node/7082416537
5.3236189,Ivoire Boutique Superette,-4.0582057,0,,node/7082416538
5.3222509,Yopougon Kowëit,-4.0547088,0,,node/7082416539
5.3235134,Boulagerie,-4.0567224,0,,node/7082416540
5.3235121,Carrefour Gandhi,-4.059459,0,,node/7082416541
5.3382425,Carrefour Bicici,-4.0623269,0,,node/7082416542
5.3516201,Afriquia,-4.063471,0,,node/7082416543
5.3621697,Station Shell,-4.0804191,0,,node/7082468461
5.3632192,Arrêt,-4.0823784,0,,node/7082468462
5.3511513,Station Pétro Ivoire,-4.103179,0,,node/7082468463
5.3511513,SODECI,-4.1011566,0,,node/7082468464
5.3507267,Bank of Africa: BOA,-4.0994078,0,,node/7082468465
5.3465406,Carrefour Véritas,-4.0996063,0,,node/7082468466
5.3428005,Resto chawamar pizza café,-4.1003653,0,,node/7082468467
5.3412623,NSIA Banque,-4.1003761,0,,node/7082468468
5.3366595,Maquis la Republique,-4.1006537,0,,node/7082468469
5.334053,Société Ivoirienne de Banque,-4.1027311,0,,node/7082468470
5.3329928,Pharmacie Maty,-4.1032246,0,,node/7082468471
5.3304224,Lubafrique,-4.1039863,0,,node/7082468472
5.332894,Pharmacie Maty,-4.1033627,0,,node/7082468474
5.3355406,Carrefour Anador,-4.1016743,0,,node/7082468475
5.3370835,Maquis Ivoire,-4.1005511,0,,node/7082468476
5.3401753,Pharmacie Cité Maroc,-4.1004807,0,,node/7082468477
5.3414439,NSIA Banque,-4.1004505,0,,node/7082468478
5.3426857,Resto chawamar pizza café,-4.1004793,0,,node/7082468479
5.3444406,Collège Nadjata,-4.100485,0,,node/7082468480
5.3466808,Carrefour Véritas,-4.0996411,0,,node/7082468481
5.3509103,Bank of Africa: BOA,-4.0994455,0,,node/7082468482
5.3510995,SODECI,-4.1000053,0,,node/7082468483
5.3510868,Station Pétro Ivoire,-4.1036001,0,,node/7082468484
5.351441,Pharmacie Alicia,-4.1040212,0,,node/7082486685
5.3582108,CAT,-4.1015174,0,,node/7082486686
5.3650468,Gesco BATIM,-4.0958118,0,,node/7082486687
5.3658523,Bon Prix,-4.0955642,0,,node/7082486688
5.3655906,Après le 3ème Pont,-4.0862945,0,,node/7082486689
5.3662288,Station Total,-4.0905055,0,,node/7082486690
5.3505424,Gare en haut,-4.022934,0,,node/7083105177
5.3461013,À l'École,-3.948838,0,,node/7083105178
5.3464071,Carrefour Akouédo,-3.9456602,0,,node/7083105179
5.3632112,Carrefour Decharge,-3.9368927,0,,node/7083105180
5.363529,Signature Immobilier,-3.9353223,0,,node/7083105181
5.363768,Laurier 9,-3.9328493,0,,node/7083105182
5.3616557,Grouoe scolaire Les Adorables,-3.9302824,0,,node/7083105183
5.3601923,Quincaillerie Dieudonné,-3.9286637,0,,node/7083105184
5.3582588,AB Center,-3.9263168,0,,node/7083115485
5.3717597,Menuiserie,-3.9306999,0,,node/7083115486
5.3676362,Nouveau Camp,-3.9447965,0,,node/7083115487
5.3599412,Commissariat,-3.9610648,0,,node/7083115488
5.3584685,9 Kilo,-3.9636008,0,,node/7083115489
5.3616957,Gare Kobenan Agban,-4.017532,0,,node/7083153372
5.3551604,Carrefour Liberté,-4.0110666,0,,node/7083153373
5.3617171,Après barrage,-3.9584242,0,,node/7083153374
5.3628707,Socoprix,-3.9563683,0,,node/7083153375
5.3653997,Deux Poteaux,-3.9496641,0,,node/7083153376
5.3663857,Carrefour CFA,-3.9475834,0,,node/7083153377
5.3620482,Carrefour Garage,-3.9071712,0,,node/7083153378
5.3577481,Lycée Garçon de Bingerville,-3.8908419,0,,node/7083153379
5.3567487,Marché,-3.8828442,0,,node/7083153380
5.3560129,Escalier,-3.8818196,0,,node/7083153381
5.3532556,Nouvelle Gare Bingerville,-3.8770667,0,,node/7083153382
5.3530767,Nouvelle Gare Bingerville,-3.8766544,0,,node/7083153383
5.3544744,Carrefour Sicogi,-3.8796604,0,,node/7083153384
5.3573882,CIE,-3.8872746,0,,node/7083191185
5.3612004,Djama,-3.8954768,0,,node/7083191186
5.3604072,Ancien Barrage,-3.9027549,0,,node/7083191187
5.3739985,Kessé,-3.911971,0,,node/7083191188
5.3672576,Nouveau Camp,-3.945502,0,,node/7083191189
5.3652948,Deux Poteaux,-3.9494079,0,,node/7083191190
5.3619274,Gare Kobenan Agban,-4.0173121,0,,node/7083191191
5.3587756,Adjamé Agban Village,-4.0309511,0,,node/7083218788
5.3589712,Cité Fairmont,-4.0324257,0,,node/7083218789
5.3578075,Carrefour Policier,-4.045132,0,,node/7083218790
5.352845,2ème Carrefour,-4.0454954,0,,node/7083218791
5.3511353,Depôt,-4.0453331,0,,node/7083218792
5.3495717,Maquis,-4.045364,0,,node/7083218793
5.3410112,Station Mossikro,-4.0466139,0,,node/7083218794
5.3403169,Pharmacie Notre Dame des Victoires,-4.0479054,0,,node/7083218795
5.340185,Boutique,-4.049576,0,,node/7083218796
5.3417076,Hôtel,-4.0548382,0,,node/7083218797
5.342657,Au Tournant,-4.0596588,0,,node/7083218798
5.3407255,Pharmacie les Béatitudes,-4.0586637,0,,node/7083218799
5.3398362,Carrefour Marché,-4.0575117,0,,node/7083218800
5.3314746,Offoumou Yapo,-4.0519327,0,,node/7083218801
5.3294396,Yopougon Bouassi,-4.0498935,0,,node/7083218802
5.327673,Terminus,-4.0502664,0,,node/7083218805
5.3268618,Carrefour Gnawa,-4.0522599,0,,node/7083218806
5.3271455,Gendarmerie,-4.0552251,0,,node/7083218807
5.3290977,Caféier,-4.0561411,0,,node/7083218808
5.33334,La Poste,-4.055099,0,,node/7083218809
5.342471,Au Tournant,-4.0600849,0,,node/7083218810
5.3425655,Garage,-4.0571027,0,,node/7083218811
5.3423412,Chantier,-4.0564294,0,,node/7083218812
5.3408844,Mosquée,-4.0526462,0,,node/7083218813
5.340194,Boutique,-4.0493128,0,,node/7083218814
5.3469335,Cirocco,-4.0452909,0,,node/7083218815
5.3587375,Mosquée,-4.0315734,0,,node/7083218817
5.3154761,Gare Sud,-4.0181476,0,,node/7084838708
5.3587248,Cité Fairmont,-4.0307674,0,,node/7084919707
5.342213,Chantier,-4.0563664,0,,node/7084919708
5.3318044,Pharmacie Toits-Rouges,-4.0554665,0,,node/7084919709
5.3308523,Ofosucom toît rouge,-4.0564066,0,,node/7084919710
5.3225614,Yopougon Camp Militaire,-4.0624255,0,,node/7084919711
5.3316762,Pharmacie Toits-Rouges,-4.0556932,0,,node/7084919712
5.3388013,Lavage,-4.055382,0,,node/7084919713
5.3493727,Maquis,-4.0454672,0,,node/7084919714
5.3589612,Cité Fairmont,-4.0315774,0,,node/7084919715
5.3243128,Akadjoba,-4.0800526,0,,node/7084943041
5.3239361,Arrêt,-4.0857339,0,,node/7084943042
5.3218056,Timotel,-4.0878019,0,,node/7084943043
5.3176327,Collège Gloris,-4.0883571,0,,node/7084943044
5.3159568,Niangon Sud à Gauche,-4.0902708,0,,node/7084943045
5.3176447,Carrefour à gauche,-4.0947756,0,,node/7084943047
5.3219979,Pharmacie Beyniouah,-4.0932548,0,,node/7084943048
5.3246304,SODECI,-4.0926708,0,,node/7084943049
5.3254884,Carrefour Bar Éclat,-4.092548,0,,node/7084943050
5.3276462,Super marché moins cher,-4.0913665,0,,node/7084943051
5.3296933,Carrefour Menuiserie,-4.0908489,0,,node/7084943052
5.3351787,Station Pétro Ivoire,-4.0909139,0,,node/7084943053
5.3356193,Magasin,-4.0838456,0,,node/7084943054
5.3393061,Carrefour Terminus 47,-4.0838107,0,,node/7084943055
5.3423185,Pharmacie des 3 Ponts,-4.0804312,0,,node/7084943056
5.3586447,Adjamé Agban,-4.0298058,0,,node/7085040027
5.3539293,Garage,-4.033113,0,,node/7085040028
5.3508722,Pharmacie d'Attécoubé - Au feu,-4.0318644,0,,node/7085040029
5.347056,Arrêt Mouton,-4.0307164,0,,node/7085040030
5.3412813,Au feu,-4.0312914,0,,node/7085040031
5.3084008,En bas du pont,-4.018859,0,,node/7085040032
5.297832,Cimivoire,-4.014139,0,,node/7085040033
5.2888022,Pharmacie du Port,-4.0082864,0,,node/7085040034
5.2786537,Pharmacie d'Agban,-4.0083864,0,,node/7085040035
5.2772242,SEA-invest,-4.008381,0,,node/7085040036
5.2698953,Sur le pont,-4.0057216,0,,node/7085040037
5.2700516,Vridi Port,-4.0054943,0,,node/7085040038
5.2787225,Movis,-4.0085158,0,,node/7085040040
5.2889938,Pharmacie du Port,-4.008385,0,,node/7085040041
5.2976598,Cimivoire,-4.0140975,0,,node/7085040042
5.2998665,Après le feu,-4.0166918,0,,node/7085040043
5.3026687,CDCI,-4.0205978,0,,node/7085040044
5.3039894,Dinor,-4.0218256,0,,node/7085040045
5.307699,Après le Pont,-4.0202612,0,,node/7085040046
5.3264057,Garage,-4.0274254,0,,node/7085040047
5.340202,Ancien ONUCI,-4.0306695,0,,node/7085040048
5.358829,Pharmacie d'Agban,-4.0296637,0,,node/7085040049
5.3511772,Super marché Proxy,-4.0996081,0,,node/7085152205
5.3445744,Collège Nadjata,-4.1003664,0,,node/7085152206
5.3422431,Banque Atlantique,-4.1003779,0,,node/7085152207
5.3369609,Maquis Ivoire,-4.1004579,0,,node/7085152208
5.3281584,Station First Petroleum,-4.1049112,0,,node/7085152209
5.3551229,Star Oil,-4.1026352,0,,node/7085152210
5.3258142,Caféier,-4.1058934,0,,node/7085185966
5.3354311,Magasin,-4.0838188,0,,node/7085185967
5.3588343,Adjamé Agban Village,-4.0309384,0,,node/7098748067
5.3650785,Pont Ferrail,-4.028751,0,,node/7098748068
5.363732,Station Shell,-4.0254573,0,,node/7098748069
5.3615635,Pont piéton,-4.0223479,0,,node/7098748070
5.3607831,Carrefour Agban,-4.0179726,0,,node/7098748071
5.3592149,Chic Shop,-3.9627157,0,,node/7098748072
5.36098,Après barrage,-3.9597076,0,,node/7098748073
5.3711625,Petit portail Génie 2000,-3.9350903,0,,node/7098748074
5.3744618,Panneau Orange,-3.921926,0,,node/7098748075
5.364712,Nouveau Chantier,-3.9084198,0,,node/7098748076
5.3531502,Nouvelle Gare Bingerville,-3.8776186,0,,node/7098748077
5.3530073,Nouvelle Gare Bingerville,-3.8775542,0,,node/7098748078
5.3571219,Marché,-3.8836147,0,,node/7098748079
5.3573322,Carrefour Marché,-3.8862889,0,,node/7098748080
5.361681,Carrefour Garage,-3.906856,0,,node/7098748081
5.3685214,Adaman,-3.9098829,0,,node/7098748082
5.3624675,Socoprix,-3.956674,0,,node/7098748083
5.3527149,Riviera 2,-3.979792,0,,node/7098748084
5.336062,Saint Jean,-4.0035772,0,,node/7160556541
5.335168,Lycée Moderne de Cocody,-3.9959684,0,,node/7160556542
5.3390831,Carrefour Mosquée Golf,-3.9787459,0,,node/7160556543
5.3464111,Carrefour Anono,-3.9751786,0,,node/7160556544
5.3527309,Riviera 2,-3.9768831,0,,node/7160556546
5.3523977,Riviera 2,-3.9766934,0,,node/7160556547
5.3510631,Station Service First Petroleum Riviéra 2,-3.9763856,0,,node/7160556548
5.3402488,Leader Price,-3.9747494,0,,node/7160556549
5.3381016,Rond-Point,-3.9756735,0,,node/7160556550
5.3350058,Maison du PDCI-RDA,-3.9966651,0,,node/7160556551
5.3358477,Saint Jean,-4.0036435,0,,node/7160556553
5.336514,Saint Jean,-4.0040472,0,,node/7160672808
5.3493821,Carrefour la Vie,-4.0024419,0,,node/7160672809
5.3607758,ENA,-3.9978527,0,,node/7160672810
5.369372,Mobile,-3.9983663,0,,node/7160672811
5.3852048,Espace Opera,-3.9931762,0,,node/7160672812
5.4086542,Pharmacie les allées,-3.987211,0,,node/7160672813
5.4098331,Boulangerie,-3.9852141,0,,node/7160672814
5.4049572,Petro Ivoire Angré,-3.9905812,0,,node/7160672815
5.3744845,Sococé,-3.9983301,0,,node/7160672816
5.3684947,Mobile,-3.9981115,0,,node/7160672817
5.3364806,Saint Jean,-4.0038018,0,,node/7160672818
5.3455104,PFO Africa CI,-4.002918,0,,node/7160738662
5.4045593,Petro Ivoire Angré,-3.9906241,0,,node/7160738664
5.3945907,Les Oscar,-3.9918455,0,,node/7160738665
5.3855546,Espace Opera,-3.9929134,0,,node/7160738666
5.3771042,Snedai,-3.9979123,0,,node/7160738667
5.262302,Pharmacie Vridi SIR,-3.98256,0,,node/7167642497
5.2568994,Petit Bassam,-3.9781907,0,,node/7167642498
5.2616476,Centre Pilote Des Jeunes De Port Bouet,-3.9643854,0,,node/7167642499
5.2640221,La Poste,-3.9844832,0,,node/7167642500
5.2666329,Vridi Cité,-3.9883375,0,,node/7167642501
5.2667103,Vridi Cité,-3.9883335,0,,node/7167642502
5.2656006,Paroisse St Jean Marie Vianney,-3.9860174,0,,node/7167642503
5.2640154,La Poste,-3.9842887,0,,node/7167642504
5.2623307,Pharmacie Vridi SIR,-3.9824635,0,,node/7167642505
5.2569989,Petit Bassam,-3.9781136,0,,node/7167642506
5.2572273,Cimétière de Port-Bouët,-3.9730664,0,,node/7167642507
5.2568347,Station,-3.9717186,0,,node/7167642508
5.2577,Marché de Port-Bouët,-3.9648172,0,,node/7167642509
5.2557943,Au 19,-3.9962031,0,,node/7167707751
5.2543307,Vridi Canal,-4.0062949,0,,node/7167707752
5.2543874,Vridi Canal,-4.0062211,0,,node/7167707753
5.2556167,Pharmacie Vridi Village,-3.9973108,0,,node/7167707754
5.2567278,Marché de Port-Bouët,-3.9652102,0,,node/7167707755
5.2412963,Jean folly,-3.9096469,0,,node/7167781666
5.2430912,Marché Adjoufou,-3.9209591,0,,node/7167781667
5.2575638,Marché de Port-Bouët,-3.9646751,0,,node/7167781668
5.2576092,Marché de Port-Bouët,-3.9648521,0,,node/7167781669
5.253743,Église Méthodiste Unie Port-Bouët,-3.9622208,0,,node/7167781670
5.2433664,Marché Adjoufou,-3.92158,0,,node/7167781671
5.240686,Mosquée,-3.9044675,0,,node/7167781672
5.2404109,Église Catholique,-3.9028153,0,,node/7167781673
5.238433,Arrêt,-3.8899219,0,,node/7167781674
5.2379215,Arrêt,-3.8867462,0,,node/7167781675
5.2371222,Anani - Rond-point,-3.8737408,0,,node/7167781676
5.4218592,Abobo Gare,-4.0180993,0,,node/7170470245
5.4225247,Carrefour Mosquée,-4.0187028,0,,node/7170470246
5.4276862,Abobo Gendarmerie,-4.0201874,0,,node/7170470247
5.4458699,BC (Belle Cité),-4.0206977,0,,node/7170470249
5.446211,BC (Belle Cité),-4.0206964,0,,node/7170470250
5.4426577,Carrefour Ecole,-4.0205347,0,,node/7170470251
5.4334418,Sainte Marie,-4.0202069,0,,node/7170470252
5.4220721,Abobo Gare,-4.0182079,0,,node/7170470260
5.4258758,Abobo Gendarmerie,-4.0200131,0,,node/7170486849
5.4362234,Marché de Nuit,-4.0298554,0,,node/7170486850
5.4438379,Taxi Gare,-4.0534082,0,,node/7170486851
5.4437084,Bon Prix,-4.057509,0,,node/7170486852
5.4433527,Carrefour N'Dotré,-4.0688534,0,,node/7170486853
5.4434882,Paris Baguette,-4.0682969,0,,node/7170486854
5.4436253,Agripac,-4.0483546,0,,node/7170486855
5.4392306,Nouvelle Gare,-4.042085,0,,node/7170486856
5.4261402,Rond Point Gendarmerie,-4.0202571,0,,node/7170486858
5.4178225,Ciné Cool,-4.0120778,0,,node/7171335585
5.4152691,Samaké,-4.0062815,0,,node/7171335586
5.4148052,Carrefour Angré,-3.9955347,0,,node/7171335587
5.4250381,Carrefour Paweur,-3.989972,0,,node/7171335588
5.441591,Carrefour Mosquée,-3.9832601,0,,node/7171335589
5.4424655,Carrefour COSIM,-3.9820893,0,,node/7171335590
5.4456736,Biabou,-3.9781947,0,,node/7171335591
5.4455655,Biabou,-3.9781143,0,,node/7171335593
5.4412279,Clinique,-3.9836597,0,,node/7171335594
5.4384643,Carrefour Cimetière,-3.9865337,0,,node/7171335595
5.4230841,Pharmacie La Mé,-4.0188704,0,,node/7171370580
5.4269906,Abobo Gendarmerie,-4.0202639,0,,node/7171370581
5.4351053,Camp Commando,-4.0203416,0,,node/7171370582
5.4383201,Complexe sportif d’Abobo,-4.0161279,0,,node/7171370583
5.4411498,Carrefour Bassolé,-4.0087451,0,,node/7171370584
5.4434935,Houphouet Boigny,-4.008837,0,,node/7171384785
5.4435552,Houphouet Boigny,-4.0087707,0,,node/7171384786
5.4396993,Carrefour Zouglou,-4.0086123,0,,node/7171384787
5.4383909,Carrefour Commissaire,-4.0122722,0,,node/7171384788
5.4214927,Abobo Gare,-4.0176574,0,,node/7171384789
5.421466,Abobo Gare Mairie,-4.0153517,0,,node/7171428176
5.4207791,Centre D'action Culturelle D'abobo,-4.0147077,0,,node/7171428177
5.4047816,Petro Ivoire Angré,-3.9909969,0,,node/7171428179
5.4214106,Abobo Gare Mairie,-4.0154231,0,,node/7171428180
5.3600674,Terminus Palmeraie,-3.9617317,0,,node/7171567234
5.3736313,Pharmacie Ste Béatrice,-3.9615925,0,,node/7171567235
5.388254,Arrêt,-3.9750391,0,,node/7171567236
5.4006213,Marché,-3.9802185,0,,node/7171567237
5.3976539,Pharmacie Les Lauréats,-3.9862789,0,,node/7171567238
5.3982668,22e Arrondissement,-3.9911894,0,,node/7171567239
5.3910869,Pharmacie Bien Être,-3.9756567,0,,node/7171567240
5.360012,Terminus Palmeraie,-3.9617759,0,,node/7183549114
5.3676412,Garage,-3.9638372,0,,node/7183549115
5.4009705,Pharmacie 8ème Tranche,-3.9782092,0,,node/7183549116
5.4037182,Terminus 81/82,-3.9849425,0,,node/7183549117
5.3868604,CNPS,-3.9744987,0,,node/7183549119
5.3829463,Arrêt,-3.9690886,0,,node/7183549120
5.3704548,Mosquée,-3.9645336,0,,node/7183549121
5.282873,Unilever,-4.0084568,0,,node/7184140909
5.2885117,Port de Pêche,-4.0103699,0,,node/7184140910
5.2872865,Carrefour,-4.0101573,0,,node/7184140911
5.2832736,Unilever,-4.0082999,0,,node/7184140912
5.2560547,Au 19,-3.9968066,0,,node/7184140913
5.2583544,Pharmacie Vridi,-3.9819203,0,,node/7184140914
5.2575398,Terre rouge,-3.9791577,0,,node/7184140915
5.2568921,Marché de Port-Bouët,-3.9648025,0,,node/7184140917
5.2475404,Carrefour Aéroport,-3.9438638,0,,node/7184205208
5.2497072,Carrefour Portail Cité,-3.942984,0,,node/7184205209
5.2507516,Depôt SOTRA,-3.9425462,0,,node/7184205210
5.2547807,Boutique,-3.9396112,0,,node/7184205211
5.253914,Aéroport,-3.9340845,0,,node/7184205212
5.2581781,Aéroport - Aeria Maintenance,-3.9322968,0,,node/7184205213
5.2581568,Aéroport - Aeria Maintenance,-3.9322217,0,,node/7184205214
5.2566764,OLA,-3.9328433,0,,node/7184205215
5.2553683,P1,-3.9341147,0,,node/7184205216
5.2536415,Aéroport,-3.9341455,0,,node/7184205217
5.2527722,Garage,-3.9416523,0,,node/7184205218
5.2475124,Carrefour Aéroport,-3.9437988,0,,node/7184205220
5.2932083,Grand Marché de Koumassi,-3.9591739,0,,node/7187396845
5.2934734,Grand Marché de Koumassi,-3.9580715,0,,node/7187396847
5.2942051,Cimétière de Koumassi,-3.9550298,0,,node/7187396848
5.3045089,Pharmacie Campement,-3.945327,0,,node/7187396849
5.3120416,Lycée municipal de Koumassi,-3.9452391,0,,node/7187396850
5.3128809,Koumassi Grand Marché,-3.9436278,0,,node/7187396851
5.3096393,Centre Médical Social,-3.9481969,0,,node/7187396852
5.2987521,Inchallah,-3.9552243,0,,node/7187396853
5.2949657,Cimétière de Koumassi,-3.9559197,0,,node/7187396854
5.2935121,Grand Marché de Koumassi,-3.9575793,0,,node/7187396856
5.2933198,Grand Marché de Koumassi,-3.9577335,0,,node/7190927829
5.2900534,Paroisse Saint Etienne de Koumassi,-3.962068,0,,node/7190927830
5.2875642,Grand Carrefour de Koumassi,-3.97036,0,,node/7190927831
5.2772175,Le Réservoir,-3.9670019,0,,node/7190927832
5.2765939,Carrefour Ancien Koumassi,-3.9664668,0,,node/7190927833
5.2754601,Ancien Koumassi - Terminus,-3.9658794,0,,node/7190927834
5.2766833,Carrefour Ancien Koumassi,-3.9669308,0,,node/7190927835
5.2903926,Centre Matthew Ray,-3.9612848,0,,node/7190927836
5.2918068,Grand Marché de Koumassi,-3.9574633,0,,node/7190927837
5.2939274,King Cash,-3.95621,0,,node/7190927838
5.3068711,Gare de Wôrô-Wôrô d'Anoumabo,-3.9639898,0,,node/7190993874
5.3029271,Carrefour Sans fil,-3.9636525,0,,node/7190993875
5.3016105,Groupe Scolaire Entente,-3.961783,0,,node/7190993876
5.3000942,Paroisse Saint François,-3.9611205,0,,node/7190993877
5.2938646,Grand Marché de Koumassi,-3.9596432,0,,node/7190993879
5.2936743,Grand Marché de Koumassi,-3.9596734,0,,node/7190993880
5.2951479,Pharmacie Saint François,-3.9600456,0,,node/7190993881
5.2972365,Trois Ampoules,-3.9623845,0,,node/7190993882
5.3029972,Carrefour Sans fil,-3.9637269,0,,node/7190993883
5.3068745,Gare de Wôrô-Wôrô d'Anoumabo,-3.9640515,0,,node/7190993884
5.2935832,Grand Marché de Koumassi,-3.9576034,0,,node/7191121578
5.3076256,Mosquée Sangaré,-3.9406237,0,,node/7191121579
5.30922,Pharmacie Le Roc,-3.9380045,0,,node/7191121580
5.3105527,Koumassi Campement,-3.9363013,0,,node/7191121581
5.3104966,Koumassi Campement,-3.9362437,0,,node/7191121582
5.3099892,Boulangerie la Baguette,-3.9369008,0,,node/7191121583
5.3054249,Commissariat 20ᵉ arrondissement,-3.9433891,0,,node/7191121584
5.3001916,Institut Superieur Technique Sainte Thérèse,-3.9487756,0,,node/7191135685
5.2971323,Maison Blanche Koumasssi,-3.9564461,0,,node/7191135686
5.2936443,Grand Marché de Koumassi,-3.9569852,0,,node/7191232911
5.2922849,Pharmacie Saint Albert,-3.9574988,0,,node/7191232912
5.2925199,Cimétière de Koumassi,-3.955286,0,,node/7191232913
5.290181,Site des garagistes Koumassi,-3.9547254,0,,node/7191232914
5.2863056,Bourse du bois Koumassi,-3.9522893,0,,node/7191232915
5.2860031,Gare de Wôrô-Wôrô Soweto,-3.9512948,0,,node/7191232917
5.2856199,Nouveau marché Soweto,-3.9516382,0,,node/7191232918
5.2940516,Cimétière de Koumassi,-3.9552887,0,,node/7191232919
5.2937124,Grand Marché de Koumassi,-3.9566593,0,,node/7191232920
5.2971043,Trois Ampoules,-3.9621967,0,,node/7191438553
5.2903325,Paroisse Saint Etienne de Koumassi,-3.9623979,0,,node/7191438554
5.2869253,Hôpital de Koumassi,-3.9687426,0,,node/7191438555
5.2869099,Hôpital de Koumassi,-3.9688338,0,,node/7191438557
5.2905448,Paroisse Saint Etienne de Koumassi,-3.9625025,0,,node/7191438558
5.296482,Gare communale,-3.9546812,0,,node/7833549603
5.2860179,Gare de Wôrô-Wôrô Soweto,-3.9514276,0,,node/7833549604
5.2964646,Gare communale,-3.9547938,0,,node/7833549607
5.2968231,Gare communale,-3.9550613,0,,node/7833694092
5.2880261,Sicogi,-3.9654825,0,,node/7833694093
5.2882335,Sicogi,-3.9654467,0,,node/7833694095
5.2846993,Groupe Scolaire Pépinière,-3.9640746,0,,node/7833694096
5.2848849,Rois des Rois,-3.9579805,0,,node/7833694097
5.3121998,Akromiambla,-3.9528392,0,,node/7834704383
5.288236,Sicogi,-3.965532,0,,node/7834704384
5.3122339,Akromiambla,-3.952876,0,,node/7834718785
5.2889063,Sicogi,-3.9656199,0,,node/7834718787
5.2900598,Pharmacie Aniel,-3.9626563,0,,node/7834785518
5.2880316,Sicogi,-3.9653188,0,,node/7834816424
5.2861033,Soweto,-3.9528921,0,,node/7834816425
5.2860139,Soweto,-3.9528573,0,,node/7834816426
5.3572694,Gare Wôro-Wôrô 9 Kilo,-3.9638315,0,,node/7834873583
5.348423,Akouédo,-3.9409446,0,,node/7834873584
5.3573836,Gare Wôro-Wôrô 9 Kilo,-3.9640441,0,,node/7834978086
5.3551851,Leader Price,-3.9607108,0,,node/7835761635
5.3291098,DC10,-3.9516033,0,,node/7835761636
5.3284441,Mosquée Cité Eden,-3.9405157,0,,node/7835761637
5.3290243,DC10,-3.9515631,0,,node/7835761638
5.3283533,Mosquée Cité Eden,-3.9405184,0,,node/7835761640
5.3283446,Rue Filaho,-3.9478462,0,,node/7835761641
5.332898,Institut Britanique,-3.9574948,0,,node/7835761642
5.3245123,Sol Béni au Bateau,-3.9602789,0,,node/7835784410
5.324551,Sol Béni au Bateau,-3.9604077,0,,node/7835784411
5.3538338,Pharmacie Saint-Pierre des Rosées,-3.9574814,0,,node/7835784412
5.3586607,Gare de taxi Riviera Bonoumin,-3.9652504,0,,node/7835819027
5.365377,Pharmacie Saint Jean Paul II,-3.9691316,0,,node/7835819028
5.3747889,Abri 2000,-3.9705129,0,,node/7835819029
5.3748563,Abri 2000,-3.9703144,0,,node/7835819030
5.3704748,Église des Assemblées de Dieu,-3.9684811,0,,node/7835819031
5.3678324,Paul Ndré,-3.967706,0,,node/7835819032
5.3586367,Gare de taxi Riviera Bonoumin,-3.9652947,0,,node/7835819033
5.3633147,O'Burger,-3.9597063,0,,node/7835899826
5.3942199,Institut de beauté Spa,-3.9569932,0,,node/7835899827
5.3996553,CHU Angré,-3.9565171,0,,node/7835899828
5.3628888,Station,-3.9593676,0,,node/7835899829
5.3790062,Enica,-3.9531248,0,,node/7835899830
5.3975251,Pharmacie Est,-3.9566445,0,,node/7835899831
5.3996446,CHU Angré,-3.9563274,0,,node/7835899832
5.4024899,Honi Poissonnerie,-3.9615704,0,,node/7835947934
5.3998309,Lavage,-3.964954,0,,node/7835947935
5.3962654,Rosier Programme 6,-3.9691731,0,,node/7835947937
5.3696036,Chez Miss Zahui,-3.9602534,0,,node/7835947938
5.3627385,Station,-3.9597807,0,,node/7835947939
5.3630296,Station,-3.9597036,0,,node/7836077585
5.3717059,Guiro,-3.9580681,0,,node/7836077586
5.382929,Star 14,-3.9688332,0,,node/7836077587
5.3859298,Cash Center 8ème Tranche,-3.9743873,0,,node/7836077588
5.3874012,SGBCI,-3.9747937,0,,node/7836077589
5.3925937,Immeuble Sylla,-3.9762086,0,,node/7836077590
5.404315,Petro Ivoire Angré,-3.990144,0,,node/7836077591
5.4044465,Petro Ivoire Angré,-3.9905114,0,,node/7836077592
5.3630911,Station,-3.9594112,0,,node/7836077593
5.3396092,Leader Price,-3.9751464,0,,node/7836121074
5.3406787,Flambeau,-3.9746837,0,,node/7836121075
5.3454243,Marché,-3.974897,0,,node/7836121076
5.3477904,Carrefour Garage,-3.9755957,0,,node/7836121077
5.3527522,Riviera 2,-3.9767919,0,,node/7836121078
5.3457127,Marché,-3.9748567,0,,node/7836121079
5.3395678,Leader Price,-3.9750579,0,,node/7836121081
5.3070794,Rue 12,-3.9639549,0,,node/7837854395
5.3016045,Rue 12,-4.0105623,0,,node/7837854396
5.3016739,Rue 12,-4.0105274,0,,node/7837854397
5.2997777,Marché Samsung,-4.0073812,0,,node/7837854398
5.2947647,Boulevard,-3.9785112,0,,node/7837854399
5.3070821,Anoumabo sans fil,-3.9640468,0,,node/7837854401
5.3117709,Maison Blanche,-3.9607728,0,,node/7839982486
5.311633,Carrefour Milieu,-3.9687983,0,,node/7839982587
5.3034246,Carrefour Lycée,-3.9761717,0,,node/7839982685
5.3117442,Au Bambou,-3.9663823,0,,node/7839982686
5.3116811,Carrefour Milieu,-3.968808,0,,node/7839982785
5.3117845,Maison Blanche,-3.9606816,0,,node/7839982786
5.3032314,Carrefour Lycée,-3.9759833,0,,node/7839982885
5.3083247,Gare Sotra Marcory,-3.9835699,0,,node/7840094085
5.3117251,Maison Blanche,-3.9608181,0,,node/7840094185
5.3088982,Pharmacie Roma,-3.9772231,0,,node/7840094285
5.3084368,Gare Sotra Marcory,-3.9839226,0,,node/7840094286
5.3082486,CTAO,-3.9566176,0,,node/7840247685
5.3086859,Ferraille,-3.9640535,0,,node/7840247785
5.3117605,Gare d'Adjamé,-3.9641654,0,,node/7840247786
5.3116507,Institut Froebel,-3.9737027,0,,node/7840676797
5.3082779,Carrefour Diabaté,-3.9614738,0,,node/7840676798
5.3116247,Carrefour Amangou,-3.9707039,0,,node/7840676799
5.3082903,Carrefour Marché,-3.9639437,0,,node/7840690990
5.3083041,Gare Sotra Marcory,-3.9836619,0,,node/7840690991
5.303307,En bas du pont,-3.9761672,0,,node/7840697489
5.3083149,CTAO,-3.9566179,0,,node/7840697490
5.2994889,Hibiscus,-3.9796793,0,,node/7840790185
5.2911823,Mairie de Marcory,-3.99011,0,,node/7840790285
5.2995687,Hibiscus,-3.9797324,0,,node/7840790286
5.2908229,Mairie de Marcory,-3.9902304,0,,node/7840790387
5.3519217,Elisée Vierra,-3.9717467,0,,node/7840850687
5.3534973,Chez Alpha,-3.9697257,0,,node/7840850688
5.3514046,Station Riviera 2,-3.9763371,0,,node/7840850689
5.3513028,Station Riviera 2,-3.9762374,0,,node/7840862585
5.3573796,9 Kilo,-3.964374,0,,node/7840862887
5.3356527,Saint Jean,-4.0038849,0,,node/7841011316
5.3301139,Lycée Classique d'Abidjan,-4.004589,0,,node/7841011317
5.3288874,Hôtel Ivoire,-4.0047406,0,,node/7841011318
5.3250865,Gare de Warren Blockauss,-4.001542,0,,node/7841011319
5.3251031,Gare de Warren Blockauss,-4.0016634,0,,node/7841011320
5.3265833,Parking,-4.0015179,0,,node/7841011321
5.3292768,Hôtel Ivoire,-4.0045827,0,,node/7841011322
5.3317777,Lycée Classique d'Abidjan,-4.0045944,0,,node/7841011323
5.3356721,Saint Jean,-4.0041317,0,,node/7841011324
5.3250653,Gare de Warren Blockauss,-4.0015419,0,,node/7842766285
5.3467182,CHU de Cocody,-3.9945931,0,,node/7842766286
5.3465232,INFS,-3.9950551,0,,node/7842766287
5.3441411,Station Ola,-3.9983945,0,,node/7842766486
5.345435,INSAAC,-3.9971446,0,,node/7842766585
5.3419503,Sup Elite,-3.9993044,0,,node/7842767185
5.338118,Allocodrome,-3.9998201,0,,node/7842767186
5.3462642,CHU de Cocody,-3.9928664,0,,node/7842767187
5.3385483,CIE,-4.0037783,0,,node/7842852286
5.3480575,La vie,-4.002625,0,,node/7842852287
5.3391525,SGBCI,-4.0037032,0,,node/7842852485
5.331295,Fondation Children of Africa,-4.0009084,0,,node/7842905485
5.3290303,Banque Mondiale,-4.0010901,0,,node/7842905486
5.3350402,Feu de la patisserie,-4.0002445,0,,node/7842905585
5.333784,Pharmacie La Piété,-4.0003525,0,,node/7842905586
5.335163,Feu de la patisserie,-4.0001801,0,,node/7842905685
5.3460559,Jacques Prevet,-3.9494763,0,,node/7843256286
5.3486238,Akouédo,-3.9408008,0,,node/7843264787
5.3462155,Roi du Pain,-3.945997,0,,node/7843264988
5.3532937,Cité Universitaire,-3.9741714,0,,node/7843272185
5.348655,Akouédo,-3.9408264,0,,node/7843272285
5.3513368,Station Riviera 2,-3.9761486,0,,node/7843272486
5.3459542,Jacques Prevet,-3.9495562,0,,node/7843272685
5.3512227,Station Riviera 2,-3.9763494,0,,node/7843524985
5.3530206,Pharmacie de la 2,-3.976519,0,,node/7843524986
5.3463684,Cité Belles Fleurs Riviera 3,-3.9526092,0,,node/7843525285
5.328332,M'pouto - CIAD,-3.9410193,0,,node/7843525286
5.3312269,Carrefour Sol Béni,-3.957818,0,,node/7843525385
5.3284448,Ecole Libanaise,-3.9453229,0,,node/7843525386
5.328365,Mosquée Cité Eden,-3.9402086,0,,node/7843525585
5.3327685,Institut Britanique,-3.9576074,0,,node/7843525885
5.3359572,Lamiyia,-3.9581345,0,,node/7843525886
5.3557302,Siporex - Gare SBTA,-4.0745615,0,,node/7843927985
5.3467349,Poisson d’Afrique,-4.0722866,0,,node/7843927986
5.3556578,Siporex - Pharmacie,-4.074541,0,,node/7843927987
5.330652,Toit Rouge Jean-Paul 2,-4.0473904,0,,node/7843928085
5.3294262,Yopougon Bouassi,-4.0500458,0,,node/7843928086
5.3306046,Toit Rouge Jean-Paul 2,-4.0473468,0,,node/7843928185
5.3309398,Maquis chez Raoul,-4.0515082,0,,node/7843928285
5.3317363,Offoumou Yapo,-4.0523297,0,,node/7843928385
5.3366368,5 étoiles,-4.0622411,0,,node/7844053285
5.3221935,Carrefour Koweit,-4.0540805,0,,node/7844053286
5.3233833,Ghandi,-4.0598372,0,,node/7844053385
5.3221381,Carrefour Koweit,-4.0541164,0,,node/7844054485
5.3556938,Siporex,-4.0736002,0,,node/7847553385
5.3690635,Andokoi - Zone Industrielle,-4.0806779,0,,node/7847553386
5.3556551,Siporex,-4.0735647,0,,node/7847553387
5.3691917,Zone Industrielle,-4.0801911,0,,node/7847553485
5.3618693,Garage,-4.0688038,0,,node/7847553585
5.3283115,Carrefour sapeur-pompier,-4.0611394,0,,node/7855287155
5.3278994,Cité Gem2,-4.062754,0,,node/7855287156
5.3256788,Marché,-4.0623867,0,,node/7855287157
5.3244122,Hôtel Lagunaire,-4.0623306,0,,node/7855287158
5.3230698,Yopougon Camp Militaire,-4.0623259,0,,node/7855287159
5.3189849,Camp militaire - King Cash,-4.0615875,0,,node/7855287160
5.3247987,Carrefour,-4.062418,0,,node/7855287161
5.3232825,Yopougon Camp Militaire,-4.0624124,0,,node/7855287162
5.318986,Camp militaire - King Cash,-4.0616871,0,,node/7855287164
5.3283527,Carrefour sapeur-pompier,-4.0611894,0,,node/7855287166
5.3289869,Carrefour,-4.0709496,0,,node/7855330728
5.3281345,CNPS,-4.0654311,0,,node/7855330729
5.3302866,Kouté Terminus 40,-4.0741618,0,,node/7855330730
5.3303458,Kouté Terminus 40,-4.0741175,0,,node/7855330732
5.3290522,Carrefour Kouté,-4.0693829,0,,node/7855330733
5.3282352,CNPS,-4.0657525,0,,node/7855330734
5.3280605,Pharmacie Nankoko,-4.0633929,0,,node/7855330735
5.3563641,Yopougon Gabriel Gare,-4.0726058,0,,node/7866306285
5.3923934,Yopougon Prison Civil,-4.0835211,0,,node/7866306286
5.3694761,Zone Industrielle,-4.0801576,0,,node/7866306386
5.3922892,Yopougon Prison Civil,-4.0835378,0,,node/7866306485
5.3812006,Arrêt,-4.0756099,0,,node/7866306585
5.3563962,Yopougon Gabriel Gare,-4.0726501,0,,node/7866306685
5.3437542,Lavage le Sticker,-4.0692453,0,,node/7866467385
5.3248704,Ghandi,-4.0598189,0,,node/7866467386
5.3197608,Arrêt,-4.0662511,0,,node/7866467387
5.3187601,Camp militaire,-4.0617654,0,,node/7866467485
5.3554485,Siporex,-4.0745623,0,,node/7866467486
5.3280703,CNPS,-4.0656275,0,,node/7866467585
5.3409601,Mossikro,-4.046634,0,,node/7869419886
5.3466995,Clinique Chinoise,-4.0677269,0,,node/7869419985
5.3466982,Bonnet Rouge,-4.0658829,0,,node/7869420085
5.3466344,Bonnet Rouge,-4.0661276,0,,node/7869420086
5.3564776,Gabriel Gare,-4.0715805,0,,node/7869420186
5.350995,Boulangerie Patisserie au Blé Doré,-4.0685386,0,,node/7869420285
5.4150481,Derrière Rail,-4.033528,0,,node/7869930486
5.414946,Gare des Taxis,-4.0301672,0,,node/7869930487
5.4149947,1er Carrefour,-4.0315439,0,,node/7869930985
5.4148759,Petit Carrefour,-4.0290166,0,,node/7869930986
5.4198352,Gare d'Abobo,-4.01798,0,,node/7869930987
5.3360947,King Deco,-4.0623316,0,,node/7873445787
5.3404965,Yopougon Complexe,-4.0622572,0,,node/7873450686
5.3357048,Brésil,-4.0622424,0,,node/7873450785
5.3332265,Pharmacie Laoulo,-4.0623491,0,,node/7873450786
5.3237311,Carrefour Gandhi,-4.0595019,0,,node/7873450885
5.3222442,Yopougon Kowëit,-4.0544339,0,,node/7873450886
5.3282385,Carrefour sapeur-pompier,-4.0609684,0,,node/7873450985
5.3408149,Banque BHCI,-4.0730457,0,,node/7875553955
5.3408336,Carrefour marché de Selmer,-4.0680018,0,,node/7875553956
5.3408149,Complexe,-4.0631363,0,,node/7875553957
5.337894,Carrefour Lama Fofana,-4.0550119,0,,node/7875553958
5.3407428,Coopec Selmer,-4.0667083,0,,node/7875553959
5.3407328,Banque BHCI,-4.0730511,0,,node/7875553960
5.3408163,Espace Karamel,-4.065966,0,,node/7875631029
5.340859,Petit Prix,-4.059066,0,,node/7875631030
5.337896,Carrefour Lama Fofana,-4.0551084,0,,node/7875631031
5.3407215,Carrefour marché de Selmer,-4.0677845,0,,node/7875631032
5.339007,Picasso,-4.0622002,0,,node/7876023212
5.3331731,Clinique les Oliviers,-4.0622297,0,,node/7876023213
5.3312476,Eco Prix,-4.0620419,0,,node/7876023214
5.3286918,Carrefour sapeur-pompier,-4.0609691,0,,node/7876023215
5.3286464,Carrefour sapeur-pompier,-4.0610589,0,,node/7876023216
5.3312062,Poisson d’Afrique,-4.062219,0,,node/7876023217
5.3386518,Pharmacie Nouveau Quartier,-4.0623558,0,,node/7876023218
5.325454,Rond-point du Palais de justice,-4.0769248,0,,node/7876057936
5.3260553,Mosquée,-4.0739022,0,,node/7876057937
5.3264284,Snedai,-4.0599383,0,,node/7876057940
5.3251856,Rond-point du Palais de justice,-4.0770448,0,,node/7876057941
5.3282084,Pharmacie Nankoko,-4.0632087,0,,node/7876367204
5.332464,Carrefour Asanvon,-4.0670992,0,,node/7876367205
5.3321289,Saguidiba,-4.073153,0,,node/7876367206
5.3322464,Saguidiba,-4.0731516,0,,node/7876367208
5.3324186,Carrefour Lonaci,-4.0686053,0,,node/7876367209
5.3321916,Harmonie,-4.0654081,0,,node/7876367210
5.3236844,Carrefour Gandhi,-4.0603106,0,,node/7876448804
5.3098276,carrefour Santé Village,-4.0439826,0,,node/7876448805
5.3113566,Abobo Doumé Bateau-bus,-4.0359709,0,,node/7876448806
5.3113192,Abobo Doumé Bateau-bus,-4.0358596,0,,node/7876448807
5.3078112,Marché Abobo Doumé,-4.0384948,0,,node/7876448808
5.3782458,"Gare de Woro Woro, Deux Plateau - Vallon",-4.006315,0,,node/7876565391
5.3850112,Aghien,-3.9903492,0,,node/7876565392
5.3852742,Espace Opera,-3.9927494,0,,node/7876565393
5.3849912,Termunis Pont Soro,-3.9830348,0,,node/7876565394
5.3909614,Restaurant Rehobaoth,-3.9864593,0,,node/7876565395
5.3566645,Sable,-4.0663335,0,,node/7876580785
5.3466294,Carrefour Pitch,-4.0604427,0,,node/7876580786
5.3483532,Station Total Bel Air,-4.0634353,0,,node/7876580787
5.3564098,Sable,-4.0665004,0,,node/7876580788
5.346561,Carrefour Centre Medical Saint Sauveur,-4.0593634,0,,node/7876580885
5.3409057,Mossikro,-4.0467218,0,,node/7876580985
5.3842087,Salon de beauté,-3.9944972,0,,node/7876590801
5.3806037,Cascades,-3.9854421,0,,node/7876590802
5.3805984,Cascades,-3.9853267,0,,node/7876590804
5.3852295,Espace Opera,-3.9927699,0,,node/7876590805
5.3807853,Station Service Total Las Palmas,-3.9950672,0,,node/7876590806
5.3799935,Lavage Professionel,-3.9962286,0,,node/7876590807
5.378183,Gare Warren Zoo,-4.0061947,0,,node/7876590808
5.3519124,Afriquia,-4.0633616,0,,node/7876632885
5.3474352,Carrefour Gecos-Formation,-4.057112,0,,node/7876632886
5.3482564,Millionnaire Antenne,-4.0504588,0,,node/7876632887
5.3467262,Bel Air,-4.0629204,0,,node/7876632985
5.3467182,Carrefour Pitch,-4.060438,0,,node/7876633085
5.3473044,Carrefour Gecos-Formation,-4.0570879,0,,node/7876633086
5.3481897,Millionnaire Antenne,-4.0505487,0,,node/7876633185
5.3788893,Carrefour Gadji,-3.9992072,0,,node/7876641853
5.3845559,Station Service Shell,-3.9874028,0,,node/7876641854
5.3838522,Organisation Mondiale de la Santé,-3.9931373,0,,node/7876641855
5.3308723,Carrefour CFOMIS,-4.063784,0,,node/7878290488
5.3323445,Carrefour Lonaci,-4.0686475,0,,node/7878315786
5.3322643,Carrefour Sicogi 10,-4.0724613,0,,node/7878317585
5.332416,Canaan,-4.0662792,0,,node/7878317586
5.3295183,Carrefour Marché,-4.0635265,0,,node/7878317785
5.3321769,Saint Mathias,-4.0704614,0,,node/7878317885
5.3251045,Carrefour Saint Laurent,-4.0699256,0,,node/7878348685
5.3250637,Carrefour Saint Laurent,-4.0707015,0,,node/7878348686
5.3236683,Garage,-4.0642983,0,,node/7878348885
5.3259751,Carrefour Sebgé,-4.0491828,0,,node/7878384486
5.3268664,La Référence,-4.0500927,0,,node/7878395385
5.3300959,Immeuble Elite,-4.0467238,0,,node/7878395585
5.3276162,Ciollège OSCAD,-4.0471885,0,,node/7878395586
5.3221311,Carrefour Koweit,-4.0540623,0,,node/7878395785
5.3235689,Boulagerie Blé Doré,-4.056587,0,,node/7878542186
5.3233512,Carrefour Cité El Shaddai,-4.0562242,0,,node/7878542187
5.3254203,Carrefour Saint Laurent,-4.0701476,0,,node/7881213785
5.3284541,Garage,-4.0694314,0,,node/7881213885
5.3288574,Carrefour Kouté,-4.0692852,0,,node/7881213886
5.3408023,Clinique du Lavage,-4.0722685,0,,node/7881343885
5.3406921,Complexe,-4.0625569,0,,node/7881343886
5.3408243,Complexe,-4.0625777,0,,node/7881343985
5.3407308,Station Total,-4.0642869,0,,node/7881344086
5.3466333,Keneya,-4.0736738,0,,node/7881452485
5.3476298,Garage,-4.0759399,0,,node/7881452486
5.3553044,Nouveau Goudron,-4.0793105,0,,node/7881452487
5.3553026,Nouveau Goudron,-4.0793834,0,,node/7881452686
5.3535344,Pharmacie de l'Amitié,-4.0793096,0,,node/7881452786
5.3521277,CDCI,-4.0792825,0,,node/7881452787
5.3466974,Keneya,-4.0738378,0,,node/7881452788
5.3619334,Gare CTE,-4.0667988,0,,node/7881639185
5.3687764,Pharmacie La Délivrance,-4.0794294,0,,node/7881639186
5.3707562,Slot,-4.0759019,0,,node/7881639187
5.3649484,Carrefour Harriste,-4.068142,0,,node/7881639285
5.3664905,Carrefour Marché,-4.0709361,0,,node/7881639385
5.3664498,Carrefour Marché,-4.0711594,0,,node/7881639485
5.3690143,Zone Industrielle,-4.0801185,0,,node/7881639585
5.3648622,Gare Carrefour Deux Plateaux,-4.0156022,0,,node/7884163082
5.3684306,Espace Service Moov,-4.0041485,0,,node/7884163083
5.3618046,Vallon,-3.9899864,0,,node/7884163084
5.363501,Pharmacie du Vallon,-3.9898664,0,,node/7884215686
5.3634943,École International Claire Fontaine,-3.9916286,0,,node/7884215687
5.3623954,ENA,-3.9967865,0,,node/7884215688
5.3648656,Gare Carrefour Deux Plateaux,-4.0155056,0,,node/7884215689
5.3655098,Pressing Grâce,-4.0134859,0,,node/7884296055
5.370342,École PMU,-3.9999213,0,,node/7884296056
5.3731206,École Blanche Neige,-3.9999401,0,,node/7884296057
5.3743827,Pizzaria,-3.995436,0,,node/7884296058
5.3739558,Commissariat du 12è,-3.9920966,0,,node/7884296059
5.3739931,Carrefour Rue du commissariat du 12è,-3.9951865,0,,node/7884296060
5.3738963,Commissariat du 12è,-3.992104,0,,node/7884296061
5.3748443,Boulangerie le Roi du Pain,-3.9981464,0,,node/7884296062
5.3541756,Adjamé Liberté,-4.0164605,0,,node/7884343660
5.3483299,Somafix,-4.0189844,0,,node/7884343661
5.3465433,Adjamé Liberté,-4.022584,0,,node/7884343662
5.346594,Saint Michel,-4.0225464,0,,node/7884343663
5.3542023,Adjamé Liberté,-4.0165651,0,,node/7884343665
5.380778,Mobilia,-3.9942377,0,,node/7884348009
5.3552719,Carrefour CHU,-4.0889686,0,,node/7884438888
5.3553373,Carrefour Marché,-4.0865962,0,,node/7884438889
5.3559989,Sable,-4.0670034,0,,node/7884438890
5.3558474,Bon Prix,-4.0701073,0,,node/7884438891
5.3558046,Gabriel Gare,-4.0714934,0,,node/7884438892
5.3556257,Marché Siporex,-4.0761239,0,,node/7884438893
5.3554922,Carrefour Marché Siporex,-4.0792564,0,,node/7884438894
5.3553086,Carrefour Zone,-4.0851887,0,,node/7884438895
5.3551898,Carrefour CHU,-4.088968,0,,node/7884438897
5.4147571,Petit Carrefour,-4.0287128,0,,node/7884491886
5.4149794,Derrière Rail,-4.0332518,0,,node/7884491887
5.425723,Abobo Gendarmerie,-4.0210149,0,,node/7884492185
5.4146569,Carrefour 21ème,-4.0240257,0,,node/7884492285
5.4151109,Derrière Rail,-4.0332719,0,,node/7884492286
5.4257877,Abobo Gendarmerie,-4.0211282,0,,node/7884492385
5.3645077,Après le Pont,-4.0827928,0,,node/7884545387
5.3556551,Carrefour Zone,-4.084834,0,,node/7884545388
5.3700409,Zone Industrielle,-4.0821934,0,,node/7884552460
5.377721,Carrefour Gargill,-4.0963514,0,,node/7884552461
5.3778172,Micao,-4.0963072,0,,node/7884552462
5.3469626,Au Mouton,-4.0857071,0,,node/7884616329
5.3469666,Carrefour Koudous,-4.0873016,0,,node/7884616330
5.3549795,Carrefour CHU,-4.0892825,0,,node/7884616331
5.3549741,Carrefour CHU,-4.0891524,0,,node/7884616333
5.347028,Au Mouton,-4.0857513,0,,node/7884616334
5.3479239,Au feu du Phoenix,-4.0789492,0,,node/7884616335
5.4239373,Abobo Marché,-4.0152481,0,,node/7884632289
5.4235888,Mosquée Ado Kenedy,-3.9979184,0,,node/7884635486
5.4235007,Carrefour 14ème,-4.0143898,0,,node/7884635587
5.4225454,Carrefour Express,-4.0028007,0,,node/7884635588
5.4236816,Mosquée Ado Kenedy,-3.9978822,0,,node/7884640186
5.3556885,Gabriel Gare,-4.0715349,0,,node/7884683655
5.3439422,Mairie de Yopougon,-4.0678959,0,,node/7884683656
5.3484554,Église pentecote,-4.0679267,0,,node/7884683657
5.3509817,Groupe scolaire etran,-4.0704668,0,,node/7884683658
5.3542063,Lavage Auto,-4.071596,0,,node/7884683659
5.3556885,Gabriel Gare,-4.0716007,0,,node/7884683661
5.3504389,Collège Moderne Amadou Hampaté Ba,-4.0678,0,,node/7884683662
5.3439355,Mairie de Yopougon,-4.0677913,0,,node/7884683663
5.34659,Bel Air,-4.0638658,0,,node/7884688605
5.34751,Restaurant Wamh,-4.0678865,0,,node/7884688606
5.3510738,Supermarché,-4.07068,0,,node/7884688607
5.3467222,Bel Air,-4.0639651,0,,node/7884688610
5.42369,Abobo Marché,-4.0155796,0,,node/7884719686
5.4237584,Abobo Marché,-4.01568,0,,node/7884719785
5.4184273,Carrefour Kennedy,-4.0060213,0,,node/7884719885
5.3958635,Marché du Dokui,-4.0009902,0,,node/7884720085
5.3958201,Marché du Dokui,-4.0014119,0,,node/7884720185
5.396511,Rond Point,-4.002914,0,,node/7884720285
5.3479787,Parc auto,-4.0953496,0,,node/7884722630
5.3489601,Pharmacie Bethesda,-4.0953469,0,,node/7884722631
5.3473431,Coopec Ananeraie,-4.0953362,0,,node/7884722632
5.3505023,Supermarché Nasr,-4.095304,0,,node/7884722633
5.35489,Station Total Ananeraie,-4.0953362,0,,node/7884722634
5.3548806,Station Total Ananeraie,-4.0952021,0,,node/7884722635
5.3473384,Coopec Ananeraie,-4.0952309,0,,node/7884722637
5.4354484,Plaque 1,-4.0067402,0,,node/7884794185
5.4240728,Abobo Marché,-4.0153943,0,,node/7884794285
5.4237948,Abobo Marché,-4.0151221,0,,node/7884829885
5.4877199,Carrefour Perception,-4.0515527,0,,node/7885028586
5.4961561,Au marché,-4.0516723,0,,node/7885028587
5.5011979,Carrefour Terrain,-4.0521667,0,,node/7885028588
5.5128381,Carrefour Garage,-4.0597819,0,,node/7885028589
5.486412,Carrefour Sylla,-4.0513673,0,,node/7885028590
5.4835085,Policier,-4.0513001,0,,node/7885028591
5.4986063,Carrefour Maternité,-4.0512827,0,,node/7885028987
5.4871743,Carrefour Garage,-4.051409,0,,node/7885028988
5.5133877,Carrefour Garage,-4.0596771,0,,node/7885073685
5.4618976,Ancienne Gendarmerie,-4.0537521,0,,node/7885074885
5.3478318,Au feu du Phoenix,-4.0789533,0,,node/7887860476
5.3469572,Coopec Ananeraie,-4.0952142,0,,node/7887860477
5.3470373,Coopec Ananeraie,-4.0952235,0,,node/7887860478
5.3470439,Carrefour Niangon,-4.089347,0,,node/7887860479
5.346606,Clinique Chinoise,-4.0675552,0,,node/7887876462
5.3465887,Espace Open,-4.070503,0,,node/7887876463
5.346606,Pharmacie Keneya,-4.0729371,0,,node/7887876464
5.3467062,Pharmacie Keneya,-4.072925,0,,node/7887876466
5.3466221,Bel Air,-4.0625837,0,,node/7888055021
5.3273859,Pharmacie du Cinéma Boissy,-4.0506479,0,,node/7888087745
5.3288267,Carrefour sapeur-pompier,-4.0606271,0,,node/7888087746
5.3205156,Station Service Shell,-4.0439746,0,,node/7888129900
5.4827269,Carrefour Cissé,-4.0513681,0,,node/7888143686
5.4809714,Gare d'Anyama,-4.0529385,0,,node/7888143986
5.4871256,Carrefour Garage,-4.0515089,0,,node/7888144686
5.5066317,Mairie d'Anyama,-4.0535554,0,,node/7888144687
5.4961498,Au marché,-4.0515786,0,,node/7888144688
5.4878197,Carrefour Perception,-4.0514177,0,,node/7888144689
5.4864074,Carrefour Sylla,-4.0514774,0,,node/7888144786
5.4835065,Policier,-4.0513936,0,,node/7888144885
5.4890099,Poteau,-4.0515874,0,,node/7888144985
5.4952481,La Poste,-4.0517798,0,,node/7888144986
5.4983565,Carrefour Maternité,-4.0514003,0,,node/7888144987
5.4807017,Gare d'Anyama,-4.0530103,0,,node/7888144989
5.507161,Mairie d'Anyama,-4.0538237,0,,node/7888145085
5.5004937,Ecole Plateau,-4.0517811,0,,node/7888145285
5.3552725,Sable,-4.0656804,0,,node/7888148152
5.4410755,Carrefour Bassolé,-4.0086811,0,,node/7888217787
5.4429356,Houphouet Boigny,-4.0088395,0,,node/7888218088
5.4386075,4 Etages,-4.0078209,0,,node/7888218089
5.438703,Plaque 2,-4.0058866,0,,node/7888218090
5.4354247,Plaque 1,-4.0066666,0,,node/7888218686
5.3409859,Mossikro,-4.0463497,0,,node/7888223366
5.3318912,Collège privé Oscad,-4.0408096,0,,node/7888223367
5.3159421,Formation Sanitaire Urbaine d' Abobodoumé-Locodjro,-4.035484,0,,node/7888223368
5.3095539,carrefour Santé Village,-4.0440953,0,,node/7888223369
5.30964,carrefour Santé Village,-4.043982,0,,node/7888223370
5.3159381,Formation Sanitaire Urbaine d' Abobodoumé-Locodjro,-4.0355726,0,,node/7888223371
5.3251706,Foyer Des Jeunes De Locodjro,-4.0372288,0,,node/7888223372
5.3409071,Mossikro,-4.046347,0,,node/7888223373
5.4429873,Houphouet Boigny,-4.0087401,0,,node/7888224385
5.4276392,Au Lycée,-4.0145706,0,,node/7888224485
5.4259072,Gendarmerie Bandji,-4.0205985,0,,node/7888269186
5.4437109,BC Carrefour Niamkey,-4.0267102,0,,node/7888269187
5.443612,BC Carrefour Niamkey,-4.0266325,0,,node/7888284985
5.4259967,Abobo Gendarmerie,-4.0197636,0,,node/7888285085
5.441069,Gros Pneu,-4.0204892,0,,node/7888312787
5.4458966,BC (Belle Cité),-4.0206387,0,,node/7888315788
5.4271989,Abobo Gendarmerie,-4.0200077,0,,node/7888321685
5.4351095,Lavage,-4.0119393,0,,node/7888340985
5.4355545,Habitat Grâce,-4.0028133,0,,node/7888340986
5.4353675,Boulangerie,-4.0072833,0,,node/7888341085
5.4353009,Boulangerie,-4.0072159,0,,node/7888341086
5.4352314,Pharmacie,-4.0088454,0,,node/7888341087
5.435444,Habitat Grâce,-4.0027991,0,,node/7888341185
5.4353169,Plaque 1,-4.0067215,0,,node/7888341285
5.4261747,Abobo Marché,-4.0146574,0,,node/7888341685
5.4234646,Pharmacie Clotcha,-4.0028452,0,,node/7888460985
5.4249678,Abobo Baoulé,-3.9902323,0,,node/7888460986
5.420603,Commissariat,-3.9905722,0,,node/7888460988
5.4211595,Abobo Baoulé,-3.9905211,0,,node/7888461085
5.4201316,Abobo Gare Mairie,-4.016639,0,,node/7888461185
5.4265617,Abobo Gendarmerie,-4.01992,0,,node/7891132286
5.4349889,Camp Commando,-4.0186305,0,,node/7891134485
5.4382139,Complexe sportif d’Abobo,-4.0162955,0,,node/7891134585
5.4381206,Avenue Kaza,-4.0189253,0,,node/7891134586
5.417609,Carrefour Diamant,-3.9911906,0,,node/7891172191
5.4211662,Abobo Baoulé,-3.9905884,0,,node/7891177185
5.4154309,Samaké,-4.0060163,0,,node/7891177186
5.4150778,Derrière Rail,-4.0334339,0,,node/7891432685
5.4017155,SGBCI,-4.0064494,0,,node/7891521786
5.4106591,Menuiserie,-4.006392,0,,node/7891521787
5.4155205,Samaké,-4.006376,0,,node/7891521788
5.3987447,Carrefour Policier,-4.0065442,0,,node/7891523887
5.4184893,Carrefour Kennedy,-4.0060904,0,,node/7891523888
5.3998315,Mobil,-4.0065976,0,,node/7891527285
5.40722,1ere Boutique,-4.0064467,0,,node/7891527286
5.427052,Au Lycée,-4.0146076,0,,node/7891527385
5.4200004,34eme,-3.9907569,0,,node/7894268185
5.4401007,Defao,-3.9850842,0,,node/7894268186
5.4415198,Carrefour Mosquée,-3.9832038,0,,node/7894269685
5.4251684,Carrefour Paweur,-3.9898671,0,,node/7894269785
5.415268,Samaké,-4.0061692,0,,node/7894269885
5.3552785,Carrefour Marché,-4.0862086,0,,node/7902826896
5.3550115,Station Total Ananeraie,-4.0954489,0,,node/7902826897
5.3547404,Carrefour Ananeraie,-4.1026117,0,,node/7902826898
5.3489187,Bonikro,-4.1048969,0,,node/7902826899
5.337665,À l'école,-4.1141653,0,,node/7902826900
5.3383847,Institut Pasteur,-4.1407728,0,,node/7902826901
5.3409284,Carrefour Église,-4.1665462,0,,node/7902826902
5.339003,Carrefour SAPH,-4.1730425,0,,node/7902826903
5.3187971,Sous Préfecture Songon,-4.201777,0,,node/7902826904
5.3186315,Carrefour École,-4.2127244,0,,node/7902826905
5.3208174,Songon Dagbé Jérusalem,-4.2184228,0,,node/7902826912
5.3212714,Songon Dagbé,-4.2280781,0,,node/7902826913
5.3210565,Carrefour Jacqueville,-4.2309594,0,,node/7902826914
5.3216346,Songon-Thé,-4.2369273,0,,node/7902826915
5.325019,Pharmacie de Songon,-4.2517532,0,,node/7902826916
5.3250798,Pharmacie de Songon,-4.2517667,0,,node/7902826917
5.3254597,Marché de Songon,-4.2494472,0,,node/7902826918
5.3220539,Songon-Thé,-4.2374101,0,,node/7902826919
5.3211266,Carrefour Jacqueville,-4.2312786,0,,node/7902826920
5.3199869,A la Porte,-4.2161576,0,,node/7902826921
5.3187316,Kassamblé,-4.2118272,0,,node/7902826922
5.3193372,Carrefour PFO,-4.2055099,0,,node/7902826923
5.3188972,Sous Préfecture Songon,-4.2016992,0,,node/7902826924
5.3191443,Adiapoto 1,-4.1938645,0,,node/7902826925
5.3315213,Carrefour Gravier,-4.1857803,0,,node/7902826926
5.3379715,Nouveau Goudron,-4.1768271,0,,node/7902826927
5.3418031,Espace Brique,-4.1640061,0,,node/7902826928
5.3375505,Marché Km 17,-4.1269638,0,,node/7902826929
5.3378473,Pharmacie Inox,-4.113126,0,,node/7902826930
5.355344,Sable,-4.0656059,0,,node/7902877638
5.3543072,Siporex,-4.0740039,0,,node/7902959147
5.3354351,Garage,-4.0887111,0,,node/7902959148
5.3293087,Pharmacie Niangon Nord,-4.1025755,0,,node/7902959149
5.3422998,Saint André,-4.074592,0,,node/7902959150
5.3533518,Kabadougou,-4.0741803,0,,node/7902959151
5.3395411,Terminus bus 47,-4.0827969,0,,node/7902973078
5.3354417,Station Pétro Ivoire,-4.0905686,0,,node/7902973079
5.3324273,Carrefour Bouby,-4.0907697,0,,node/7902973080
5.3275715,Église Sainte-Rita,-4.0968141,0,,node/7902973081
5.3551584,CMA,-4.0904137,0,,node/7903002099
5.3584551,Cité Mamie Adjoua,-4.0949889,0,,node/7903002100
5.3670934,Gare Gesco,-4.1019043,0,,node/7903002102
5.3238606,Carrefour Académie,-4.1069488,0,,node/7903535327
5.3237525,Carrefour Chambéry,-4.1093025,0,,node/7903535328
5.3190974,À l'école,-4.1123645,0,,node/7903535329
5.3133727,Yopougon Diop,-4.1114713,0,,node/7903535330
5.3133913,Yopougon Diop,-4.1115095,0,,node/7903535331
5.3145559,Carrefour Bawin,-4.1109541,0,,node/7903535332
5.315156,À l'église,-4.1106179,0,,node/7903535333
5.3156589,Carrefour Diop,-4.1103794,0,,node/7903535334
5.3163336,À l'école,-4.1103451,0,,node/7903535335
5.3239435,Carrefour Académie,-4.1069152,0,,node/7903535336
5.3354818,Mosquée,-4.0732804,0,,node/7903583520
5.3324427,Saguidiba,-4.0733153,0,,node/7903583521
5.2405805,Terre rouge,-3.8997066,0,,node/7966220394
5.245862,Delice Market,-3.8996999,0,,node/7966220395
5.2474903,Marché,-3.8996905,0,,node/7966220396
5.2504925,Lycée Moderne de Gonzague,-3.8997374,0,,node/7966220397
5.2524543,Boulangerie,-3.8997442,0,,node/7966220398
5.2546565,Nouvelle Station,-3.8997737,0,,node/7966220399
5.2635079,Carrefour deux poteaux,-3.8998716,0,,node/7966220400
5.2634625,Carrefour deux poteaux,-3.8997388,0,,node/7966220401
5.2516343,Carrefour Orange Money,-3.8996449,0,,node/7966220402
5.2411174,Terre rouge,-3.8995939,0,,node/7966220403
5.2435573,Groupe Scolaire Saint Syr,-3.8997053,0,,node/7966266330
5.2754921,Benogosso,-3.8907923,0,,node/7966266331
5.2755322,Benogosso,-3.8907386,0,,node/7966266332
5.2644087,Groupe Scolaire Nyl's,-3.8967548,0,,node/7966266333
5.2506621,Lycée Moderne de Gonzague,-3.8996382,0,,node/7966266334
5.367763,Direction de la Sotra,-4.0775263,0,,node/7966272062
5.3618513,Marché 23è,-4.072058,0,,node/7966272063
5.3617999,Marché 23è,-4.0720566,0,,node/7966272064
5.3618025,Prestige,-4.0730209,0,,node/7966272065
5.3642207,La Prudence,-4.0749742,0,,node/7966272066
5.3691143,Zone Industrielle,-4.080232,0,,node/7966272067
5.4262376,Bangui,-4.0710971,0,,node/7966345985
5.4429301,N'Dotré,-4.0695213,0,,node/7966345986
5.4012685,Cité Ado,-4.0842383,0,,node/7966345987
5.3890766,Prison Civile,-4.0783595,0,,node/7966345988
5.443069,N'Dotré,-4.0693992,0,,node/7966346085
5.4304535,Première Porte,-4.0691548,0,,node/7966538189
5.444149,Agripac,-4.0489883,0,,node/7966538190
5.3606195,BAE,-4.0850285,0,,node/7966560585
5.4412441,Clinique,-3.9838059,0,,node/7966666988
5.4439634,Boulangerie,-3.9798044,0,,node/7966666990
5.4431754,Au Kiosque,-3.980906,0,,node/7966666991
5.4287315,Carrefour Colombe,-3.9893585,0,,node/7966666992
5.4155488,Étage Noir,-3.9993821,0,,node/7966688489
5.4264159,Fofana CDCI,-3.9898099,0,,node/7966688490
5.421857,Foyer des Jeunes,-3.9904877,0,,node/7966688694
5.4422167,Carrefour Ecole,-3.9822543,0,,node/7966701585
5.3185506,42,-4.0779495,0,,node/7966767630
5.3148642,Savant 2,-4.0786163,0,,node/7966767631
5.3093083,Beago Wolosso,-4.0748427,0,,node/7966767632
5.309815,Oulaï,-4.0761371,0,,node/7966767633
5.3102972,Ferronnerie,-4.0770377,0,,node/7966767634
5.3109371,Boutique,-4.078598,0,,node/7966767635
5.3092338,Beago Wolosso,-4.0748175,0,,node/7966780488
5.3244106,Palais de justice,-4.0776034,0,,node/7966780489
5.3130809,Garage,-4.0787054,0,,node/7966780597
5.3246952,Palais de justice,-4.0773716,0,,node/7966780701
5.3148688,Savant 2,-4.0787247,0,,node/7966781186
5.3131796,Garage,-4.078575,0,,node/7966786685
5.3102486,Ferronnerie,-4.0769078,0,,node/7966786785
5.3624021,Uniwax,-4.0803775,0,,node/7966865687
5.3221334,Yopougon Kowëit,-4.0542883,0,,node/7966865688
5.3690422,Zone Industrielle,-4.0788151,0,,node/7966877485
5.369169,Zone Industrielle,-4.0789747,0,,node/7966877785
5.2426692,Casier,-3.9159822,0,,node/7966968957
5.258285,Belleville,-3.9157932,0,,node/7966968958
5.2582836,Belleville,-3.9157006,0,,node/7966968959
5.2559108,Boutique Rouge,-3.9157298,0,,node/7966968960
5.2551453,Carrefour Collège Simone Gbagbo,-3.9157301,0,,node/7966968961
5.2546839,Groupe Scolaire Les Caïmans,-3.9157194,0,,node/7966968962
5.2526026,Pharmacie,-3.9157221,0,,node/7966968963
5.2428722,Casier,-3.9158803,0,,node/7966968964
5.3688105,Zone Industrielle,-4.0789687,0,,node/7966993885
5.3672343,Gare Gesco,-4.1021242,0,,node/7966994285
5.3685455,Zone Industrielle,-4.0789305,0,,node/7966994385
5.242325,Mobiobo,-3.9100016,0,,node/7967051296
5.2439269,Garba Choco,-3.9097934,0,,node/7967051297
5.254573,Carrefour Garage,-3.9075792,0,,node/7967051298
5.2545169,Carrefour Garage,-3.9075739,0,,node/7967051299
5.2515141,Carrefour des Écoles,-3.9078759,0,,node/7967051300
5.2484692,Carrefour la Joie,-3.9081824,0,,node/7967051301
5.242319,Mobiobo,-3.9099744,0,,node/7967051302
5.3145387,Yopougon Locodjro,-4.0353996,0,,node/7967074786
5.3166071,Carrefour Jérusalem,-4.0355028,0,,node/7967074787
5.3232924,Boulangerie,-4.0362532,0,,node/7967074788
5.3323392,Jean-Paul 2,-4.0414178,0,,node/7967074789
5.3409358,Garage,-4.0459772,0,,node/7967074790
5.3535013,Attécoubé Garage,-4.0325926,0,,node/7967074791
5.3470039,Cirocco,-4.0452164,0,,node/7967074792
5.3586388,Paharmacie Agban,-4.0305579,0,,node/7967074793
5.3230567,Belle-Montée,-4.035952,0,,node/7967074794
5.3252739,Marché,-4.037112,0,,node/7967074886
5.3145988,Yopougon Locodjro,-4.0352325,0,,node/7967074887
5.3257301,Marché,-4.0371618,0,,node/7967074987
5.3533995,Attécoubé Garage,-4.0330855,0,,node/7967074988
5.3324444,Jean-Paul 2,-4.0414129,0,,node/7967075485
5.2395585,Corridor,-3.8963163,0,,node/7967102342
5.2480366,Boulangerie G&Z,-3.893972,0,,node/7967102343
5.2525518,Ancien terminus,-3.8930386,0,,node/7967102344
5.2554444,Éléphant,-3.8928764,0,,node/7967102345
5.2554444,Terminus Éléphant,-3.8927932,0,,node/7967102346
5.2527127,Ancien terminus,-3.8929763,0,,node/7967102347
5.2518293,Aya Débout,-3.8930554,0,,node/7967102348
5.2484679,Boutique Rouge,-3.8938118,0,,node/7967102349
5.2480245,Boulangerie G&Z,-3.8939117,0,,node/7967102350
5.2395876,Corridor,-3.8963116,0,,node/7967102360
5.2412309,Carrefour Hôpital,-3.8961755,0,,node/7967112827
5.2425677,École,-3.8959569,0,,node/7967112828
5.2439633,Lavage,-3.895749,0,,node/7967112829
5.2528803,A l'Entenne,-3.8882348,0,,node/7967112830
5.2524129,Carrefour Boutique Bleue,-3.8840036,0,,node/7967112831
5.2506888,Boulangerie,-3.8842108,0,,node/7967112832
5.2487904,Collège Abraham,-3.884817,0,,node/7967112833
5.2477307,Connexion,-3.8850966,0,,node/7967112834
5.2462791,Bouquet,-3.8853621,0,,node/7967112835
5.2441984,Ayamonnaie,-3.8903698,0,,node/7967112836
5.249567,Usine,-3.8916757,0,,node/7967175249
5.3591441,Rond-point de Gesco,-4.1007945,0,,node/8010519327
5.3662275,Garage,-4.0881774,0,,node/8010519328
