stop_id,stop_name,stop_lat,stop_lon
AB014T1S7,TELE GERAG,8.99911943987481,38.7584991418296
AB016T1S7,HEBTE GEWRGIS,9.03438775836052,38.7438920668842
AB015T2S2,HABTE GEWRGIS DILDIY,9.03418416442969,38.7436474798672
AB012T2S14,KURTU HNTSA,9.03426476051578,38.7337658645683
AB018T1S14,AUTOBES TERA,9.0337139129277,38.7298453876939
AB018T1S11,KOLFE,9.03704642050264,38.7173854860523
AB018T2S7,MESERET  EDGET,9.02454252872126,38.715061115188
AB018T1S8,HOLAND,9.02130467997692,38.7159316174925
AB018T1S5,TOR HAILOCH,9.01408913298478,38.7206338528125
AB018T1S6,TOR HAILOCH ZORO,9.01393852049421,38.7209171479506
AB018T2S9,KERANIYO DILDIY,9.01944885750013,38.7089435718752
AB018T1S3,MEDHANBIALEM,9.01758061643447,38.7049769838418
AB018T2S11,KOKEBE,9.01806394727912,38.6994931583512
AB018T1S1,KERANIYO,9.01919421037935,38.6960287707999
AB015T2S7,BETE MENGIST,9.02827,38.76927369484
AB015T1S7,ABOARE GEBEYA,9.02812575404625,38.771642720466
AB015T1S6,ABOARE ADEBABAY,9.02726637358416,38.7747298802772
AB015T2S10,YESETOCH ADEBABAY,9.02335102420584,38.777233686848
AB010T2S12,BELGIUM EMBASSY,9.0318686798807,38.7839308556313
AB010T1S8,ENGILSH EMBASSY,9.03111699626263,38.7848977565404
AB010T1S9,ABOLE SUK,9.02877300932813,38.7887324139129
AB010T2S10,SHOLA GEBEYA,9.02506821602058,38.7952916698267
AB010T2S4,COOL HINTSA,9.02604422761157,38.8273123124746
AB010T1S16,AHMED BUILDING,9.02697145955269,38.8299247646919
AB010T2S3,NOC CHAF,9.02745172855318,38.8307560661546
AB010T1S18,ST. MARIAM,9.03319077955228,38.8448198067765
AB010T2S1,KOTEBE,9.03419788473856,38.8467015911633
AB0106T1S5,CIVIL SERVIC,9.02069265983161,38.8539126868618
AB0106T2S7,MERE,9.02070312892574,38.8603569966981
AB0106T1S6,ST .MECAEL,9.02051362323725,38.8608687568193
AB0106T1S7,CMC,9.02112338647872,38.8725941236176
AB0106T1S8,CMC SQUARE,8.9733110233871,38.8902659914842
AB0106T2S4,BOLE ARABSA (4),9.00234832232533,38.8767600211758
AB0106T1S11,AYAT ADEBABAY HULET(2),8.99657346258923,38.8852470830086
AB0106T2S3,BOLE ARABSA(3),8.99632935046202,38.8855314475722
AB0106T2S2,BOLE ARABSA (2),8.98416116488519,38.8851154925685
AB0106T1S15,ST.GEBEREAL,8.96542856771642,38.8849371051102
AB0106T2S1,BOLE ARABSA(1),8.97405260876757,38.8892595541822
AB003T1S2,3 KUTIR MAZORIYA,8.99265515354933,38.7157784625619
AB003T2S12,AYERTENA,8.99435808441446,38.7177779919029
AB003T1S4,TORHAYILOCH,9.00987774052044,38.7206153012042
AB003T2S9,AGUST,9.01192919139767,38.721681401163
AB003T1S5,MLKONANOCH CLUB,9.01128978833732,38.7265404985425
AB003T1S6,COCA,9.01196106907174,38.7290424767922
AB019T1S12,GULELE FANA,9.05823582003974,38.7065446272566
AB003T1S7,HIGHCOURT,9.01159358071255,38.7334310551502
AB004T1S21,DARMAR,9.01578483265906,38.7348128833198
AB019T1S11,AWOLIA,9.05760389628584,38.7116452393352
AB019T1S10,WINGET CHAF,9.05436858391687,38.7149855769146
AB019T2S9,FILANS,9.05288354112288,38.7202229177557
AB019T2S10,MEDHANIALEM (TOTAL),9.05137919131972,38.7220616173617
AB019T1S8,MEDHANIALEM SCHOOL,9.05155107528768,38.7220331182496
AB019T1S7,SAINT PAWLOS HOSPITAL,9.0467098,38.7286279
AB006T2S11,ST.GIYOORGISI CHURCH,9.03639879204725,38.7524096505933
AB003T1S15,BANK DUROMA,9.0320019043352,38.7512370169731
AB021T1S1,FILI DORO,9.03537930839331,38.6853260374116
AB021T2S9,POLICE TABIYA,9.0340620362596,38.6888925606896
AB021T1S3,REALSTATE,9.0328995826845,38.6953643096684
AB021T2S7,COMPRENSIVE,9.03400816540039,38.7045386760904
AB021T2S5,18,9.03356449842898,38.7134129780045
AB009T2S1,BRAS CLINIC,8.99009216578808,38.7937772930492
AB021T1S7,DELDEY,9.01123138811506,38.7377797937413
AB009T2S3,LIYAN CITY HOTEL,9.00427207393814,38.7797584392755
AB022T1S2,FELWEHA,9.01771268826815,38.7572663032484
AB022T1S4,WOMEN SQUARE,9.02344,38.7771737893391
AB022T1S7,YEKA MICHAEL,9.02441471904825,38.7961408217395
AB022T2S9,MANAGEMENT INSTITUTE,9.02037215284225,38.8268655973809
AB009T2S6,ST.GEBREL,9.01990655294544,38.7675768469636
AB022T1S13,TIKUR ABAY,9.02044245784258,38.8518375421583
AB009T2S10,SEBA DERGA,9.03893791640616,38.7568279167629
AB022T2S4,SAFARIE,9.01028939482201,38.8521940201736
AB004T1S4,MAREMIYA,8.91133829432101,38.7638263069246
AB022T1S15,SAINT GEORGIS,8.99552139190825,38.8513198260137
AB004T1S8,ABO JUNCTION,8.94507626381614,38.7663022072891
AB025T2S1,AKAKI KORKORO,8.85976228625611,38.7961695110393
AB025T1S23,02 KEBELE,8.86347950137457,38.7926781268171
AB025T2S4,AKAKI BERETABERET,8.87388182477756,38.7887407830304
AB004T2S11,MAMO POLY NEFSILK TECHNIC,8.97218175257371,38.7608807798172
AB025T1S20,MESHULEKIYA AKAKI,8.87688522826638,38.7866052090545
AB025T1S19,08 ADARASH,8.88443693017111,38.7856036408764
AB004T2S10,GOTERA SHELL,8.97594850825539,38.7599031588682
AB025T2S6,DERARTU,8.88693987065358,38.7818933517437
AB025T1S17,GOJO HOTEL,8.8910829889683,38.7768287431949
AB004T2S9,MEHA PEPSI,8.98228303639139,38.7560864955097
AB004T2S6,BULGARIA,8.99393174987708,38.7478449415781
AB025T1S13,SAINT GEBRAEL,8.91231253437399,38.7633962662959
AB006T2S3,GENET,9.00349753781084,38.7469007422866
AB025T1S10,WEHALEMAT,8.92981952365487,38.7681708113141
AB003T1S10,WABI SHABLE HOTEL,9.01193056683975,38.7467667808373
AB025T2S13,GUMRUCK,8.93808610565643,38.7631371413786
AB006T1S12,BEGTERA,8.99717050723687,38.7475165528213
AB004T1S19,TEGBARRIED,9.01054996107108,38.7432126526538
AB003T1S9,TEGBARIED,9.01032635069917,38.7431706507726
AB007T1S7,TAFO JUNCTION,9.05660761127207,38.879020440504
AB007T2S18,TAFO ADEBABY,9.05706005665796,38.8778804254676
AB001T1S9,KERA CONDMINIUM,9.03602327770805,38.854695518193
AB001T1S10,KERA SAYIDERS,9.03795826803001,38.860594909088
AB017T1S1,KUSKOAM,9.07772562605264,38.7572474721836
AB017T1S2,SANBA NEKRSA,9.07452788955318,38.7590433218285
AB017T1S4,SELASIE,9.06921625411861,38.7607169136764
AB016T1S1,SHEROMEDA,9.06263822302803,38.76127
AB017T1S6,MESKYAZUNA MEDEHNALEM,9.05232513500241,38.7622309495225
AB012T1S8,MEZAN,9.05354140376264,38.7722192165943
AB012T1S12,TENA TABEA,9.0608546,38.7839224
AB014T1S1,ST.YOSAFE SCHOOL,9.03544756397126,38.7522932331115
AB012T1S3,ST.GEWERGIS,9.0386169512501,38.7527559814286
AB010T2S18,ST.MARIAM,9.03637609459305,38.7579258383398
AB014T1S2,TEWODROS,9.02626300378432,38.7516650727106
AB014T2S11,TKUR ANBESA,9.02174780537188,38.7521768495523
AB014T1S5,YOSEF SCHOOL,9.01052877072064,38.7590843442997
AB014T2S9,ST.YOSEF SCHOOL,9.01006232117154,38.7592132001542
AB117T1S4,GEBRIAEL DILDY,8.95558560576116,38.732616422485
AB117T1S12,AFRICAN UNION SQUARE / MIKAEL,8.9989008,38.7395496
AB111T1S3,YOHANES,9.04469977372055,38.7483041879047
AB117T1S13,CIGAR FACTORY,9.00284,38.74122
AB111T1S5,INKULAL FABRICA,9.05124432590464,38.7443315068187
AB121T1S9,MIKAEL SQUALRE,8.96738447849808,38.720863675828
AB111T1S9,FINANCE,9.05307822837041,38.7198642578243
AB117T2S3,AFRICAN UNION SQUARE/MIKAEL,8.9990598,38.7394578
AB121T1S11,JEMO YETEBABERUT,8.96148206016009,38.7152602711465
AB121T1S13,MESTAWET FABRICA,8.95949265349808,38.7084807914325
AB121T1S14,JEMO KUTUR 3,8.95639125451271,38.6992817921608
AB117T2S9,MEKENISA GEBEYOCH,8.96839490533751,38.7313152448362
AB117T2S10,GERMAN SQUARE,8.9657012054961,38.7327428310452
AB121T2SS4,JEMO KUTUR 1,8.9603,38.71201
AB117T2S11,GEBRIAEL,8.95566844114592,38.7325319513089
AB117T2S12,MEBRATE HAILE,8.9469750296637,38.7340522528684
AB121T2S7,MIKAEL SQUARE,8.96683913968838,38.7208102534008
AB104T1S3,GOTERA,8.97637336134396,38.7598013825864
AB104T1S7,SARIS NIGD BANK,8.95272307740368,38.7633489210274
AB104T1S9,WERKU SEFER,8.93317274847967,38.7750993343448
AB105T1S1,ANFO MEDA,9.02199056329918,38.6742786805655
AB105T1S2,ANFO ADEBABAY,9.02101055643806,38.6787425357413
AB105T1S3,MARIAM,9.02315732625747,38.6884510636267
AB105T1S4,YESHI DEBELE,9.01907947376106,38.6957731577269
AB105T1S5,KERANIO,9.01775942874935,38.6999462420149
AB105T1S7,KERANIO MEWCHA,9.0133662065287,38.710143515253
AB105T1S8,TORHAILOCH ADEBABAY,9.0115819043833,38.7220214342507
AB105T1S9,MEKONINOCH,9.01125815581192,38.726499251615
AB105T1S10,COCA CAF,9.01194839405813,38.7292371484842
AB105T1S11,FIRDBET,9.01158420466071,38.7335297999174
AB105T1S13,TEGBARE ED,9.01044830014818,38.7426343385586
AB105T1S15,COMERCE,9.01385518845472,38.7495870250948
AB109T1S2,KALITY MASELTEGNA,8.93238669758526,38.7667220640147
AB109T1S5,KALITY GEBRIEL,8.91246987662162,38.7633386155028
AB109T1S6,CHERALIA FABRICA,8.902923956376,38.7667504673264
AB109T1S7,KALITY MENEHARIA,8.89721586241435,38.7704288017764
AB109T1S9,SELAM HINTSA,8.88320996028743,38.7771700265078
AB109T1S13,GOMISTA (DELDEY),8.87600526178321,38.793224214653
AB109T1S14,ALEM BANK (BELAY AB MOTORS TESHAGRO),8.86751501681899,38.7984348095366
AB109T1S15,TULUDIMTU (INFRONT OF TAF GAS STATION),8.86890690635995,38.8051774661841
AB109T1S17,SELAM SEFER (TAPELA GAR),8.87223142555974,38.8140248494159
AB109T1S18,TULUDIMTU ADEBABY,8.87465126482227,38.8205224509182
AB110T1S1,MAHIBER BETOCH,8.85922551631347,38.8148855695027
AB110T1S2,PROJECT 12 AKABABI,8.86585932671187,38.8218396394682
AB110T1S3,G7,8.870906477739,38.8207017703704
AB110T1S4,TULUDIMTUADEBABAY,8.8756101587013,38.8196271319687
AB110T1S5,ARSEMA,8.87226161409057,38.8136638796766
AB110T1S18,BABUR TABIA,8.93809458360968,38.7631299677241
AB110T1S23,GOTERA DEPO,8.97635627316083,38.7599712933595
AB110T1S25,TEMEJA YAZ (BEKLO BET),8.99418581160743,38.7598117973562
AB110T1S28,ABIOT ADEBABAY,9.01022956806085,38.7592333368628
AB110T1S30,KIRAY BETOCH,9.01976775155688,38.7638713028119
AB110T1S34,ANBESA GIBI (PEPSI),9.04271309587086,38.7615617864526
AB110T1S36,MEKSAYE HIZUNAN MEDHANIALEM,9.05130069512508,38.7621996955676
AB110T1S37,ASEMBLE YESEBSEBA ADARASH,9.05403632741946,38.762545883027
AB067T2S19,JEMMO 3,8.95906496232154,38.7070721378659
AB067T2S18,JEMMO 1,8.96070019553398,38.7129239342962
AB067T2S17,ANDEGNA BER,8.96137807669617,38.715146100741
AB067T2S14,MIKAEL DILDIY,8.96554701803345,38.7275346786709
AB067T210,ABO,8.97859986873666,38.7340130019008
AB068T1S7,BUNA ENA SHAY,9.01058030102655,38.7479400176313
AB068T1S10,HILTONE,9.01924808965746,38.7638802493325
AB068T1S13,5KILO,9.03859958104403,38.7625733649245
AB068T1S16,MINILIK SCHOOL,9.03884647044441,38.7719500358839
AB055T2S3,BONO WEHA,9.05794493077206,38.7791325014068
AB068T2S15,HINTSA COLLEGE,9.01212834148055,38.7293105383805
AB055T1S13,YEHA,9.0607528231968,38.7836222865158
AB055T2S1,GURARA,9.06226811997068,38.7880264545155
AB068T1S12,TEGEBARED,9.01054872108158,38.7431699399585
AB055T2S8,ANBESSA GIBI,9.04082947446083,38.7619509633895
AB068T2S6,MINISTRY OF EDUCATION,9.03193204735334,38.7633551631476
AB069T1S7,NOCK/18 MAZORIA,9.03358393732879,38.7135097448998
AB069T1S6,DEGU HOTEL,9.03380598624601,38.7151599962337
AB069T1S5,CONFE DEAY,9.03734227750861,38.7164574514121
AB069T1S2A,DARSEMA GROSERY,9.03377875542478,38.7294456874929
AB068T2S2,MILINUM SCHOOL,9.04086127492,38.7102525883148
AB069T2S1,PHILIPHES/LOME MEDA,9.04238455411731,38.7052418208412
AB064T1S17,BIRET DILDIY (BONO WUHA),9.05985007707933,38.7811617278251
AB064T1S13,3GNA SHALEKA,9.04700509168935,38.769092858646
AB064T1S11,6KILO (FEDERAL COURT),9.04263265026805,38.7615847236812
AB064T1S7,BELA,9.03249190908601,38.7728384073325
AB064T1S4,BELJIUM EMBASSY,9.03200968615928,38.7838062692891
AB064T2S14,BRITISH EMBASSY,9.02870947942162,38.7887707556477
AB064T2S12,KOKEBE TSEBAH SCHOOL,9.03445367149439,38.7799697782992
AB064T2S9,4KILLO(SELASSIE),9.03208855358455,38.7651986349005
AB064T2S6,6KIL0,9.04411710143158,38.7636458604919
AB070S5,OLD AIRPORT / MOBIL,8.9998644,38.7191124
AB064T2S2,BRET DILDY (BUNO WEHA),9.06000235542597,38.781060709522
AB070T2S10,LIDETA FIRD BET,9.01159975073253,38.7333732114543
AB070T2S11,LIDETA CHURCH,9.01094119860461,38.7386039520254
AB070T2S14,COMMERCE,9.01382417179542,38.7495424079465
AB070T2S15,BHERAWI,9.01591571343512,38.7516127125544
AB070T2S16,FILWUHA,9.01757716810382,38.7571539749737
AB070T2S17,6TH,9.01670123226433,38.7669216025507
AB070T2S19,AZMARI BET,9.01943196516658,38.7706384972932
AB070T2S20,AWARE DILDIY,9.02443283208847,38.7765642925154
AB071T1S20,GERJI MEBRAT HAILE,9.00363899880215,38.8148748938068
AB071T1S17,24,9.00989363330393,38.8005523167509
AB071T2S5,MEGENAGNA / ZEFMESH,9.02033039623807,38.8000097412228
AB071T1S13,DINBERWA HOSPITAL,9.02207986734569,38.7869267867686
AB071T2S10,KAZANCHIS / MELES FOUNDATION,9.02065905254721,38.7715329195129
AB071T2S17,LIDETA CHURCH / BALCHA HOSPITAL,9.01111115554005,38.7385585963823
AB074T1S2,TEKLEHAYMANOT,9.02760974025632,38.7441992241009
AB074T1S3,TIKUR ANBESSA HOSPITAL,9.02107904369545,38.748896668377
AB074T1S5,GHION HOTEL,9.01383304993317,38.7576057525501
AB074T2S14,YEKATIT 12 HOSPITAL,9.04377,38.76171
AB066T1S12,GIRAR,8.98129187271738,38.6894734956594
AB066T1S9,ZENEBEWORK,8.98660506975566,38.7078199680249
AB066T1S3,COCACOLA,9.01589176799775,38.7295230248478
AB066T2S6,COCA COLA,9.01194298797118,38.729299967026
AB066T2S7,LIDETA CONDOMINIAM,9.01329001774769,38.7345500054546
AB067T1S1,JEMO 3,8.95563435666888,38.6985278796696
AB067T1S2,JEMO 1,8.95855542383368,38.7059697537772
AB067T1S13,SARBET ADEBABAY,8.99909537019187,38.739642996254
AB067T1S14,AFRICA UNION,9.0031406898742,38.741425086599
AB067T1S17,SENGA TERA,9.01389035558281,38.7495040300557
AB045T2S3,SEMEN MAZAGAJA,9.05373760440618,38.7425161779285
AB045T2S4,KELMWERK,9.0491538,38.7456381
AB045T1S10,KELEMWERK,9.04881396389385,38.7459953782189
AB038T1S21,YEATIT 12 HOSPITAL,9.04371731378351,38.7593178842891
AB041T1S3,JAN MEDA,9.04712688895229,38.7690353590226
AB039T2S9,SEBA DEREJA,9.03877633793746,38.7568670031077
AB041T2S10,EYESUS,9.06498142762893,38.7715070986826
AB041T2S9,HAMLE 19,9.05855177440412,38.7680961330742
AB047T1S1,SHEGOLE,9.0643783514589,38.7205861170298
AB047T2S8,SHEGOLE BANK,9.05410394322615,38.7200352113559
AB047T1S3,FINAS,9.05147994674682,38.7221638498536
AB041T1S10,HABTEGIORGIS DILDIY,9.03525,38.749128
AB039T2S10,ARADA,9.03281653282291,38.7505966073587
AB045T2S8,TEDROS SQUARE,9.02634745171414,38.7517801492347
AB038T1S12,AWASH BANK,9.01197926959198,38.7468356910151
AB038T1S9,HOTEL AND TOURISM,8.99524757912602,38.7477902793424
AB038T1S5,GFK BUILDING,8.97537588779843,38.7452570634005
AB038T1S4,GOFA CAMP,8.97139910794224,38.7417089447338
AB049T2S1,AYAT CHEFE CONDOMINIUM,9.01138834085528,38.8946257565806
AB049T2S4,POLICE TABIA,9.01707051922229,38.8946012319517
AB049T2S6,TSEBEL,9.02225378182741,38.8912088729424
AB049T1S17,BONO MESKID,9.02190630240805,38.8902929874775
AB049T1S16,FERES BET,9.02169806494173,38.8862577364861
AB049T1S14,AYAT SQUARE,9.02124611086806,38.8767674925414
AB049T2S14,ST. MICHEAL CHURCH,9.02152136608593,38.8425032435261
AB049T1S3,CENTURY MALL,9.01971228617525,38.8132812085323
AB048T1S1,BOLE MIKAEL,8.98162834269778,38.7772166904975
AB048T1S2,BOLE DILDIY,8.98700267201099,38.791198471089
AB039T1S9,ZENEBEWERK HOTEL,9.01939486164123,38.7680428179853
AB045T1S16,DILBER,9.07109699053488,38.7374295924148
AB030T1S2,KAJIMA,9.17425522193374,38.7564097892096
AB030T1S3,NEW INTERNATRONAL,9.16675168501267,38.7547095818351
AB030T1S4,ASHEWA,9.14490292411494,38.7538623574056
AB030T1S5,ABO GABRIEL,9.13413820801823,38.7524490502985
AB030T1S7,SHEFUNEA,9.1273185930064,38.7395160489696
AB030T1S8,KENENISA,9.1179461348722,38.7304478020184
AB030T1S10,CLASI WEHA,9.10954094500205,38.7147017204233
AB028T2S14,SANSUSI CHAF,9.06658058282939,38.69044
AB028T1S4,BERCHIKO,9.0593635063099,38.7034084432115
AB028T1S10,GIRUM HOSPITAL,9.04626474966603,38.7199873914036
AB028T2S4,WOREDA 7 TECHNIC SCHOOL,9.04089813116929,38.7212818761297
AB029T2S17,KEBELE 11,9.02474450587982,38.7457885915224
AB031T1S3,KASANCHIS,9.01963789034631,38.763856229356
AB029T2S15,GOMA QUTEBA,9.01759,38.74642
AB031T1S7,YEKATIT 12,9.04276858100302,38.7615458230251
AB029T1S6,TEMENJAYAZH,8.99534,38.75964
AB031T1S10,SEBSEBA MAEKEL,9.0541525921882,38.7625586647474
AB029T2S1,SAINT GEBRAEL / 29 MAZORIA,8.95557491205339,38.7743815832278
AB032T2S3,MENEHARIA,9.01669454845219,38.7669539551752
AB032T2S5,ABISINIA,9.01946306982471,38.7706388906259
AB032T2S12,RADISON BLUE,9.0213304024356,38.8110664146652
AB033T1S1,YABEM HOTEL,9.03575972921787,38.8533877099383
AB033T1S2,WOSEN,9.03320823862184,38.8445905953804
AB033T1S3,AKIM GENBATA,9.03043330871576,38.8385788077642
AB033T1S4,HILL SIDE,9.02841570627208,38.8333598944277
AB033T1S5,HANA MARIAM METATEFIA,9.02598819182059,38.8271217801418
AB033T1S8,ABISINIA CAFE,9.02152771920034,38.8100409243125
AB033T1S16,ADDIS VIEW HOTEL,9.03247734807051,38.7730531215774
AB098T1S11,CHERALIA,8.90294538764503,38.7668314073413
AB098T1S12,GEBRAEL,8.91116877303832,38.7638892011908
AB098T1S15,GUMRUK,8.93801082178955,38.7632008431012
AB098T1S9,GELAN CONDOMINIUM,8.88575,38.78383
AB099T1S3,GERAR,8.97938839458383,38.6851967891677
AB099T2S1,ALEM GENA,8.92299457456549,38.6526518618482
AB099T2S6,SELASSIE MEWCHA,8.94967,38.67018
AB100T1S2,NISIR MASELTEGNA,8.96667451781659,38.7207237950468
AB100T1S4,GEBRE KIRSTOS,8.97734,38.72201
AB100T1S6,BISRATE GEBRAEL,8.98844937452472,38.722930560917
AB100T1S8,AUSTRIA EMBASSY,8.99393382564822,38.7278650605186
AB100T1S10,LIDETA TSEBEL,9.00417,38.73382
AB100T1S11,FIRD BET,9.01089128739232,38.7341403583886
AB100T1S13,ABNET,9.02142906736258,38.7334807397341
AB100T2S4,DESSIE HOTEL,9.00931,38.73382
AB100T2S6,MECHARE,8.99365653026526,38.7275039784515
AB100T2S11,SHEGED HOTEL,8.97337237670871,38.7246217636325
AB101T1S14,TAFO MEBRAT HAIL,9.04277867554892,38.8778262263491
AB101T1S12,KESTE DEMENA,9.03042939031871,38.87797
AB101T2S10,AYAT ZONE 2,9.02105553251221,38.8678248632491
AB101T2S9,AYAT TRAIN STATION,9.02131338763109,38.8719809773597
AB102T2S3,FILWEHA,9.01756729151364,38.7570585419623
AB102T2S4,KAZZANCHIS,9.01663985776641,38.770228597127
AB102T2S8,DENBERUA,9.02213831969339,38.7866963011498
AB102T2S13,MENAHERIA,9.0238807843491,38.8192387591065
AB097T1S14,TAFO GEBRAEL,9.03814,38.87777
AB097T1S16,TAFO CONDOMINIUM 2,9.04664,38.87789
AB097T1S17,TAFO CONDOMINIUM 1,9.05052,38.87795
AB097T1S20,MAKEFAFEYA,9.06307015217557,38.8841616836284
AB097T1S21,GARI TERA,9.06705690311408,38.8891990523973
AB097T1S22,CCD,9.07070435322129,38.8938021685803
AB097T1S23,140,9.07183,38.89522
AB097T1S27,TAFO MISSION SCHOOL,9.08221286136165,38.9082878577523
AB088T2S33,PHARMACY,9.03432553915338,38.7434139537893
AB088T1S2,S.T GIORGIS,9.03867,38.75175
AB088T2S29,SHALA PARK,9.04888,38.74582
AB088T2S24,DIL BER,9.07166561137445,38.7377285371216
AB088T1S9,ENTOTO KELA,9.08437032565601,38.7229996743457
AB088T1S11,WESERBI REALESTATE,9.10512062579164,38.7095239017795
AB088T1S12,MEDRET HOTEL,9.11006484175716,38.7158204443282
AB088T1S14,KBUREA,9.11760965250739,38.7300957898286
AB088T1S15,SHEFINE,9.12779701849589,38.7397675748615
AB088T2S14,DORO ERBATA,9.13392757032812,38.7522534581452
AB088T2S13,TULU FATI,9.14083212036649,38.7549356890192
AB088T1S11,TABYA HOTEL,9.15600338912621,38.7542471544878
AB088T2S10,DERE HOTEL,9.16677812007134,38.7547107374684
AB088T1S22,SELARE,9.17919256989845,38.7579602180005
AB089T2S31,RAS MEKONIN DILDIY,9.03890808987981,38.7568336481747
AB089T2S30,KIDST MARYAM METATEFYA,9.03635363968017,38.7579466300194
AB089T2S19,WESEN MICHAEL,9.03044,38.8386
AB089T2S17,KARA CONDOMINIUM,9.03608878964863,38.854525115147
AB089T2S14,YEKA ABADO MEGENTEYA,9.05697819857648,38.8736818268349
AB089T2S13,TAFO ADEBABAY,9.05706,38.877910122981
AB089T1S12,ABA KIROS,9.06068619276634,38.88128642877
AB089T2S9,MISSION LEGEDADI,9.08179131105588,38.9075406028774
AB089T2S8,MNS,9.08890730486097,38.9167509572879
AB089T1S18,LEGEDADI,9.08800990210473,38.9273399347357
AB089T1S20,44 MAZORIA,9.09528670517517,38.9508253941732
AB089T1S21,LEGEBERI,9.10055833493528,38.9693697042548
AB089T1S22,EJERE,9.10470021761055,38.9841458577815
AB089T1S23,DIRE MAZORIYA,9.11074001649219,38.9861821307198
AB091S23,KIDA HOTEL,8.90731,38.61612
AB091T1S22,SEBETA,8.91142,38.62212
AB091T1S18,MAMA,8.92137960756125,38.6466066576387
AB091T1S16,UBEDI ACADAMI,8.92442414092964,38.6548186909404
AB091T1S15,TABELEW,8.92749,38.65901
AB091T1S12,WELETE MARYAM,8.96118,38.67132
AB091T1S5,3 KUTR MAZORIA,8.99265459684129,38.7157487115562
AB094S15,MIKILI LAND,9.05134,38.69879
AB094T2S2,BERCHEKO CONDOMINIUM,9.05867,38.70076
AB094T2S4,AWELIA,9.0578,38.70673
AB094T2S6,WINGET ADEBABAY,9.05717469870037,38.7136941866877
AB094T1S14,4 MENTA ADEBABAY,9.05205778298526,38.7088724206919
AB094T1S13,4 MENTA SEFER,9.05253,38.71156
AB094T2S7,KEBT BERET,9.06916,38.71822
AB094T2S12,SEMEN MAZEGAGA,9.05281,38.74315
AB094T2S13,SEMEN HOTEL,9.04350253391258,38.7489974803664
AB095T2S18,18 MAZORIA,9.03356726272325,38.7134516781256
AB090T2S14,GOLF CLUB,9.01132247173266,38.726583474888
AB090T1S5,TEGBARED TVET,9.01059,38.7429
AB092T1S1,HANA MARYAM,8.92704,38.7419
AB092T1S5,GEBRAEL DILDIY,8.95547361707963,38.7326102009489
AB092T213,GEBRIAEL DILDIY,8.95559379648128,38.7325271664411
AB092T2S12,GERMAN DILDIY,8.96160105500975,38.732866233865
AB092T1S8,MEKANISA SCHOOL,8.97903340045547,38.7341813601822
AB092T2S5,MICHEAL,8.99914424856744,38.7394738131956
AB092T1S13,POPOLARE,9.00531263663889,38.7423655292743
AB097T2S6,TAFO SQUARE,9.05561155794413,38.8778130329515
AB090T2S10,DILDIY,8.9997130952353,38.7191054092261
AB097T2S9,MEBRAT HAIL,9.04258,38.87743
AB090T1S4,SHEBELE HOTEL,9.01281179152315,38.7479123928047
AB095T2S16,FELI DORO,9.03428706541137,38.6875266293356
AB123T1S,ABISSNIA,9.02135405965884,38.8108556503376
AB123T1S4,HANA MARIAM,9.0258413906842,38.8270141720447
AB123T1SS7,WOSONE,9.03321325380873,38.8448670308861
AB123T1S9,KARA CHORE SEFER,9.03780382423314,38.8602561305404
AB123T1S11A,KARA CONDOMINUM,9.05016953953365,38.8705146131912
AB123T1S12,SARA AMIPULLI,9.05801096393021,38.874241912077
AB123T1S13,YEKA ABADO CONDOMINUM,9.06898387990505,38.8757918398718
AB123T12S2,MESKELEGNA ABABDO,9.0630763743506,38.8732665380766
AB123T12S3,SARA AMIPULLLI FABRICA,9.05717426702573,38.8737897843412
AB123T2S5,MEDHANALEM CHURCH,9.0401464522334,38.8640295267811
AB012T2S13,GOGAM BERENDA,9.03442,38.73797
AB123T2S9,HILLSIDE,9.0284875023204,38.8333029769853
ABR001S1,አንበሳ ጋራዥ/Anbessa Garage,9.00724543983062,38.8055315001751
ABR002S2,መብራት ሃይል ኮዶሚኒየም/ Mebrathaile Condominum,9.00499446366462,38.8097742192029
ABR001S3,አለማየሁ ሕንፃ / Alemayehu Bldg.,8.99933443772346,38.8209353788708
ABR001S4,ጎሮ ጉሊት / Goro Gulit,8.99756923932293,38.8227078998567
ABR001S5,ጎሮ 2ኛ ደረጃ ት/ቤት /  Goro School,8.99424388939022,38.8263813322143
ABR001S6,ጎሮ መስጊድ / Goro Mosque,8.9916641678121,38.8288611008121
ABR002S1,እስራኤል ኢምባሲ / Israel Embassy,9.02095715769866,38.8054295911948
ABR002S2,ኤልፎራ / Elfroa,9.0219904008009,38.815305452828
ABR002S5,ኮንዶሚኒየም/ኢትዮ ቻይና/ - Condominum(Ethio-China),9.02652483858293,38.8288232282074
ABR003S9,ሃና ማርያም / Hana Mariam,9.03758320751252,38.8316257417153
ABR003S11,ኮተቤ ኮሌጅ/ Kotebe College,9.03729763903751,38.8374641277633
ABR003S13,መሳለሚያ/ Mesalemiya,9.0390677622599,38.8503377996793
ABR003S14,ካራአሎ / Karalo,9.04069395765979,38.8646973377764
ABR005,ኦይል ሊቢያ/OilLibya,8.94151566765789,38.7350923311417
ABR005S19,ሀና ማርያም ድልድይ/ Hana Mariam Dildy,8.93584330104618,38.7441121486121
ABR005S22,ሠፈራ/Sefera,8.92038375572922,38.7347961312967
ABR005S12,ለቡ አደባባይ/Lebu Square,8.94881752586731,38.7336148778611
ABR005S5,ቫቲካን ኤምባሲ/Vatican Embassy,8.98451073124308,38.7367678714446
ABR005S4,ሳር ቤት/SAR BET,8.99291358910354,38.7383436461988
ABR007S6,4ኪሎ/4 KILO,9.03451250435462,38.763203110311
ABR007S10,ፈረንሳይ ኤምባሲ/ Embassy of France,9.04925321867415,38.7703779685871
ABR007S13,ቤላ /BELA,9.04315812365651,38.7799573852015
ABR007S15,ጣልያን ኤምባሲ/Embassy of Italy,9.04653562953794,38.785301618349
ABR010S1,MEBRAt NIGIST HOTEL,8.97007031636253,38.7487147772434
ABR010S2,GOFA MEBRAT,8.96687332765073,38.7486690114347
ABR010S3,ድልድይ ማርያም/DILDIY MARIAM,8.95853986817075,38.7498653296732
ABR010S0,ጎፋ  ማዞርያ/GOFA MAZORIYA,8.97588286877328,38.7488850260516
ABR012S1,ዓለም ባንክ/ALEM BANK,9.00060031949532,38.6777503143273
ABR012S2,ትሮፒካል/Tropical,8.99608729565198,38.6833447267785
ABR012S4,ቤቴል ሸማቾች/Betel Shemachoch,9.01139355896544,38.6771388831235
ABR013S1,መንዲዳ/MENDIDA,9.0148975181464,38.6989883954964
ABR013S2,ቤቴል/BETEL,9.00419026680405,38.6941390504103
ABR013S3,ኪዳነ ምህረት/KIDANE MIHERET,8.99315316712806,38.6894863838869
ABR013S4,አየር ጤና/AYER TENA,8.98389362304906,38.695988789982
ABR014S1,ለቡ ሙዚቃ ቤት/LEBU MUSICA BET,8.9498983471849,38.7195270606947
ABR007S7,BELA HOSPITAL,9.04295420386098,38.7815700445665
ABR007S5,ABO MEGENTEYA,9.04556843837047,38.7781965475968
ABR007S6,MENAFESHA,9.04633357658612,38.7756946718537
ABR007S7,BELA METATEFIYA,9.04870868276718,38.7728699734341
ABR007S8,DILDYE,9.04732187770693,38.7702066863527
ABR015S01,UNISA UNIVERSITY,8.85541738927083,38.8045711602692
ABR015S02,UNISA UNIVERSITY,8.8534357541445,38.8001323484669
ABR015S3,MEBRAT HAYEL,8.85400991109457,38.7852179408113
ABR015S4,GELAN CONDOMINUM,8.85803695895532,38.7800124251523
ABR015S5,GELAN CONDOMINUM 2,8.8777808163129,38.7617971556291
ABR015S5,GELAN CODOMINUM,8.87943937956339,38.7671963648941
ABR015S6,GELA CODOMINUM TAXI TERA,8.88186342005219,38.7717078117986
ABR015S7,SELAM HINSTA,8.88349006981582,38.7766792810171
ABR015S8,KALTY STADIUM,8.89083382519783,38.775387990311
ABR015S8,KALITY,8.89528705140505,38.7723817041358
ABR015S9,CROWN HOTEL,8.90662120453184,38.7655620750941
ABR015S10,KALITY MAREMIYA MEGENTIYA,8.91972102253334,38.7635767156335
ABR015S11,MEDROC TERMINAL,8.92525421897281,38.7659978857074
ABR015S12,KALITY MASELTGNA,8.93544337265162,38.7678702572313
ABR015S13,KALITY MASELTEGNA,8.93398437985201,38.7643837723248
ABR01514,KADISCO,8.93101056770184,38.7585164701789
ABR015S15,HANA MARIAM,8.93092685414012,38.7544125869035
ABR015S15,HANA MARIYAM,8.93615692164796,38.7444414014823
ABR015S16,X HOTEL,8.93693026367506,38.7408701756232
ABR015S17,HAILE GARMENT,8.93835336816722,38.734841462139
ABR015S17,HAILE GARMENT,8.9368744555425,38.7363183758841
ABR015S18A,KOTARI CONDOMINUM,8.93219052824109,38.7338608882591
ABR015S19,SEFERA SQUARE,8.92493131860397,38.7342038873529
ABR015S19,SEFERA CODOMINIUM,8.91026097588585,38.7384812878169
ABR015S20,KALITY 40/60,8.9000392258889,38.750934172564
ABR015S21,ENDODYE,8.88635662376662,38.7523545923407
ABR016S1,SARIS NIGD BANK,8.95312209468189,38.7631229762803
ABR016S2,DAMA HOTEL,8.95267323813949,38.7618744388581
ABR016S3,KOKEB PASTA FACTORY,8.95148726589417,38.7598004910532
ABR016S4,58 KEBELE,8.94889705612243,38.759362773426
ABR016S5,58 MEGENTIYA,8.94491081491843,38.7567864925347
ABR016S6,MARIYAM CHURCH,8.93921963871162,38.7482239019995
ABR016S7,HANA MARIYAM,8.93614751966173,38.7454871246448
ABR001S9,JACROS,9.00282849317297,38.8174520712903
ABR017S1,GORO,8.98973497828905,38.8298332270301
ABR017S2,SYNIXS ELECTRONICS,8.97448331889782,38.8361363608613
ABR017S5,ICT PARK,8.96585250611284,38.8370534835087
ABR017S6,AKAKI WOREDA 14,8.95829214087266,38.8356861370162
ABR017S7,FLUWUHA,8.95555785240489,38.8348190392405
ABR017S7,ARSEMA TESBEL,8.95005626992971,38.831450697881
ABR017S8,KABA,8.94333566108681,38.8247473650764
ABR017S8,KOYE CONDOMINUM MEGBIYA,8.93783389384877,38.8210788744868
ABR017S9,KOYE 1 SQUARE,8.93058592994976,38.8199783273099
ABR017S10,KOYA CONDOMINIUM,8.91755570531626,38.818577630903
ABR017S10,KOYA FETCHAE,8.90085129864942,38.8156761883458
ABR017S11,AASTU MEGBIYA,8.88717749861088,38.8140420425377
ABR017S12,TULUDIMTU 1,8.87979672938307,38.8177105331273
ABR004S01,TIRUNESH BEGING HOSPITAL,8.87691357605031,38.7876205728141
ABR004S02,ADVENTIST MISSION,8.87945898973605,38.7902260348806
ABR004S03,KABA,8.88412141688012,38.792177004876
ABR004S5,KILINTO CONDOMINUM METATEFIAY,8.89001938462629,38.7998641601569
ABR004S9,KILINTO METATEFIYA,8.89913386446332,38.8143421917678
ABR004S10,HENIKEN,8.89652269008915,38.8084642693459
ABR019S01,KILINTO CONDIMINIUM METATEFIYA,8.89408447890316,38.8038369687158
ABR019S2,KILINTO CONDIMIUM MAZORIYA,8.89724344197504,38.8028239650644
ABR004S12,KOYE METATEFIYA,8.89992874507677,38.8161389184088
ABR004S13A,KOYE SCHOOL,8.901320811628,38.8204327198944
ABR004S14,KOYE POLICE STATION,8.89511001227601,38.8238177362111
ABR004S15,KOYE FETCH 2,8.89175011069247,38.8264535848713
ABR004S16,KOYE NEFAS,8.89398742856817,38.8297607782818
ABR019S01,KOYE NETWORK 1,8.89893239531228,38.8298146034094
ABR019S02,KOYE NEFAS MEGENTEYA,8.89565183946729,38.8315725209806
ABR020S01,KOYE 18,8.88535386092872,38.839465393308
ABR020S03,KOYE 18 1,8.88986255155814,38.8359761932803
ABR001S11,GORO,8.99038574666905,38.8306047784793
ABR001S12,SILASIE MEGENTIYA,8.98868449905211,38.8331439927488
ABR001S13,GORO SEFERA,8.98662369871122,38.8360117067665
ABR001S14,SEFERA,8.98420333951297,38.8377518675946
ABR001S15,FESAH MASWEGEJA,8.98101124686773,38.8406107032407
ABR001S16,BOLE LEMI,8.97246086026461,38.8537950850249
ABR001S17,BOLE INDUSTRY PARK,8.97441650492652,38.8553044081921
ABR003S01,LAMBERET MENAHARIYA,9.02466330434728,38.8192937330968
ABR003S02,WUHA GEDEB,9.02799530581687,38.8203413809423
ABR003S03,BERETA BERET,9.03139742358505,38.8214778125035
ABR003S4,02 KEBELE,9.03539574630624,38.8281188344392
ABR003S06,WONDERAD SCHOOL,9.03707923761748,38.8346355591729
ABR003S07,MESALEMIYA MEGENTEYA,9.03826293773521,38.8428480528768
ABR003S08,KARALO HOTEL,9.03878902542783,38.8535908824787
ABR003S09,ACHA DUKET,9.04094597693313,38.8577814738606
ABR003S09,KARA KERA,9.04126162728927,38.8613505792325
ABR006S01,JEMO 3,8.95382908955501,38.6959642735929
ABR006S6,FURI,8.95184702337263,38.6921288170738
ABR006S04,X YEGEBEYA MAEKEL,8.95130326881505,38.6869438480759
ABR006S05,POLICE STATION,8.95133834977878,38.6808000149482
ABR006S06,WELETE SQUARE,8.9504788651935,38.6711048331918
ABR006S07,WELETE SQUARE,8.95254864095546,38.6706431578701
ABR006S08,YETEBABERUT,8.95588130598853,38.671246887137
ABR006S08,WELETE,8.95902976936438,38.6717529543166
ABR014S01,JEMMO MEDHANIALEM,8.95577387186854,38.7133969561741
ABR014S04,NEFAS SIK LAFTO,8.94828410070043,38.7330004006047
ABR014S03,SAFWAY SUPERMARKET,8.94858229125888,38.7294135384896
ABR014S04,BARNERO,8.94885417067274,38.7254981766265
ABR014S06,X PRIVATE SCHOOL,8.94918744193514,38.7211655312994
ABR010S01,LEBE MEBRAT HAILE,8.94832356711191,38.734341034712
ABR010S02,WETATOCH MAEKEL,8.94825340459966,38.7359835334528
ABR010S04,LAFTO TAXI TERA,8.94951632775009,38.7370444988556
ABR010S06,LAFTO CONDOMINIUM,8.95273062279496,38.7414259752263
ABR010S06,LAFTO MICHAEL,8.95687890701514,38.7439918246105
ABR010S07,GOFA CONDOMINUM MEGENTEYA,8.97239289484581,38.748750631773
ABR013S01,BETEL 1,9.01108288804255,38.6955159158285
ABR01302,TELE,9.00362933520629,38.6957467534894
ABR0130S03,WERA 2,9.00373456290406,38.6997420206967
ABR013S04,WERA 1,9.00443608010662,38.7038970985923
ABR013S06,WERA SEFER,9.00499729288869,38.7065961235501
ABR013S07,WERA CONDOMINUM,9.00056894960174,38.7073507851337
ABR013S08,TEMETE BAHIR,8.99637731927983,38.7087713245852
ABR013S08,KOLFA POLICE STATION,8.99172963894318,38.7081853520614
ABR013S09,LEBU GEBRIALE,8.95993089139693,38.7329027385174
ABR013S10,ARSEMA CHURCH,8.95242366542259,38.7325120901682
ABR013S11,GERMAN SQUARE,8.96466667850802,38.7333067044239
ABR013S12,GERMAN SQUARE,8.96512052150242,38.7329560087468
ABR13S18,GERMAN SQUARE,8.96388176989072,38.7328050764301
ABR008S1,04 KEBELE,9.06505212626965,38.762323296154
ABR008S2,04 MEZNAGNA,9.06768064861546,38.7630480375033
ABR008S3,TABOT MADERIYA,9.07116796538893,38.7653145013593
ABR008S04,XX,9.07292462331777,38.7681080498329
ABR008S5,KIDANE MIHERET TSEBEL,9.07507163799535,38.7693335215689
ABR008S6,KIDANMIHERET,9.07708851886528,38.7718371735028
ABR020S01,22 KEBELE,9.06149968678601,38.769307167338
ABR024S02,TEFERI MEKONEN GERBA,9.05637266091314,38.7661512481898
ABR024S07,EGYPT EMBASSY,9.05346753067111,38.7636904218811
ABR0025S1,ABO,8.94535598999955,38.7692511645974
ABR025S2,SARIS ADDISU SEFER,8.95712302649669,38.7675644938209
ABR025S6,WUHA TANKER,8.95109637262787,38.7688163197878
ABR025S6,KADISCO,8.96413880994101,38.7667343355481
ABR026S1,ADAY ABABA,8.95774781380342,38.7637826616892
ABR026S2,KADISCO,8.96376134078795,38.7631106288017
ABR026S3,YOSEPH CHURCH,8.96866840917575,38.7623727103369
ABR025S4,YOSEPH CHURCH,8.9708160446753,38.7665762101628
ABR025S5,BOLE MICHAEL,8.97669919760959,38.7669188151642
ABR025S7,BOLE GUMRUCK,8.98458013073383,38.7852679484166
ABR027S1,BOLE MEDHANIALEM,8.99534373769406,38.7891601388901
ABR028S1,AYAT HOSPITAL,8.99451728102714,38.7958903506018
ABR028S2,MISRAK MESERTE KERESTOS,9.00040330330702,38.7988255530664
ABR028S4,IMPERIAL HOTEL,9.00348130667516,38.80072305769
ABR028S5,ANBESSA GURAGE,9.00792581921791,38.8034177777978
ABR028S6,AMCE,9.01272166675991,38.8041359305894
ABR028S7,BOLE KEFLKETEMA,9.01777773558642,38.802327371495
ABR030S1,TESHALE GURAGE,8.98773961443154,38.7599036483311
ABR029S2,CONCORD HOTEL,8.98996522801235,38.759363386598
ABR029S4,GLOBAL HOTEL,8.99204115349777,38.7591327870777
ABR030S4,MESUWALEKYA,9.00563524271059,38.7589417189038
ABR031S1,MILINIUM,8.98975047642086,38.7872099258047
ABR030S2,HEBIR RESTAURANT,8.99172878929509,38.7822092104947
ABR031S3,RWANDA,8.99245763868216,38.7793102450975
ABR031S5,WOLO SEFER,8.99457259511496,38.7740459874787
ABR031S6,PEACOKE MEGENTYA / BOLE MATAMIYA BET,8.99662246417242,38.7723659052599
ABR032S7,MEGA PRINTING PRESS,8.99934258994682,38.7708571255418
ABR031S7,GETU COMMERCIAL CENTER,9.00195857678188,38.7694471741896
ABR032S8,DEMBEL CITY CENTER,9.00495847869221,38.7678593317789
ABR032S9,SUNSHINE BULDING,9.00948431396914,38.7641598566187
ABR032S10,ESTIFANOS CHURCH,9.01200912627361,38.7627630823819
ABR032S11,GEBRIAL CHURCH,9.02266780429239,38.7626378997852
ABRS033S1,SEBATEGNA,9.02862169069151,38.7330618641767
ABR034S1,AYER TENA,8.98181433969457,38.6978295517649
ABR034S2A,CHINA CAMP,8.97842377647706,38.7005703917768
ABR034S3,KOSHAE,8.97639332804862,38.7040030303493
ABR34S05,MICHAEL,8.9711349344197,38.7181486637758
ABRS035S1,WELETE SUK,8.96397610776797,38.6708296422253
ABR35S2,TILAHUN KEBT ERBATA,8.96618885107653,38.6718838114606
ABR35S3,AJAMBA,8.97096572741864,38.676311322249
ABR35S6,KARAKORE,8.97544317840564,38.6815558141947
ABR35S7,MEBRAT HAILE STATION,8.97749966353771,38.6832424849712
