stop_id,stop_code,stop_name,stop_desc,stop_lat,stop_lon,zone_id,stop_url,location_type,parent_station,stop_timezone,wheelchair_boarding
hub_0001,,"Bridge","",-17.99110031,31.02183914,,,1,,,
hub_0002,,"Herentals Turnoff","",-17.83594513,31.19203377,,,1,,,
hub_0003,,"Bus Stop","",-17.89583778,31.21747589,,,1,,,
hub_0004,,"Glen Norah Shops","",-17.90209579,30.96469879,,,1,,,
hub_0005,,"Magnum Tyres","",-17.99189186,31.05000877,,,1,,,
hub_0006,,"Hatcliff 2nd Bus Stop","",-17.66338348,31.08366394,,,1,,,
hub_0007,,"Community Medical Clinic","",-18.00206375,31.0612545,,,1,,,
hub_0008,,"Croco Motors","",-17.84338951,31.05014229,,,1,,,
hub_0009,,"Accolade Academy","",-17.99522018,31.05148697,,,1,,,
hub_0010,,"Airport Hub","",-17.91183472,31.0951004,,,1,,,
hub_0011,,"Apostolic Church of Christ","",-18.02215004,31.12126923,,,1,,,
hub_0012,,"Arcturus","",-17.77828598,31.31678391,,,1,,,
hub_0013,,"ARDA Dairy","",-17.97930717,31.02182007,,,1,,,
hub_0014,,"Argyle Apartments Bus Stop","",-17.80316162,31.03268242,,,1,,,
hub_0015,,"Ariel Bus Stop","",-17.86539078,31.29123688,,,1,,,
hub_0016,,"Arundel Pick n Pay","",-17.76283455,31.05184174,,,1,,,
hub_0017,,"Ashdown Park Shops","",-17.79191017,30.98149872,,,1,,,
hub_0018,,"Avondale Shopping Centre","",-17.80335617,31.03717804,,,1,,,
hub_0019,,"B and P Study Centre","",-17.99978447,31.07517433,,,1,,,
hub_0020,,"Good Shepherd Recordz","",-17.89554977,30.94709015,,,1,,,
hub_0021,,"Barclays Bank, Paisley Road","",-17.85327721,31.02603912,,,1,,,
hub_0022,,"Barracks, Kirkman Road","",-17.78228951,30.92798042,,,1,,,
hub_0023,,"KFC, Belgravia","",-17.79397392,31.04499626,,,1,,,
hub_0024,,"Belvedere Shopping Centre","",-17.81942749,31.02403259,,,1,,,
hub_0025,,"Helensvale Shopping Centre","",-17.73737717,31.10232735,,,1,,,
hub_0026,,"Charge Office","",-17.8340435,31.04892159,,,1,,,
hub_0027,,"Inez Terrace Hub","",-17.83271408,31.04816055,,,1,,,
hub_0028,,"Chinhoyi Street Hub","",-17.83303261,31.04341507,,,1,,,
hub_0029,,"Chishawasha Hills Hub","",-17.76393318,31.17228508,,,1,,,
hub_0030,,"Chisipite Shops Bus Stop","",-17.78257179,31.11812019,,,1,,,
hub_0031,,"Chitungwiza Hospital Hub","",-18.01546478,31.06209946,,,1,,,
hub_0032,,"Chitungwiza, Padudzai","",-18.01799202,31.07610512,,,1,,,
hub_0033,,"Chiwawa Southlands","",-17.9583683,31.01592827,,,1,,,
hub_0034,,"Corner First Street & Bulawayo Rd","",-17.8193512,30.9172039,,,1,,,
hub_0035,,"Rhodesville","",-17.82062912,31.10153961,,,1,,,
hub_0036,,"Corner Chiremba Rd & Overspill Rd","",-17.89084053,31.1322422,,,1,,,
hub_0037,,"Dzivarasekwa","",-17.79881859,30.93049812,,,1,,,
hub_0038,,"Rezende Hub 2","",-17.83353806,31.04562569,,,1,,,
hub_0039,,"Corner Fleming Rd & Lyndon Moore Rd","",-17.86476135,31.00634003,,,1,,,
hub_0040,,"Corner Jason Moyo and Mbuya Nehanda Street","",-17.8312645,31.04261017,,,1,,,
hub_0041,,"Newlands Bus Stop","",-17.80147171,31.08734703,,,1,,,
hub_0042,,"Corner Riverton Road and Pringle Road","",-17.79294777,31.15786743,,,1,,,
hub_0043,,"Corner Saint Patricks's Road and Twentydales Road","",-17.87366867,31.09582329,,,1,,,
hub_0044,,"Damafalls","",-17.85918808,31.23963928,,,1,,,
hub_0045,,"Damofalls Phase 5","",-17.85484886,31.23909569,,,1,,,
hub_0046,,"Damofalls Phase 3 and 4","",-17.85961342,31.23218346,,,1,,,
hub_0047,,"Dema Shops","",-18.0804615,31.21879196,,,1,,,
hub_0048,,"Dombo Ramwari Shops","",-17.90337563,31.14600754,,,1,,,
hub_0049,,"Dombo Stop Over","",-17.90895844,31.16225624,,,1,,,
hub_0050,,"Domboshava (Showground)","",-17.56879997,31.18445015,,,1,,,
hub_0052,,"Dzivarasekwa 3 Bus Stop","",-17.80700874,30.92351913,,,1,,,
hub_0053,,"Dzivarasekwa Bus Stop","",-17.80173111,30.92930222,,,1,,,
hub_0054,,"Dzivarasekwa Extension","",-17.79380035,30.90440369,,,1,,,
hub_0055,,"Eastlea Shops","",-17.82115173,31.0763073,,,1,,,
hub_0056,,"Eastview","",-17.82000732,31.2505455,,,1,,,
hub_0057,,"Flyover Rank, Seke Road","",-17.83724976,31.04722214,,,1,,,
hub_0058,,"Fourth Street Rank","",-17.83027077,31.05582809,,,1,,,
hub_0059,,"Gazeb","",-17.84415054,31.2321949,,,1,,,
hub_0060,,"George Ruwa Hub","",-17.89039421,31.24254799,,,1,,,
hub_0061,,"Glenlorne","",-17.74213028,31.15488434,,,1,,,
hub_0062,,"Glenorah","",-17.91441154,30.96294212,,,1,,,
hub_0063,,"Glen View 3 Shoppping Centre","",-17.90305328,30.94181252,,,1,,,
hub_0064,,"Glenwood Bus Stop","",-17.92531013,31.1467762,,,1,,,
hub_0066,,"Goodhope Hub","",-17.7431736,30.95412254,,,1,,,
hub_0068,,"Greencroft Shops","",-17.77565765,31.01146507,,,1,,,
hub_0069,,"Greendale Hub","",-17.81951141,31.13034058,,,1,,,
hub_0070,,"Grocery Inn Wholesale","",-17.88147736,30.91836166,,,1,,,
hub_0071,,"Jacha","",-17.89010811,31.1407032,,,1,,,
hub_0072,,"Rezende Rank","",-17.83114815,31.04619789,,,1,,,
hub_0073,,"Kamfinsa Shopping Centre","",-17.80567932,31.12401009,,,1,,,
hub_0074,,"Glen Norah, Gumbe Road","",-17.90992355,30.96058846,,,1,,,
hub_0075,,"Kuwadzana 4 Shops Hub","",-17.8316555,30.92769051,,,1,,,
hub_0076,,"Kwadzana Extention Hub","",-17.82824326,30.89477158,,,1,,,
hub_0077,,"L Bus Stop, Mharapara Road","",-18.02946091,31.07925987,,,1,,,
hub_0078,,"L.T.M. Shops","",-17.96391678,30.98744774,,,1,,,
hub_0079,,"Malbereign Hub","",-17.79034424,30.99832916,,,1,,,
hub_0080,,"OK Mbare","",-17.85856628,31.0405426,,,1,,,
hub_0082,,"Makoni Rank","",-18.01505852,31.10366249,,,1,,,
hub_0083,,"Manresa","",-17.82172012,31.19785881,,,1,,,
hub_0084,,"Mapuranga","",-17.90237808,30.98049355,,,1,,,
hub_0085,,"Marbelreigh Police Camp","",-17.79843712,30.98405838,,,1,,,
hub_0086,,"Market Square","",-17.83703613,31.04190063,,,1,,,
hub_0087,,"Marlborough","",-17.74236107,30.97921181,,,1,,,
hub_0088,,"Maximum Support","",-17.79478645,31.19304848,,,1,,,
hub_0089,,"Mbare Rank","",-17.85955048,31.03812599,,,1,,,
hub_0090,,"Mbudzi Roundabout","",-17.92054558,30.98529625,,,1,,,
hub_0092,,"Mhishi, Mufakose","",-17.86956787,30.91592979,,,1,,,
hub_0093,,"Moonchies Place Bus Stop","",-17.87306023,31.21364403,,,1,,,
hub_0094,,"Mount Hampden","",-17.74106026,30.92379761,,,1,,,
hub_0095,,"Msasa Park","",-17.86528969,31.11365128,,,1,,,
hub_0096,,"Mufakose High 1","",-17.87226677,30.93143272,,,1,,,
hub_0097,,"Mabvuku Hub","",-17.83797836,31.19746017,,,1,,,
hub_0098,,"Mutangadura","",-17.93929291,31.2948494,,,1,,,
hub_0099,,"Norton Rank","",-17.88153267,30.66731453,,,1,,,
hub_0100,,"Nyabira","",-17.67353249,30.80656242,,,1,,,
hub_0101,,"OK Shops","",-17.86483765,30.93041229,,,1,,,
hub_0102,,"Mbuya nehanda Street Hub","",-17.83379364,31.04249573,,,1,,,
hub_0103,,"OK Machipisa","",-17.8926487,30.99115753,,,1,,,
hub_0104,,"Overspill Shops","",-17.88240814,31.15745735,,,1,,,
hub_0105,,"Pa L, Maharapara Road","",-18.02990913,31.07782936,,,1,,,
hub_0107,,"Parklane Hub","",-17.82703781,31.04485321,,,1,,,
hub_0108,,"Copacabana Rank","",-17.83214569,31.04413033,,,1,,,
hub_0109,,"Queensdale Shops","",-17.85510826,31.0876236,,,1,,,
hub_0110,,"Rezende Hub 2","",-17.83655357,31.04587364,,,1,,,
hub_0111,,"Seke Chirunga","",-18.03234291,31.06984329,,,1,,,
hub_0112,,"Seventh Day Adventist Church","",-17.96512413,30.99332619,,,1,,,
hub_0113,,"Simon Mazorodze Flyover","",-17.84666061,31.0385437,,,1,,,
hub_0114,,"Solomio Hub","",-17.90921593,31.19750404,,,1,,,
hub_0115,,"Southgate 24hr Clinic","",-17.96423149,30.95808792,,,1,,,
hub_0116,,"Southlands Shops","",-17.95296478,31.01275253,,,1,,,
hub_0117,,"Newlands Bus Stop","",-17.8096714,31.07352066,,,1,,,
hub_0118,,"Sunway City","",-17.86888885,31.1999054,,,1,,,
hub_0119,,"Ruwa","",-17.89495277,31.2443924,,,1,,,
hub_0120,,"Tafara","",-17.82951927,31.21141434,,,1,,,
hub_0121,,"Tafara Shops","",-17.92436409,30.95407867,,,1,,,
hub_0122,,"Mereki","",-17.83895111,30.9581604,,,1,,,
hub_0123,,"Borrowdale Brooke","",-17.71775436,31.13290405,,,1,,,
hub_0124,,"The Hunter hub","",-17.83600998,31.19073486,,,1,,,
hub_0125,,"Windsor Park Hub","",-17.89476776,31.21248436,,,1,,,
hub_0126,,"Tombstone Sale, Chitungwiza","",-18.0098114,31.06612015,,,1,,,
hub_0127,,"Town Centre","",-18.00889206,31.08169937,,,1,,,
hub_0128,,"Warren Park D","",-17.83438873,30.94791412,,,1,,,
hub_0129,,"Warren Park High School","",-17.82575035,30.98234749,,,1,,,
hub_0130,,"Waterfalls Mainway","",-17.91855621,31.03104973,,,1,,,
hub_0132,,"Westgate Red Roofs","",-17.75172424,30.97805977,,,1,,,
hub_0133,,"Westgate Shopping Centre","",-17.76189232,30.98011971,,,1,,,
hub_0134,,"Westlea","",-17.81274223,30.96762848,,,1,,,
hub_0135,,"Ziko Tollgate","",-18.03049469,31.16024017,,,1,,,
stop_0001,,"Durawall","",-17.83486938,31.20927238,,,0,,,
stop_0002,,"Arcturus Road","",-17.79985809,31.26930618,,,0,,,
stop_0003,,"Ruwa Baptist Church","",-17.90368843,31.23122597,,,0,,,
stop_0004,,"NCR, Corner Enterprise Road South and Samora Machel Avenue","",-17.82375336,31.06154442,,,0,,,
stop_0005,,"Tyres Bus Stop","",-17.83001518,30.98153496,,,0,,,
stop_0006,,"Crown Choice","",-17.89512062,30.94832993,,,0,,,
stop_0007,,"Kambuzuma 3 Shops","",-17.85599136,30.97173119,,,0,,,
stop_0008,,"T-Junction, Main Street","",-17.88762856,30.99610519,,,0,,,
stop_0009,,"Tisu Groceries","",-17.85034561,31.24290276,,,0,,,
stop_0010,,"Highfield Road Stop","",-17.86745071,31.01402283,,,0,,,
stop_0011,,"Shatterproof Wholesalers, Dungarvan Close","",-17.75507927,31.08999825,,,0,,,
stop_0012,,"Jamelin Court, Rhodesville Avenue","",-17.80636978,31.12225914,,,0,,,
stop_0013,,"First Pack Sign, Seke Road","",-17.85695457,31.05594444,,,0,,,
stop_0014,,"Fourth Street Rank","",-17.83036041,31.05652046,,,0,hub_0058,,
stop_0015,,"Network Booster","",-17.88959694,30.95378685,,,0,,,
stop_0016,,"Gwenzi Shops","",-17.81500626,30.91861725,,,0,,,
stop_0017,,"Corner Kelvin Roada and Boshoff Drive","",-17.86184692,31.05644035,,,0,,,
stop_0018,,"Corner Elgin Road and Twentydales Road","",-17.88076973,31.09967995,,,0,,,
stop_0019,,"Chitungwiza, Padudzai","",-18.01799011,31.07622337,,,0,hub_0032,,
stop_0020,,"Corner Riverton Rd & Pringle Rd","",-17.79289246,31.15788078,,,0,hub_0042,,
stop_0021,,"Magnum Tyres","",-17.9919796,31.04986,,,0,hub_0005,,
stop_0022,,"Frankworld Panel Beaters","",-17.86035156,31.23140717,,,0,,,
stop_0023,,"PaChihuri","",-18.00373268,31.09417725,,,0,,,
stop_0024,,"T-Junction","",-17.90342522,31.0449543,,,0,,,
stop_0025,,"LP Gas","",-17.89552307,31.13758659,,,0,,,
stop_0026,,"New Testement Church","",-17.86531639,31.00522995,,,0,,,
stop_0027,,"Church","",-17.8386097,31.20033073,,,0,,,
stop_0028,,"Machipisa, Main Street","",-17.89637375,30.98720169,,,0,,,
stop_0029,,"Corner Bickleigh Close and Rhodesville Avenue","",-17.81935883,31.10225105,,,0,,,
stop_0030,,"Nyaradzo","",-18.01508141,31.06097031,,,0,,,
stop_0031,,"CIE Centre","",-17.78223038,31.11734962,,,0,,,
stop_0032,,"Corner Nelson Mandela Avenue & Mbuya Nehanda Street","",-17.83061981,31.0426712,,,0,,,
stop_0033,,"Corner Sherpperton Road and Boshoff Drive","",-17.86483192,31.05190468,,,0,,,
stop_0034,,"Windsor Park Hub","",-17.89466095,31.21249771,,,0,hub_0125,,
stop_0035,,"Market Square","",-17.83658028,31.04217911,,,0,hub_0086,,
stop_0036,,"Dombo Ramwari Shops","",-17.9034462,31.14603424,,,0,hub_0048,,
stop_0037,,"Econet Shop Bus Stop","",-17.83428001,31.10085487,,,0,,,
stop_0038,,"Reg Harris","",-17.89349937,31.00588036,,,0,,,
stop_0039,,"PUMA Service Station","",-17.83972931,31.04213905,,,0,,,
stop_0040,,"Ariel Bus Stop","",-17.86545944,31.29162025,,,0,hub_0015,,
stop_0041,,"Corner 2nd Rd & Patrenda Street","",-17.89612007,30.92967987,,,0,,,
stop_0042,,"Glen Norah, Gumbe Road","",-17.90991974,30.96051979,,,0,hub_0074,,
stop_0043,,"Hatcliff 2nd Bus Stop","",-17.66338921,31.08374023,,,0,hub_0006,,
stop_0044,,"Bus Stop, Princess Margaret Road","",-17.74418259,30.99529266,,,0,,,
stop_0045,,"Mbudzi Round About","",-17.92007256,30.98439598,,,0,hub_0090,,
stop_0046,,"Wilson Drive Stop","",-17.83071899,31.12444115,,,0,,,
stop_0047,,"Puma Service Station, Enterprise Road","",-17.78813171,31.10964966,,,0,,,
stop_0048,,"Rhodesville","",-17.8208847,31.10142517,,,0,hub_0035,,
stop_0049,,"Corner Chiremba Rd & Tokwe Rd","",-17.84539795,31.07562447,,,0,,,
stop_0050,,"Kanon Oil Service Station","",-17.84853554,31.14090729,,,0,,,
stop_0051,,"Total Msasa 2","",-17.83967972,31.12096024,,,0,,,
stop_0052,,"Alphabet Infant School","",-17.67026138,31.17148399,,,0,,,
stop_0053,,"Corner Beal Road and Samora Machel Avenue","",-17.82842255,31.01259232,,,0,,,
stop_0054,,"Kingdom Hall Church, Seke Road","",-18.00286674,31.08861351,,,0,,,
stop_0055,,"Corner Glen View Way and Willowvale Road","",-17.89407158,30.95438004,,,0,,,
stop_0056,,"Corner Elisabeth Windsor Rd & Harare Drive","",-17.75787926,30.99975395,,,0,,,
stop_0057,,"Celebration Church Turn","",-17.88182068,31.21940994,,,0,,,
stop_0058,,"Mondenes","",-17.80357552,31.14451218,,,0,,,
stop_0059,,"Tomb Sale","",-17.86528778,31.10639191,,,0,,,
stop_0060,,"Zengeza 4","",-18.01173782,31.06459427,,,0,,,
stop_0061,,"Westgate Red Roofs","",-17.75198364,30.97819328,,,0,hub_0132,,
stop_0062,,"Bus Stop","",-17.83264732,31.21362686,,,0,,,
stop_0063,,"Penrose Sign","",-17.67486191,30.8116951,,,0,,,
stop_0064,,"Fourth Street Rank","",-17.83045006,31.0562191,,,0,hub_0058,,
stop_0065,,"River of Life Bus Stop","",-17.74736214,31.12162018,,,0,,,
stop_0066,,"Right Turn","",-17.96315956,30.98485565,,,0,,,
stop_0068,,"Zimbabwe Stock Exchange","",-17.79364586,31.10373688,,,0,,,
stop_0069,,"Total Filling Station","",-17.8249588,31.05547142,,,0,,,
stop_0070,,"Zengeza 3 Medical Clinic","",-18.0137043,31.05884933,,,0,,,
stop_0071,,"Rooneys","",-17.84919739,31.05244827,,,0,,,
stop_0072,,"Warren Park","",-17.82489967,30.97972107,,,0,,,
stop_0073,,"Mount Zion Bus Stop","",-17.721035,31.12501144,,,0,,,
stop_0074,,"Pepsi Zimbabwe Bus Stop","",-17.87366295,31.01958656,,,0,,,
stop_0075,,"Rydale Ridge","",-17.85455322,30.86598778,,,0,,,
stop_0076,,"Corner Hillary Road and Sam Nujoma Street","",-17.76660919,31.03367996,,,0,,,
stop_0077,,"Kwadzana Extention Hub","",-17.82805443,30.89456367,,,0,hub_0076,,
stop_0078,,"Stoneridge Park","",-17.99168015,30.99794769,,,0,,,
stop_0079,,"Tusilago","",-17.87667274,31.06864166,,,0,,,
stop_0080,,"PUMA Service Station","",-17.99803352,31.05549431,,,0,,,
stop_0081,,"Corner Jason Moyo Avenue & Mbuya Nehanda Street","",-17.83131027,31.04273987,,,0,hub_0040,,
stop_0082,,"Corner Riverton Road and Pringle Road","",-17.79298973,31.1578598,,,0,hub_0042,,
stop_0083,,"Corner St Andrews Road and Joshua Nkomo Road","",-17.87283134,31.07574272,,,0,,,
stop_0084,,"Parklane Hub","",-17.82682991,31.04467964,,,0,hub_0107,,
stop_0085,,"Corner Newstead Road","",-17.74403572,30.99165916,,,0,,,
stop_0086,,"Support Unit","",-17.81536484,31.16741562,,,0,,,
stop_0087,,"ZRP Warren Park","",-17.83761406,30.98089218,,,0,,,
stop_0088,,"Tafara Shops","",-17.92432976,30.95412064,,,0,hub_0121,,
stop_0089,,"Right Turn","",-17.6775589,31.15883255,,,0,,,
stop_0090,,"Domboshava Musika","",-17.69013023,31.11672974,,,0,,,
stop_0091,,"Corner Nottingham Road and Lytton Road","",-17.85771179,31.00252151,,,0,,,
stop_0092,,"Trek Petroleum","",-17.85863113,31.0932312,,,0,,,
stop_0093,,"Pa L, Maharapara Road","",-18.02980995,31.07799911,,,0,hub_0105,,
stop_0094,,"Zimbiru Primary School","",-17.61992836,31.14896965,,,0,,,
stop_0095,,"Masuka Primary School","",-17.82865334,30.90027046,,,0,,,
stop_0096,,"Chisipite Shops Bus Stop","",-17.78269768,31.11806107,,,0,hub_0030,,
stop_0097,,"Southlands","",-17.95438194,31.01278877,,,0,,,
stop_0098,,"OK Marimba","",-17.82896805,31.00901604,,,0,,,
stop_0099,,"Murefu Fuel Station","",-17.91513252,30.99066925,,,0,,,
stop_0100,,"OK Super Market","",-17.89913559,31.00260162,,,0,,,
stop_0101,,"OK Houghton Park","",-17.8790741,31.01592064,,,0,,,
stop_0102,,"Fourth Street Rank","",-17.8309803,31.05571938,,,0,hub_0058,,
stop_0103,,"Bus Stop","",-17.86761665,31.23785782,,,0,,,
stop_0104,,"Pharmacy Bus Stop","",-17.86009026,31.24034691,,,0,,,
stop_0105,,"Nelson Mandela and Chinoyi Rd Hub","",-17.83064842,31.04333687,,,0,,,
stop_0106,,"Fourth Street Rank","",-17.82975006,31.05579948,,,0,hub_0058,,
stop_0107,,"Grosvenor Primary","",-17.80477333,31.0968914,,,0,,,
stop_0108,,"Mapuranga","",-17.90227509,30.98045158,,,0,hub_0084,,
stop_0109,,"Munyuki Hall Turn Off","",-17.87746239,31.122118,,,0,,,
stop_0110,,"Fourth Street Rank","",-17.82995033,31.05612946,,,0,hub_0058,,
stop_0111,,"United Theological College","",-17.87441063,31.11769867,,,0,,,
stop_0112,,"Francos","",-17.86386299,31.08499527,,,0,,,
stop_0113,,"Marlborough","",-17.74234772,30.97920227,,,0,hub_0087,,
stop_0114,,"Kambuzuma Road Stop","",-17.85114288,30.98775101,,,0,,,
stop_0115,,"Corner Bulawayo Rd & First Street","",-17.81920624,30.91717911,,,0,hub_0034,,
stop_0116,,"High Glen Road Stop","",-17.84869194,30.9450264,,,0,,,
stop_0117,,"White Tuckshop","",-17.95719337,30.96882057,,,0,,,
stop_0118,,"Chireya","",-17.98359489,31.00851822,,,0,,,
stop_0119,,"Shops 1","",-18.02848434,31.02832031,,,0,,,
stop_0120,,"Charge Office","",-17.83427048,31.0490799,,,0,hub_0026,,
stop_0121,,"Mount Hampden","",-17.74103546,30.92358971,,,0,hub_0094,,
stop_0122,,"Heroes Acre Bus Stop","",-17.82499123,30.98867416,,,0,,,
stop_0123,,"Borrowdale Office Park","",-17.78000641,31.08424377,,,0,,,
stop_0124,,"Corner King George Rd & Lomagundi Rd","",-17.78379631,31.03414345,,,0,,,
stop_0125,,"Corner Unnamed Rd & Cowie Rd","",-17.84511948,30.94906807,,,0,,,
stop_0126,,"OK Machipisa","",-17.89273834,30.99094391,,,0,hub_0103,,
stop_0127,,"Zimbabwe Open University Bus Stop","",-17.68749809,31.09192848,,,0,,,
stop_0128,,"Hopeley District Office","",-17.96574974,30.97644043,,,0,,,
stop_0129,,"St George's College","",-17.80247116,31.06115913,,,0,,,
stop_0130,,"Warren Park Round About","",-17.82364464,30.97341919,,,0,,,
stop_0131,,"Domboramwari High School","",-17.91455841,31.15904236,,,0,,,
stop_0132,,"Rezende Hub 2","",-17.83410072,31.04559708,,,0,hub_0038,,
stop_0133,,"Grey Stone Park Hub","",-17.72922707,31.14684296,,,0,,,
stop_0134,,"Harare Sports Club","",-17.81508064,31.05109406,,,0,,,
stop_0135,,"Tendayi school","",-17.86771584,30.92565918,,,0,,,
stop_0136,,"High Glen Road Stop","",-17.88247108,30.95770836,,,0,,,
stop_0137,,"Chaminuka Primary School","",-17.9950161,31.04017639,,,0,,,
stop_0138,,"Sam's Trucks","",-17.90184593,31.00096703,,,0,,,
stop_0139,,"Gomo Southerton","",-17.8657074,31.00453758,,,0,,,
stop_0140,,"Green Tank","",-17.84252167,31.18268394,,,0,,,
stop_0141,,"Rezende Hub 2","",-17.83663368,31.04589272,,,0,hub_0110,,
stop_0142,,"Pamatimati, Bulawayo Road","",-17.81734657,30.93563843,,,0,,,
stop_0143,,"Zimsec Bus Stop","",-17.78562927,31.04356956,,,0,,,
stop_0144,,"Car Breakers, Harare Drive","",-17.78861046,30.98936081,,,0,,,
stop_0145,,"Zimre Primary Bus Stop","",-17.86222076,31.21491241,,,0,,,
stop_0146,,"Keyrose Investments","",-17.60664749,31.16110802,,,0,,,
stop_0147,,"Mega Petroleum","",-17.97518921,31.02239609,,,0,,,
stop_0148,,"Rhodesville Police Station","",-17.83389282,31.08908272,,,0,,,
stop_0149,,"Market Square","",-17.83754921,31.04206085,,,0,hub_0086,,
stop_0150,,"Borrowdale Brooke","",-17.71801376,31.13253021,,,0,hub_0123,,
stop_0151,,"Flyover Rank, Seke Road","",-17.837286,31.04728317,,,0,hub_0057,,
stop_0152,,"Engen","",-17.81990242,31.02583694,,,0,,,
stop_0153,,"Bus Stop","",-17.68387794,31.14957619,,,0,,,
stop_0154,,"Corner Glen View Way & 4th Ave","",-17.90962791,30.9484272,,,0,,,
stop_0155,,"George Ruwa Hub","",-17.88946152,31.24018097,,,0,,,
stop_0156,,"ZBC","",-17.85709953,31.03035927,,,0,,,
stop_0157,,"Newlands Bus Stop","",-17.81199646,31.07168388,,,0,,,
stop_0158,,"Young African Skills Centre","",-18.03139114,31.07312012,,,0,,,
stop_0159,,"Pasara","",-17.8920002,31.07568741,,,0,,,
stop_0160,,"Market Square","",-17.83709908,31.04173088,,,0,hub_0086,,
stop_0161,,"Corner Jason Moyo and Mbuya Nehanda Street","",-17.83111954,31.04269028,,,0,hub_0040,,
stop_0162,,"Pamsika, 1st Street","",-17.69026184,31.10817337,,,0,,,
stop_0163,,"Royals ECD Centre","",-17.67111015,31.18832397,,,0,,,
stop_0164,,"New Look Hair Salon","",-18.02656937,31.08506012,,,0,,,
stop_0165,,"Pepsi","",-17.87547302,31.01794243,,,0,,,
stop_0166,,"Total Garage","",-17.99398994,31.04377365,,,0,,,
stop_0167,,"Helensvale Shopping Centre","",-17.73739815,31.10206032,,,0,hub_0025,,
stop_0168,,"ARDA Dairy","",-17.97978973,31.02178001,,,0,hub_0013,,
stop_0169,,"Machipisa Hub","",-17.89361382,30.98994255,,,0,hub_0103,,
stop_0170,,"Zesa Enterprises","",-17.8755703,31.00822067,,,0,,,
stop_0171,,"Bus Stop","",-17.85557938,30.99620056,,,0,,,
stop_0172,,"Electricity Pole, Seke Road","",-18.06609154,31.20717239,,,0,,,
stop_0173,,"Tongogara","",-17.81749535,31.04232216,,,0,,,
stop_0174,,"Zuva Filling Station","",-17.88939857,30.99433708,,,0,,,
stop_0175,,"Kuwadzana 4 Shops Hub","",-17.83168983,30.92766953,,,0,hub_0075,,
stop_0176,,"Tynwald High","",-17.8184967,30.97531128,,,0,,,
stop_0177,,"Boka","",-17.93079948,30.97966194,,,0,,,
stop_0178,,"Sunshine Guest House","",-17.80005455,31.09093094,,,0,,,
stop_0179,,"Corner Kaye Eddie Drive and Twiza Road","",-17.85571861,31.10703659,,,0,,,
stop_0180,,"Jacha, Overspill Road","",-17.89016342,31.14081383,,,0,hub_0071,,
stop_0181,,"Mufakose","",-17.86474037,30.92631721,,,0,,,
stop_0182,,"Glenorah Robots","",-17.89325523,30.96506882,,,0,,,
stop_0183,,"Cement","",-17.67261696,31.1871891,,,0,,,
stop_0184,,"Kamfinsa Shopping Centre","",-17.80533218,31.12472725,,,0,hub_0073,,
stop_0185,,"Almin Metal Industries Limited","",-17.88515663,30.97713089,,,0,,,
stop_0186,,"Bus Stop","",-17.66181755,31.17034149,,,0,,,
stop_0187,,"Market Square","",-17.83706093,31.04216003,,,0,hub_0086,,
stop_0188,,"Mt Pleasant Business Park Bus Stop","",-17.76399612,31.03270912,,,0,,,
stop_0189,,"Red Cross High School, Westwood Drive","",-17.8565197,30.97695351,,,0,,,
stop_0190,,"Koala Park","",-17.92330933,31.07121468,,,0,,,
stop_0191,,"Wilkins Hospital","",-17.82013702,31.03028488,,,0,,,
stop_0192,,"Chibvuti Primary School","",-17.66602898,31.22185898,,,0,,,
stop_0193,,"New Life Academy","",-17.65678024,31.19648361,,,0,,,
stop_0194,,"Gateway Primary School","",-17.76882172,31.02946281,,,0,,,
stop_0195,,"Bus Stop","",-17.83644104,31.20809937,,,0,,,
stop_0196,,"Farmers Centre Bus Stop","",-17.74336624,31.07221413,,,0,,,
stop_0197,,"Arcturus Beer Hall","",-17.77919579,31.31851196,,,0,,,
stop_0198,,"Greystone Hub","",-17.73565865,31.13964462,,,0,,,
stop_0199,,"Glen View Primary School, Glen View Way","",-17.91353416,30.94522095,,,0,,,
stop_0200,,"Zuva Bus Stop","",-17.86352158,31.02608299,,,0,,,
stop_0201,,"Ziyaduma Post","",-18.09099197,31.21867371,,,0,,,
stop_0202,,"Mbudzi Round About","",-17.92100906,30.98623085,,,0,hub_0090,,
stop_0203,,"Paroots Bus Stop","",-17.83131409,31.07629395,,,0,,,
stop_0204,,"Fourways","",-18.02634811,31.06026649,,,0,,,
stop_0205,,"Corner 17th Road and Willowale Road","",-17.89413834,30.95290565,,,0,,,
stop_0206,,"DomboraMwari","",-17.89197159,31.13348389,,,0,,,
stop_0207,,"PPC Gate Bus Stop","",-17.73607445,31.07102013,,,0,,,
stop_0208,,"Pink house","",-17.74374962,31.15929604,,,0,,,
stop_0209,,"Mount Sinai","",-17.84303093,31.07162285,,,0,,,
stop_0210,,"Carpenters Bus Stop","",-17.81796646,30.9369297,,,0,,,
stop_0211,,"Bus Stop","",-17.89349556,31.21166801,,,0,,,
stop_0212,,"Corner Pendennis Rd & Mount Pleasant Drive","",-17.77996826,31.05571175,,,0,,,
stop_0213,,"Bus Stop","",-17.89588928,31.21742058,,,0,hub_0003,,
stop_0214,,"Boka","",-17.93129158,30.97998238,,,0,,,
stop_0215,,"Corner 5th Road and 2nd Road","",-17.89418411,30.9338665,,,0,,,
stop_0216,,"OK Mbare","",-17.85867882,31.04132271,,,0,hub_0080,,
stop_0217,,"Gazebo","",-17.84577942,31.2334137,,,0,,,
stop_0218,,"Glenlorne","",-17.74209023,31.15493011,,,0,hub_0061,,
stop_0219,,"TSF Gate D","",-17.87642479,30.98944092,,,0,,,
stop_0220,,"Zimbabwe Open University Bus Stop","",-17.68738937,31.09200668,,,0,,,
stop_0221,,"St James Church Bus Stop","",-17.83845901,31.18736076,,,0,,,
stop_0222,,"Queensdale Shops","",-17.8549881,31.08784103,,,0,hub_0109,,
stop_0223,,"Chicken Inn","",-17.8323822,31.04810524,,,0,hub_0027,,
stop_0224,,"Corner Bardia Road and Alamen Road","",-17.84430885,31.05767059,,,0,,,
stop_0225,,"Gatlands Road 1 Stop","",-17.82580566,30.88880157,,,0,,,
stop_0226,,"Corner Scam Way and Alpes Road","",-17.69989586,31.09135246,,,0,,,
stop_0227,,"Total Service Station Bus Stop","",-17.77584648,31.01255035,,,0,,,
stop_0228,,"Copacabana Rank","",-17.83234978,31.04417992,,,0,hub_0108,,
stop_0229,,"Marbelreigh Police Camp","",-17.79797935,30.9839077,,,0,hub_0085,,
stop_0230,,"Seventh Day Adventist Church","",-17.96510506,30.99341965,,,0,hub_0112,,
stop_0231,,"Belgravia Bus Stop","",-17.79315376,31.04442978,,,0,,,
stop_0232,,"Corner Rhodesille Avenue & Druond Rd","",-17.81542015,31.10594749,,,0,,,
stop_0233,,"Irvines","",-17.94765854,31.014328,,,0,,,
stop_0234,,"Harare Gardens","",-17.82499123,31.04439545,,,0,,,
stop_0235,,"Manresa","",-17.82168961,31.1977787,,,0,hub_0083,,
stop_0236,,"Elephant High School Bus Stop","",-17.76424217,30.99294472,,,0,,,
stop_0237,,"Zin'anga Stop","",-18.03108025,31.17338562,,,0,,,
stop_0238,,"Manyame Location","",-17.99336815,31.03196526,,,0,,,
stop_0239,,"Sale House Bus Stop","",-17.76918602,31.13718414,,,0,,,
stop_0240,,"Hatfield Clinic","",-17.87829399,31.08651733,,,0,,,
stop_0241,,"Kuwadzana 4 Shops Hub","",-17.83161926,30.92770958,,,0,hub_0075,,
stop_0242,,"FedEx Bus Stop","",-17.79886627,31.04496193,,,0,,,
stop_0243,,"Prince Edward School","",-17.81960869,31.03254128,,,0,,,
stop_0244,,"Highpave Hardware","",-17.89396286,30.96281242,,,0,,,
stop_0245,,"Melbourne Hydraulics","",-17.87843513,31.0320797,,,0,,,
stop_0246,,"Epworth High School","",-17.89442062,31.15213013,,,0,,,
stop_0247,,"Sakunda Bus Stop","",-17.86810493,31.19902611,,,0,,,
stop_0248,,"Road Side Butchery","",-17.98385048,31.01006508,,,0,,,
stop_0249,,"Glen Norah Police Station","",-17.89478683,30.96770668,,,0,,,
stop_0250,,"Full On Fuel Service Station","",-18.01256943,31.04246712,,,0,,,
stop_0251,,"Insurance and Persions Company","",-17.80830193,31.11864662,,,0,,,
stop_0252,,"Curtain Roads Stop","",-17.75497246,31.12581444,,,0,,,
stop_0253,,"Bus Stop","",-17.76521873,31.15256882,,,0,,,
stop_0254,,"Super Fuels bus stop","",-17.8018856,30.96987915,,,0,,,
stop_0255,,"Norton Rank","",-17.88161087,30.66730499,,,0,hub_0099,,
stop_0256,,"CSC Beef Bus Stop","",-17.87467766,30.98645782,,,0,,,
stop_0257,,"Chireya","",-17.9834137,31.00795555,,,0,,,
stop_0258,,"Vainona Bus Stop","",-17.76415062,31.06997681,,,0,,,
stop_0259,,"Machipisa Hub, Main Street","",-17.89325523,30.99039841,,,0,hub_0103,,
stop_0260,,"Greencroft Shops","",-17.77566338,31.01170731,,,0,hub_0068,,
stop_0262,,"Mac-Hill College","",-17.89136505,30.94703102,,,0,,,
stop_0263,,"Tamuka Government Primary School","",-18.02323723,31.08849335,,,0,,,
stop_0264,,"Total Garage","",-17.83433914,30.98120499,,,0,,,
stop_0265,,"Parklane Hub","",-17.82685089,31.04494095,,,0,hub_0107,,
stop_0266,,"Crowborough Shops","",-17.8471756,30.93451309,,,0,,,
stop_0267,,"Church","",-17.91086578,30.98189354,,,0,,,
stop_0268,,"St Charles Catholic Church","",-17.89395523,31.24197578,,,0,,,
stop_0269,,"Shades","",-17.6556797,31.19882965,,,0,,,
stop_0270,,"Imperial Plastics","",-17.84980965,31.0248909,,,0,,,
stop_0271,,"Flyover","",-17.84692955,31.03783035,,,0,hub_0113,,
stop_0272,,"St Aidan's Primary School","",-18.02679062,31.08492851,,,0,,,
stop_0273,,"Tuckshop","",-17.92148972,30.98693657,,,0,,,
stop_0274,,"Chikurubi Bus Stop","",-17.81150436,31.15982628,,,0,,,
stop_0275,,"Corner High Glen Rd and Main Street","",-17.90236092,30.98089027,,,0,hub_0084,,
stop_0276,,"Westlea Shops","",-17.81915092,30.9788723,,,0,,,
stop_0277,,"Deveture","",-17.91087151,30.99568367,,,0,,,
stop_0278,,"Corner 2nd Street and 1st Street","",-17.69752884,31.1079216,,,0,,,
stop_0279,,"Rufaro Stadium","",-17.85335732,31.03612518,,,0,,,
stop_0280,,"Saint Geroge's Street Stop","",-17.87475586,31.02367783,,,0,,,
stop_0281,,"Westgate Shopping Centre","",-17.7626915,30.98006439,,,0,hub_0133,,
stop_0282,,"Samsung Bus stop","",-17.84991455,31.06222343,,,0,,,
stop_0283,,"Simon Mazorodze Flyover","",-17.84673309,31.03819084,,,0,hub_0113,,
stop_0284,,"Amalinda High School","",-17.92469978,30.96862984,,,0,,,
stop_0285,,"Warren Park Roundabout","",-17.82386398,30.97451591,,,0,,,
stop_0286,,"Ashdown Park Shops","",-17.79183006,30.98174095,,,0,hub_0017,,
stop_0287,,"Ruwa Town Clinic","",-17.89597702,31.24094582,,,0,,,
stop_0288,,"Parirenyatwa Hospital","",-17.81184578,31.04112244,,,0,,,
stop_0289,,"Corner Lavernham Rd & Lorraine Drive","",-17.78011513,30.98563957,,,0,,,
stop_0290,,"After Hump","",-17.85169029,30.98520851,,,0,,,
stop_0291,,"Corner Saint Patrick's Road and Seke Road","",-17.88610077,31.06994057,,,0,,,
stop_0292,,"BJ Petroleum","",-17.84250069,31.07061577,,,0,,,
stop_0293,,"Longcheng Plaza","",-17.82782364,31.00341606,,,0,,,
stop_0294,,"Western Triangle","",-17.89609337,30.97022438,,,0,,,
stop_0295,,"Puma Service Station","",-17.79308701,30.95544243,,,0,,,
stop_0296,,"Corner Harare Drive & Sawley Way","",-17.75120163,31.01506996,,,0,,,
stop_0297,,"Grain Marketing Board","",-17.86842155,30.97186661,,,0,,,
stop_0298,,"Waterfalls Mainway","",-17.91850662,31.03108788,,,0,hub_0130,,
stop_0299,,"Mbare Zata hub","",-17.8715229,31.03079796,,,0,,,
stop_0300,,"Chisangano Bottle Store","",-17.98620033,31.02070999,,,0,,,
stop_0301,,"Pamagonyeti","",-17.89582634,31.23616791,,,0,,,
stop_0302,,"Murefu","",-17.9151516,30.99040413,,,0,,,
stop_0303,,"Right Turn, Pagondo","",-17.83472633,31.22252464,,,0,,,
stop_0304,,"Trek Petroleum","",-17.74544144,31.07183075,,,0,,,
stop_0305,,"Break Force","",-17.89169121,30.96702385,,,0,,,
stop_0306,,"Turnoff","",-17.94464493,30.9744854,,,0,,,
stop_0307,,"Munemo Shops","",-17.89344406,31.15470886,,,0,,,
stop_0308,,"OK Machipisa","",-17.89273453,30.99084854,,,0,hub_0103,,
stop_0309,,"Dzivarasekwa Extension","",-17.79384995,30.90443993,,,0,hub_0054,,
stop_0310,,"Albion Street Hub","",-17.83332253,31.04140091,,,0,,,
stop_0311,,"Corner Willowvale Road and High Glen Road","",-17.89286995,30.96416092,,,0,,,
stop_0312,,"Corner 17th Street and 1st Street","",-17.69436073,31.10726738,,,0,,,
stop_0313,,"OK Mbare","",-17.85844231,31.03984261,,,0,hub_0080,,
stop_0314,,"Corner Fleming Road and Highfield Road","",-17.87149048,31.00966072,,,0,,,
stop_0315,,"T-Junction","",-17.85677338,31.08350945,,,0,,,
stop_0316,,"Grocery Inn Wholesale","",-17.88154984,30.91826248,,,0,hub_0070,,
stop_0317,,"Stodart Police Station","",-17.87083626,31.03339195,,,0,,,
stop_0318,,"Borrowdale","",-17.75113869,31.09275246,,,0,,,
stop_0319,,"Herbet","",-17.9025116,31.23352051,,,0,,,
stop_0320,,"Diaspora","",-18.00305748,31.09009933,,,0,,,
stop_0321,,"St Marys Police","",-17.98475266,31.05912781,,,0,,,
stop_0322,,"VID","",-18.01483727,31.09827232,,,0,,,
stop_0323,,"Village Borrowdale","",-17.76269341,31.08684731,,,0,,,
stop_0324,,"Chiremba Road Stop","",-17.84791946,31.07912254,,,0,,,
stop_0325,,"S.Margaret","",-17.62115097,31.14849663,,,0,,,
stop_0326,,"Chitungwiza Stop A","",-17.93992424,31.00944519,,,0,,,
stop_0327,,"Tobacco Processors Zimbabwe Bus Stop","",-17.85987473,31.02848625,,,0,,,
stop_0328,,"T-Junction","",-17.84038925,31.22880745,,,0,,,
stop_0329,,"Ghaminuka Road Foot Bridge","",-17.99531937,31.03936005,,,0,,,
stop_0330,,"Service Station","",-17.84255981,31.07085037,,,0,,,
stop_0331,,"Budiriro OK Shop","",-17.88319778,30.93229294,,,0,,,
stop_0332,,"Warren Park Police","",-17.83817482,30.98092079,,,0,,,
stop_0333,,"Nyabira","",-17.67356682,30.80672073,,,0,hub_0100,,
stop_0334,,"Pagomba Zengeza 5","",-18.00965309,31.0530529,,,0,,,
stop_0335,,"National Tyre Services, Seke Road","",-17.85299492,31.05361176,,,0,,,
stop_0336,,"Lion Park Bus Stop","",-17.83025551,30.82262421,,,0,,,
stop_0337,,"Mbare Hub","",-17.86084938,31.03926086,,,0,hub_0089,,
stop_0338,,"Coca cola, Corner Dieppe Road and Seke Road","",-17.85223007,31.05343246,,,0,,,
stop_0339,,"Wingate Golf Club Bus Stop","",-17.71398735,31.07507324,,,0,,,
stop_0340,,"Corner Runyataro Road and Daniel Street","",-17.86663818,31.02813339,,,0,,,
stop_0341,,"WhiteCliff","",-17.84787941,30.87275314,,,0,,,
stop_0342,,"Paula's Place Bus Stop","",-17.82390213,31.09246254,,,0,,,
stop_0343,,"Sally Mugabe","",-17.65571976,31.17568016,,,0,,,
stop_0344,,"Corner Harare Drive and Sam Nujoma Street","",-17.75209618,31.02858162,,,0,,,
stop_0345,,"Corner 1st Avenue and High Glen Road","",-17.91475105,30.98118782,,,0,,,
stop_0346,,"George Ruwa Hub","",-17.89011002,31.24218941,,,0,hub_0060,,
stop_0347,,"Newlands Bus Stop","",-17.81028175,31.07429504,,,0,,,
stop_0348,,"Budiriro","",-17.90076065,30.9346981,,,0,,,
stop_0349,,"Mbuya nehanda Street Hub","",-17.834198,31.04262161,,,0,,,
stop_0350,,"Shelton Bus Stop","",-17.90314293,31.21099472,,,0,,,
stop_0351,,"Hatfield Infant School","",-17.88040352,31.08224487,,,0,,,
stop_0352,,"Damafalls","",-17.85905266,31.23974609,,,0,hub_0044,,
stop_0353,,"Corner Marimba Rd& High Glen Rd","",-17.87568665,30.95494652,,,0,,,
stop_0354,,"Corner Chitowa Road and 2nd Road","",-17.89229965,30.94138908,,,0,,,
stop_0355,,"Steel Center","",-18.00662994,31.05143929,,,0,,,
stop_0356,,"Belgravia Shops Bus Stop","",-17.79526901,31.04547501,,,0,,,
stop_0357,,"Left turn","",-17.81278801,31.22622871,,,0,,,
stop_0358,,"Passport Office Bus Stop","",-17.82500648,31.04043579,,,0,,,
stop_0359,,"Houghton Park Bus Stop","",-17.88040733,31.01506805,,,0,,,
stop_0360,,"Rezende Rank","",-17.83113289,31.04518318,,,0,,,
stop_0361,,"Morgan High School","",-17.84490013,31.05458069,,,0,,,
stop_0362,,"Mbare Hub","",-17.86018944,31.03931046,,,0,hub_0089,,
stop_0363,,"Harare Hospital","",-17.867239,31.01425743,,,0,,,
stop_0364,,"Bus Stop","",-17.86741638,31.02349854,,,0,,,
stop_0365,,"Gletwyn Road","",-17.76755905,31.14896965,,,0,,,
stop_0366,,"Dust","",-17.89814568,31.14063644,,,0,,,
stop_0367,,"Padaddy","",-18.01343536,31.05761147,,,0,,,
stop_0368,,"Arbrin Tompston","",-17.85610008,30.9965992,,,0,,,
stop_0369,,"Corner St Andrews Road and Twentydales Road","",-17.86526108,31.09126663,,,0,,,
stop_0371,,"Mhangami Investments Tuckshop","",-17.89233589,30.94119072,,,0,,,
stop_0372,,"Tombstone Sale, Chitungwiza","",-18.00977707,31.06604767,,,0,hub_0126,,
stop_0373,,"Lodge","",-17.93014145,31.29112434,,,0,,,
stop_0374,,"Corner Ardennie Road and Seke Street","",-17.86145973,31.03800964,,,0,,,
stop_0375,,"Cream Shop Bus Stop","",-17.86751938,31.23851967,,,0,,,
stop_0376,,"Nexas","",-17.84057426,31.06855965,,,0,,,
stop_0377,,"Bus Stop","",-17.78428841,30.91518784,,,0,,,
stop_0378,,"Warren Park Market","",-17.83341026,30.98126984,,,0,,,
stop_0379,,"T-Junction","",-17.7830162,30.91662407,,,0,,,
stop_0380,,"Zuva Bus Stop","",-17.85288429,30.97337341,,,0,,,
stop_0381,,"Right Turn","",-17.83499908,31.22293091,,,0,,,
stop_0382,,"Alpes Road Stop","",-17.71109009,31.07586288,,,0,,,
stop_0383,,"Chinembiri Primary School","",-18.01597214,31.09681892,,,0,,,
stop_0384,,"Corner Lomagundi Rd & Ascot Rd","",-17.77839088,31.0253334,,,0,,,
stop_0385,,"South African Embassy Bus Stop","",-17.80744743,31.0455265,,,0,,,
stop_0386,,"Chaminuka Primary School Sign","",-17.99545288,31.02703094,,,0,,,
stop_0387,,"Corner Plymouth Rd & Paisley Rd","",-17.8546505,31.02762985,,,0,,,
stop_0388,,"Shingai Government School","",-17.99414063,31.05082893,,,0,,,
stop_0389,,"Bus Stop","",-17.89050293,31.14260292,,,0,,,
stop_0390,,"Avonlea Primary School","",-17.77388954,31.00572014,,,0,,,
stop_0391,,"Borrowdale Racecourse Bus Stop","",-17.7797451,31.08425522,,,0,,,
stop_0392,,"ZUVA Filling Station","",-17.87386703,31.00606155,,,0,,,
stop_0393,,"Pamusawu","",-17.8369503,30.94103241,,,0,,,
stop_0394,,"Warren Park Secondary turn off","",-17.8279438,30.98199654,,,0,,,
stop_0395,,"George Ruwa Hub","",-17.89031982,31.24279976,,,0,hub_0060,,
stop_0396,,"ZBC Radio Zimbabwe","",-17.85621452,31.0306282,,,0,,,
stop_0397,,"Bill Bus Stop","",-17.82815742,31.01273727,,,0,,,
stop_0398,,"Copacabana Rank","",-17.83133698,31.0451889,,,0,,,
stop_0399,,"Warren Park D","",-17.83438683,30.9479351,,,0,hub_0128,,
stop_0400,,"Corner Fleming Rd & Appleyard Rd","",-17.87128639,31.00927925,,,0,,,
stop_0401,,"Braeside","",-17.83970451,31.06744385,,,0,,,
stop_0402,,"Corner Bradfield Road and Chiremba Road","",-17.83382034,31.06983948,,,0,,,
stop_0403,,"Zuva Filling Station","",-17.86278343,31.02623367,,,0,,,
stop_0404,,"Tata Motors Bus Stop","",-17.86684608,31.02357483,,,0,,,
stop_0405,,"Pahasha Village","",-17.90180969,30.9284153,,,0,,,
stop_0406,,"Glen Forest","",-17.67136002,31.12750626,,,0,,,
stop_0407,,"Sunway City","",-17.8689003,31.19968987,,,0,hub_0118,,
stop_0408,,"Makoni Rank","",-18.01507568,31.10413933,,,0,hub_0082,,
stop_0409,,"Mbuya nehanda Street Hub","",-17.83389664,31.04246712,,,0,hub_0102,,
stop_0410,,"Magas","",-18.01284218,31.0533123,,,0,,,
stop_0411,,"Braeside","",-17.83954239,31.06704521,,,0,,,
stop_0412,,"Bus Stop","",-17.74327278,30.98614502,,,0,,,
stop_0413,,"After Hump","",-17.88472557,31.16003609,,,0,,,
stop_0414,,"Hatcliffe, 37th Street","",-17.69032478,31.10740662,,,0,,,
stop_0415,,"Passport Office Bus Stop, Harare Street","",-17.82388496,31.04023361,,,0,,,
stop_0416,,"Riley Bus Stop","",-17.74266815,31.13189697,,,0,,,
stop_0417,,"Epworth Police Station","",-17.90010262,31.14267921,,,0,,,
stop_0418,,"Stop A","",-17.93650818,31.00721359,,,0,,,
stop_0419,,"Corner Chinhoyi Street & Abercorn Street","",-17.83960724,31.04312134,,,0,,,
stop_0420,,"Corner Dumfries Road and Lytton Road","",-17.852314,31.01832199,,,0,,,
stop_0421,,"Busstop","",-17.84068108,31.0431366,,,0,,,
stop_0422,,"Belvedere","",-17.82770157,31.01525307,,,0,,,
stop_0423,,"Tuck Shop","",-17.81237221,31.22601509,,,0,,,
stop_0424,,"Westlea","",-17.81599236,30.96429062,,,0,,,
stop_0425,,"Corner Machester Road and Highfield Road","",-17.86824989,31.01314926,,,0,,,
stop_0426,,"Corner Rotten Row & Lytton Rd","",-17.84560204,31.03785324,,,0,,,
stop_0427,,"Corner Chiremba Rd & Limpopo Way","",-17.84674072,31.07765007,,,0,,,
stop_0428,,"Mbare","",-17.85874939,31.04089928,,,0,hub_0080,,
stop_0429,,"Warren Park 1, 3rd Street","",-17.8396759,30.97383499,,,0,,,
stop_0430,,"Corner Orange Drive and Zimre Way","",-17.8697567,31.20210266,,,0,,,
stop_0431,,"Bus Stop","",-17.88288498,31.00034142,,,0,,,
stop_0432,,"Hatcliffe, Corner 26th Street and 1St Street","",-17.6912632,31.10744667,,,0,,,
stop_0433,,"Copacabana Rank, Nelson Mandela Avenue","",-17.8302021,31.04452324,,,0,,,
stop_0434,,"Mbudzi Roundabout","",-17.91996956,30.98438263,,,0,hub_0090,,
stop_0435,,"Dunlop","",-17.87507439,31.02383995,,,0,,,
stop_0436,,"Nelson Mandela and Chinoyi Rd Hub","",-17.83052826,31.04334068,,,0,,,
stop_0437,,"Cranborne","",-17.85379982,31.07807922,,,0,,,
stop_0438,,"Grand Auto Bus Stop","",-17.84135628,31.12693214,,,0,,,
stop_0439,,"Mukanya","",-18.02396011,31.08598137,,,0,,,
stop_0440,,"Irvines","",-17.94781494,31.0145092,,,0,,,
stop_0441,,"Boka","",-17.9309082,30.97947693,,,0,,,
stop_0442,,"Glenview 7","",-17.91802979,30.95812988,,,0,,,
stop_0443,,"Corner Tait Avenue and Chiremba Road","",-17.83944511,31.06850815,,,0,,,
stop_0444,,"Bus Stop","",-17.83129883,31.07025337,,,0,,,
stop_0445,,"Machipisa , Main Street","",-17.89445686,30.98908806,,,0,hub_0103,,
stop_0446,,"Newlands Bus Stop","",-17.8014698,31.08724976,,,0,hub_0041,,
stop_0447,,"Glen Gardens Turn Off","",-17.65701866,31.13466644,,,0,,,
stop_0448,,"Mbare Rank","",-17.8596096,31.03750038,,,0,hub_0089,,
stop_0449,,"Downtown Engine","",-18.01117897,31.04103279,,,0,,,
stop_0450,,"Puma Service Station, Rhodesville Avenue","",-17.82274055,31.1000824,,,0,,,
stop_0451,,"Food Lovers Market, eendale Avenue","",-17.82541466,31.10183144,,,0,,,
stop_0452,,"Domboshava (Showground)","",-17.56855965,31.18451881,,,0,hub_0050,,
stop_0453,,"St Martin's","",-17.86063957,31.05859947,,,0,,,
stop_0454,,"South African Embassy Bus Stop","",-17.80636787,31.04524803,,,0,,,
stop_0455,,"Blue Tank","",-17.98843384,31.02052879,,,0,,,
stop_0456,,"Munesu Provisions","",-17.58327484,31.17993164,,,0,,,
stop_0457,,"Joina City","",-17.83133125,31.04739952,,,0,,,
stop_0458,,"Acacia Avenue","",-17.76982689,30.96217918,,,0,,,
stop_0459,,"Corner Lydon Moone Rd & Fleming Rd","",-17.86477661,31.00632095,,,0,hub_0039,,
stop_0460,,"Chijaka Rank","",-17.68129158,31.09309387,,,0,,,
stop_0461,,"Corner West Road & Lomagundi Road","",-17.7804718,31.02882767,,,0,,,
stop_0462,,"Tait Avenue Stop","",-17.83983994,31.06878281,,,0,,,
stop_0463,,"Hopley","",-17.9282608,30.99880028,,,0,,,
stop_0464,,"Corner Seke Rd & Cripps Rd","",-17.8526783,31.05311584,,,0,,,
stop_0465,,"San Souci Rd Bus Stop","",-17.89565277,31.21850014,,,0,,,
stop_0466,,"Alpes Junction Bus Stop","",-17.75141907,31.0708046,,,0,,,
stop_0467,,"Corner Tynwald Road and Bulawayo Road","",-17.8220005,30.9613781,,,0,,,
stop_0468,,"Mt Pleasant High School Bus Stop","",-17.78315353,31.0437603,,,0,,,
stop_0469,,"Sale House Bus Stop","",-17.76866913,31.13757324,,,0,,,
stop_0470,,"Helensvale Bus Stop","",-17.73845291,31.10144806,,,0,,,
stop_0471,,"Mbudzi Round about","",-17.92131996,30.9844799,,,0,hub_0090,,
stop_0472,,"Mutangadura","",-17.93930817,31.2948246,,,0,hub_0098,,
stop_0473,,"Corner 17th Rd & Willowvale Rd","",-17.89406776,30.95323753,,,0,,,
stop_0474,,"ABC Auctions","",-17.84341049,31.05019951,,,0,hub_0008,,
stop_0475,,"Norton Bus Rank","",-17.88149643,30.66732407,,,0,hub_0099,,
stop_0476,,"Chihwa Shops","",-17.59790993,31.16954613,,,0,,,
stop_0478,,"Avondale Shopping Centre","",-17.80356979,31.0374012,,,0,hub_0018,,
stop_0479,,"Corner Fourth Street and Samora Machel Avenue","",-17.82548904,31.05430222,,,0,,,
stop_0480,,"CPCA Church","",-17.9623127,30.98194885,,,0,,,
stop_0481,,"Eastwise School","",-17.83208084,31.21743965,,,0,,,
stop_0482,,"Bus Stop","",-17.59997177,31.16766167,,,0,,,
stop_0483,,"Brooks","",-17.83786774,31.06888008,,,0,,,
stop_0484,,"Mhuriimwe Secondary School","",-17.87941742,30.98869133,,,0,,,
stop_0485,,"Trek Bus Stop","",-17.80913544,30.97809982,,,0,,,
stop_0486,,"Corner Monavale Road and Princess Drive","",-17.81670952,31.01371002,,,0,,,
stop_0487,,"Pamusika","",-17.84133911,30.93942642,,,0,,,
stop_0489,,"Jakaranda","",-17.80143356,30.93586922,,,0,,,
stop_0490,,"Nyaumwe Bar","",-17.86802292,31.03044891,,,0,,,
stop_0491,,"Budiriro","",-17.90416908,30.93037987,,,0,,,
stop_0492,,"Hardware","",-17.83883095,31.22681046,,,0,,,
stop_0493,,"Westgate Shopping Mall","",-17.76251984,30.97986412,,,0,hub_0133,,
stop_0494,,"School, 1st Street","",-17.69355392,31.10726929,,,0,,,
stop_0495,,"Westgate Shopping Centre","",-17.76099968,30.98037148,,,0,hub_0133,,
stop_0496,,"S.Margaret Junior School","",-17.62147331,31.14825249,,,0,,,
stop_0497,,"ST Carthrine","",-17.88988686,30.95269203,,,0,,,
stop_0498,,"Corner Potter Rd & Woodlands Rd","",-17.90309906,31.02006912,,,0,,,
stop_0499,,"Corner Forbes Rd and Chilter Rd","",-17.92428017,31.01080132,,,0,,,
stop_0500,,"Stephen Margolis","",-17.96127892,31.02221489,,,0,,,
stop_0501,,"Greendale Hub","",-17.81952095,31.13028908,,,0,hub_0069,,
stop_0502,,"Machipisa TM Supermarket","",-17.89366913,30.98997688,,,0,hub_0103,,
stop_0503,,"Cressrox Motors","",-17.84405708,31.07333183,,,0,,,
stop_0504,,"Alexandra Drive Stop 2","",-17.88476753,31.10830307,,,0,,,
stop_0505,,"Harare Central Hospital, Highfield Road","",-17.86724281,31.01434326,,,0,,,
stop_0506,,"Cimas","",-17.76823997,31.08761978,,,0,,,
stop_0507,,"Cabins","",-17.65652657,31.20100021,,,0,,,
stop_0508,,"Corner Walmer Road and Samora Machel Avenue","",-17.82341576,31.08970451,,,0,,,
stop_0509,,"Inez Terrance Hub","",-17.83282089,31.04832077,,,0,hub_0027,,
stop_0510,,"Brick Centre","",-18.01047897,31.04055405,,,0,,,
stop_0511,,"Epworth High School","",-17.87586403,31.11982727,,,0,,,
stop_0512,,"Airport Sign","",-17.83456993,31.06971931,,,0,,,
stop_0513,,"Kuwadzana","",-17.82654762,30.91535378,,,0,,,
stop_0514,,"Bus Stop","",-17.90713882,31.20807076,,,0,,,
stop_0515,,"Corner Mabvumira Drive","",-17.99715805,31.05429268,,,0,,,
stop_0516,,"Corner Basil Road and Fennel Avenue","",-17.86153984,31.11391258,,,0,,,
stop_0517,,"Chisipite Medical Centre Bus Stop","",-17.78193092,31.12043953,,,0,,,
stop_0518,,"Parktown Shopping Centre","",-17.89161491,31.0231781,,,0,,,
stop_0519,,"Complex","",-18.00404167,31.07500076,,,0,,,
stop_0520,,"Chadcombe","",-17.85907173,31.09737396,,,0,,,
stop_0521,,"Domboramwari High School","",-17.91452026,31.15895081,,,0,,,
stop_0522,,"OK Mbare","",-17.85856438,31.04060173,,,0,hub_0080,,
stop_0523,,"Left Turn","",-17.82030678,31.23978996,,,0,,,
stop_0524,,"Biston Bus Stop","",-17.77388954,31.13472939,,,0,,,
stop_0526,,"Eastview","",-17.82000923,31.25060272,,,0,hub_0056,,
stop_0527,,"Bus Stop","",-17.81871033,31.23159981,,,0,,,
stop_0528,,"Chinamano Bus Stop","",-17.81778145,31.04818153,,,0,,,
stop_0529,,"Mudaz Connection, Seke Road","",-18.04465675,31.18634987,,,0,,,
stop_0530,,"LTM","",-17.96482277,30.99062729,,,0,,,
stop_0531,,"Corner Canberra Rd & Lytton Rd","",-17.85659027,31.00592995,,,0,,,
stop_0532,,"Chinhoyi Street Hub","",-17.83286667,31.04345131,,,0,hub_0028,,
stop_0533,,"Lomagundi Poles","",-17.74580956,30.93630791,,,0,,,
stop_0534,,"Diaspora, Seke Road","",-18.00531769,31.09848022,,,0,,,
stop_0535,,"Rhodesville Bus Stop","",-17.83327103,31.08699799,,,0,,,
stop_0536,,"Damofalls Phase 3 and 4","",-17.85964775,31.2321682,,,0,hub_0046,,
stop_0537,,"Corner 18th Avenue and Willowvale Road","",-17.89413071,30.95667076,,,0,,,
stop_0538,,"Glenorah Flats","",-17.91433334,30.97084427,,,0,,,
stop_0539,,"Gomo Southerton, Fleming Road","",-17.86649132,31.00738335,,,0,,,
stop_0540,,"Left Turn","",-18.01490402,31.09283257,,,0,,,
stop_0541,,"Exhibition Park Bus Stop","",-17.82935524,31.02978706,,,0,,,
stop_0542,,"Ruwa","",-17.89472008,31.2439003,,,0,hub_0119,,
stop_0543,,"Total Filling Station","",-17.83643341,31.10814667,,,0,,,
stop_0544,,"Corner Laurie Road and Princess Drive","",-17.81797791,31.01845169,,,0,,,
stop_0545,,"Corner Boshoff Drive & Seke Rd","",-17.86093903,31.05860519,,,0,,,
stop_0546,,"Before Hump","",-17.92516708,30.99340439,,,0,,,
stop_0547,,"Machipisa Police Station","",-17.89470291,30.98882103,,,0,hub_0103,,
stop_0548,,"Corner Ward Road and Malta Road","",-17.84256554,31.06516266,,,0,,,
stop_0549,,"Copacabana Rank","",-17.83377266,31.04430199,,,0,,,
stop_0550,,"Gain Cash & Carry","",-17.85449982,31.01198959,,,0,,,
stop_0551,,"Parklane Hub","",-17.82802773,31.04257393,,,0,,,
stop_0552,,"Biddalf, Chiremba Rd","",-17.84926033,31.08086395,,,0,,,
stop_0553,,"Greencroft Shops","",-17.77557945,31.01129913,,,0,hub_0068,,
stop_0554,,"Chinoyi Road and Mbuya Nehanda Hub","",-17.83003807,31.04174805,,,0,,,
stop_0555,,"Hatfield Clinic","",-17.87835121,31.08654976,,,0,,,
stop_0556,,"Newlands Police Station Bus Stop","",-17.8166523,31.06586075,,,0,,,
stop_0557,,"Corner Lavernham Rd & Lorraine Drive","",-17.76652527,30.97934341,,,0,,,
stop_0558,,"Fourth Street Rank","",-17.8301506,31.05537987,,,0,hub_0058,,
stop_0559,,"TM Shops","",-17.99987793,31.05851746,,,0,,,
stop_0560,,"Gardiner Road","",-17.81431961,31.25890541,,,0,,,
stop_0561,,"Corner Nelson Mandela Avenue & Mbuya Nehanda Street","",-17.8304348,31.04263115,,,0,,,
stop_0562,,"Corner Van Praagh Avenue and Prince Edward Street","",-17.81426811,31.03611946,,,0,,,
stop_0563,,"Msasa","",-17.84089088,31.12476921,,,0,,,
stop_0564,,"Remembrance Drive Stop","",-17.85597038,31.03344154,,,0,,,
stop_0565,,"Corner Nzou Drive and Patrnda Street","",-17.8968029,30.92913055,,,0,,,
stop_0567,,"Nestham Trading Turn","",-17.8299675,31.06378365,,,0,,,
stop_0568,,"Pringle Road Stop","",-17.80254936,31.14152718,,,0,,,
stop_0569,,"Ruwa","",-17.89496613,31.24455643,,,0,hub_0119,,
stop_0570,,"Engen Filling Station","",-17.89407539,30.9574337,,,0,,,
stop_0571,,"Mabvuku Hub","",-17.83788109,31.19720268,,,0,hub_0097,,
stop_0572,,"Right Turn","",-17.68252182,30.83055305,,,0,,,
stop_0573,,"Scrap Batteries","",-17.86214066,31.25559998,,,0,,,
stop_0575,,"Corner St David's Road & Joshua Nkomo Rd","",-17.87540436,31.07649994,,,0,,,
stop_0576,,"Pitch House","",-17.8892231,30.95090294,,,0,,,
stop_0577,,"Marlborough","",-17.74237633,30.97923851,,,0,hub_0087,,
stop_0578,,"Mabvuku Stop 2","",-17.83028984,31.19135094,,,0,,,
stop_0579,,"Mufakose","",-17.87223053,30.93153954,,,0,hub_0096,,
stop_0580,,"Shetland","",-17.85590363,31.08961296,,,0,,,
stop_0581,,"BulawayoRoad Bus Stop","",-17.82520103,30.98867226,,,0,,,
stop_0582,,"Corner Cunningham Road and Rhodesville Avenue","",-17.81125832,31.11091042,,,0,,,
stop_0583,,"Mashwede Service Station","",-17.85254097,31.04366875,,,0,,,
stop_0584,,"Zengeza 1 Bus Stop","",-17.99600601,31.05262756,,,0,,,
stop_0585,,"Mabvuku High School","",-17.8383503,31.18759155,,,0,,,
stop_0586,,"Rawson Bus Stop","",-17.82282639,31.06542015,,,0,,,
stop_0587,,"4th Avenue Bus Stop","",-17.82890892,30.98181343,,,0,,,
stop_0588,,"Coca Cola Bus Stop","",-17.85435867,31.0542469,,,0,,,
stop_0589,,"Tel One","",-18.00316048,31.06290245,,,0,,,
stop_0590,,"Before Roundabout Bus Stop","",-17.7837677,31.11580276,,,0,,,
stop_0591,,"Hutock Motors","",-17.77054977,31.00297356,,,0,,,
stop_0592,,"Divine","",-17.78748512,30.96103668,,,0,,,
stop_0593,,"Corner 111 Street & Main Street","",-17.88830948,30.99547195,,,0,,,
stop_0594,,"Mbare Rank","",-17.85898399,31.03719521,,,0,hub_0089,,
stop_0595,,"Kelvin Road South Engine Station","",-17.8534317,31.05060005,,,0,,,
stop_0596,,"Corner Chiremba Rd & Brafield Rd","",-17.83392906,31.06990051,,,0,,,
stop_0597,,"Makomo, Chiremba Road","",-17.90160942,31.144104,,,0,,,
stop_0598,,"ZiFM Studios","",-17.80669403,31.07427979,,,0,,,
stop_0599,,"Corner 1st Avenue and High Glen Road","",-17.91475105,30.98111534,,,0,,,
stop_0600,,"Methodist Church, Chiremba Road","",-17.87869453,31.12233162,,,0,,,
stop_0601,,"Westgate Shopping Mall","",-17.7615242,30.97805023,,,0,hub_0133,,
stop_0602,,"Town Centre 2","",-18.00986671,31.08218384,,,0,,,
stop_0604,,"Alfreid Beit School","",-17.78910065,31.0017395,,,0,,,
stop_0605,,"Star FM","",-17.86836433,31.0228653,,,0,,,
stop_0606,,"Pamasai","",-17.85223389,31.29617691,,,0,,,
stop_0607,,"Hatcliff 2nd Bus Stop","",-17.66338158,31.08358955,,,0,hub_0006,,
stop_0608,,"Corner Kambuzuma Rd & High Glen d","",-17.86750793,30.95190239,,,0,,,
stop_0609,,"Corner Jason Moyo Avenue & Mbuya Nehanda Street","",-17.83116913,31.04248047,,,0,hub_0040,,
stop_0610,,"Alexandra Drive Stop 1","",-17.88553047,31.10672951,,,0,,,
stop_0611,,"Herentals Turnoff","",-17.83595085,31.19165039,,,0,hub_0002,,
stop_0612,,"Corner First Street & High Glen Rd","",-17.8275795,30.94259071,,,0,,,
stop_0613,,"Mapuranga Hub","",-17.90271378,30.98073196,,,0,hub_0084,,
stop_0614,,"Borrowdale Junior School","",-17.77427292,31.08887863,,,0,,,
stop_0615,,"Corner Pauling Drive and Borrowdale Road","",-17.80521965,31.05994034,,,0,,,
stop_0616,,"Pachurch","",-17.8948307,31.11150932,,,0,,,
stop_0617,,"Newlands Bus Stop","",-17.80937958,31.07367706,,,0,hub_0117,,
stop_0618,,"Tuck Shop 2","",-17.65846634,31.20400429,,,0,,,
stop_0619,,"Police Headquarters Bus Stop","",-17.81563187,31.05619812,,,0,,,
stop_0620,,"Corner Arcturus Road and Harare Drive","",-17.80985069,31.14550781,,,0,,,
stop_0621,,"Wedza hub Glenora","",-17.90382195,30.9645195,,,0,,,
stop_0622,,"Choppies","",-17.83646965,31.19558334,,,0,,,
stop_0623,,"Dzivarasekwa 4 hub","",-17.81128883,30.92977715,,,0,,,
stop_0624,,"Dzivarasekwa Bus Stop","",-17.80169106,30.92941666,,,0,hub_0053,,
stop_0625,,"Corner Chiremba Rd & Overspill Rd","",-17.89087105,31.13233757,,,0,hub_0036,,
stop_0626,,"FBC Sports Club","",-17.81352997,31.02943993,,,0,,,
stop_0627,,"Corner Taomina Avenue & Princess Margaret Road","",-17.74478149,30.99577713,,,0,,,
stop_0628,,"Warverly","",-17.86137009,31.05606461,,,0,,,
stop_0629,,"Corner Dieppe Road and Tokwe Road","",-17.84508705,31.07493973,,,0,,,
stop_0630,,"Paza Way","",-17.69208527,31.1634407,,,0,,,
stop_0631,,"Rhodesville Police Station","",-17.83418846,31.08931732,,,0,,,
stop_0632,,"Kilwinnig Road Tuckshop","",-17.88451576,31.10287666,,,0,,,
stop_0634,,"T-Junction","",-17.91697693,31.02420044,,,0,,,
stop_0635,,"Corner High Glen Rd & Kambuzuma Rd","",-17.86757088,30.95173645,,,0,,,
stop_0636,,"Kensington Shopping Centre","",-17.80778503,31.0344677,,,0,,,
stop_0637,,"Total Service Station","",-17.89378929,30.93456459,,,0,,,
stop_0638,,"Tyres, Chitungwiza Road","",-17.92575073,30.99431038,,,0,,,
stop_0640,,"Waterfalls","",-17.92547226,31.00808334,,,0,,,
stop_0641,,"Corner Nigel Avenue and Samora Machel Road","",-17.82315826,31.08683014,,,0,,,
stop_0642,,"Pagomba","",-18.01257706,31.06386757,,,0,,,
stop_0643,,"Fourth Street Rank","",-17.83083916,31.05673218,,,0,hub_0058,,
stop_0644,,"Farm and City","",-17.87468147,30.98465538,,,0,,,
stop_0645,,"Zimre Bus Stop","",-17.87443733,31.20679474,,,0,,,
stop_0646,,"Marimba Road","",-17.8760643,30.95517731,,,0,,,
stop_0647,,"Bricks","",-17.84048271,31.2290535,,,0,,,
stop_0648,,"Chicke Slice","",-17.83218002,31.04256821,,,0,,,
stop_0649,,"Ray of Hope Church","",-17.95547676,30.96964073,,,0,,,
stop_0650,,"Bus Stop","",-18.00907898,31.10355377,,,0,,,
stop_0651,,"Fourth Street Rank","",-17.82979965,31.05518913,,,0,hub_0058,,
stop_0652,,"Bus Stop","",-17.87179947,30.93623924,,,0,,,
stop_0653,,"Mabelreign Police Camp","",-17.79881477,30.98420143,,,0,hub_0085,,
stop_0654,,"Chamboko Rank","",-17.77475929,31.16334915,,,0,,,
stop_0655,,"Warren Park Rank","",-17.83361816,30.98118019,,,0,,,
stop_0656,,"Alfred Bus Stop","",-17.80816078,31.11879921,,,0,,,
stop_0657,,"Corner Lobengula and Orange Drive","",-17.87397957,31.21665382,,,0,,,
stop_0658,,"Green House","",-17.94046974,31.00970078,,,0,,,
stop_0659,,"Mabvuku Hub","",-17.83800697,31.19765663,,,0,hub_0097,,
stop_0660,,"Corner Hilton Avenue and Lomagundi Road","",-17.77004051,31.00246048,,,0,,,
stop_0661,,"FarmShop Bus Stop","",-17.8518486,31.02555656,,,0,,,
stop_0662,,"Corner obert Mugabe Way & Mugabe Street","",-17.80272293,30.93811035,,,0,,,
stop_0664,,"102 Street Stop","",-17.88442421,30.99957848,,,0,,,
stop_0665,,"Msasa Park","",-17.86522484,31.11367035,,,0,hub_0095,,
stop_0666,,"Ravage","",-18.02353287,31.12799072,,,0,,,
stop_0667,,"Corner Drummond Road and Rhodesville Avenue","",-17.81548882,31.10588264,,,0,,,
stop_0668,,"TSF","",-17.87932014,30.98952293,,,0,,,
stop_0669,,"Corner igh Glen Road and Marimba Road","",-17.87576294,30.95474815,,,0,,,
stop_0670,,"Mbare Flats","",-17.84893036,31.04146957,,,0,,,
stop_0671,,"Budiriro 4","",-17.89422989,30.91371918,,,0,,,
stop_0672,,"Commando, Joshua Nkomo Road","",-17.85783577,31.06557274,,,0,,,
stop_0673,,"Bus Stop","",-17.85402107,30.983181,,,0,,,
stop_0674,,"Ruwa Unnamed Stop","",-17.901968,31.23814964,,,0,,,
stop_0675,,"Right Turn","",-17.66138649,31.19819069,,,0,,,
stop_0676,,"Pa L, Maharapara Road","",-18.03000259,31.07761574,,,0,hub_0105,,
stop_0677,,"Black Cabin","",-17.84861183,31.23731613,,,0,,,
stop_0678,,"Epworth Police Station","",-17.88956833,31.13034821,,,0,,,
stop_0679,,"Kirkman Road Bus Stop","",-17.78108215,30.91903496,,,0,,,
stop_0680,,"Corner Eastcourt Road and Samora Machel Avenue West","",-17.82883072,31.00738335,,,0,,,
stop_0681,,"Junction","",-17.84392929,30.94149399,,,0,,,
stop_0682,,"Glenridge College","",-17.91010666,31.15422249,,,0,,,
stop_0683,,"Corner Malta Rd & Chiremba Rd","",-17.83295059,31.07004738,,,0,,,
stop_0684,,"George Ruwa Hub","",-17.88974571,31.24004555,,,0,,,
stop_0685,,"Total Zengeza","",-18.00931549,31.06545448,,,0,,,
stop_0686,,"Makoni","",-18.01247787,31.10422134,,,0,,,
stop_0688,,"Bulawayo Road Stop","",-17.81980896,30.92042923,,,0,,,
stop_0689,,"Hatcliff, Corner 9th Crescent and 1st Street","",-17.6924324,31.10726929,,,0,,,
stop_0690,,"Tumai Kiosk","",-17.7812252,30.91862106,,,0,,,
stop_0691,,"Western Triangle","",-17.8961277,30.97014236,,,0,,,
stop_0692,,"Corner Chiremba Rd & Homestead Rd","",-17.86539841,31.10663986,,,0,,,
stop_0693,,"T.C Heart Secondary School","",-17.90190506,31.23259735,,,0,,,
stop_0694,,"Fourth Street Rank","",-17.83116341,31.05536461,,,0,hub_0058,,
stop_0695,,"Rezende Hub 2","",-17.83359528,31.04601288,,,0,hub_0038,,
stop_0696,,"Zen Car Sale","",-17.86540604,30.95936203,,,0,,,
stop_0697,,"Ziko Tollgate","",-18.03045082,31.1602993,,,0,hub_0135,,
stop_0698,,"Pamusau","",-17.86615944,30.92596245,,,0,,,
stop_0699,,"White House","",-17.91335678,31.15681267,,,0,,,
stop_0700,,"T-Junction","",-18.03184128,31.07140732,,,0,,,
stop_0701,,"Malborough Extension","",-17.74493027,31.01057625,,,0,,,
stop_0702,,"Corner Taunton Road and Pringle Road","",-17.79487038,31.15366936,,,0,,,
stop_0703,,"Gensville","",-17.74084473,31.15669632,,,0,,,
stop_0704,,"Hunyani","",-17.99489021,31.0366745,,,0,,,
stop_0705,,"Gym, High Glen Road","",-17.91318893,30.98151016,,,0,,,
stop_0707,,"Corner Mupani Road and High Glen Road","",-17.86746979,30.95174026,,,0,,,
stop_0708,,"Corner Keymer Avenue and Stansted Road","",-17.78632736,30.99242973,,,0,,,
stop_0709,,"Container","",-17.92828751,31.14173889,,,0,,,
stop_0710,,"Red Cross Centre","",-17.85558891,30.97695923,,,0,,,
stop_0711,,"Hilton Road Stop 1","",-17.91512871,31.02356148,,,0,,,
stop_0712,,"OK Parktown","",-17.89305305,31.02257156,,,0,,,
stop_0713,,"Texas","",-17.89221954,31.24960899,,,0,,,
stop_0714,,"St Philip, Unkown Stop","",-17.86442566,30.95942307,,,0,,,
stop_0716,,"C.P.C.A. Church","",-17.9623642,30.9819088,,,0,,,
stop_0717,,"Ruwa Post Office","",-17.89188004,31.23873711,,,0,,,
stop_0718,,"T-Junction","",-18.01781082,31.09455299,,,0,,,
stop_0719,,"Pacrner","",-17.74631119,31.15663338,,,0,,,
stop_0720,,"Hencatch","",-17.96344948,30.98574638,,,0,,,
stop_0721,,"Greendale Hub","",-17.81952095,31.13037109,,,0,hub_0069,,
stop_0722,,"Zaoga","",-17.80075645,30.93436432,,,0,,,
stop_0723,,"PHD Ministries","",-17.89830971,31.00337219,,,0,,,
stop_0725,,"Surface Wilmar","",-18.03350449,31.06618118,,,0,,,
stop_0726,,"Kenzim College","",-17.97031021,31.02304077,,,0,,,
stop_0727,,"Comoil Fuel Station","",-17.85604477,31.01712227,,,0,,,
stop_0728,,"Bus Stop","",-17.89783287,31.21184158,,,0,,,
stop_0729,,"Daventry","",-17.83236504,31.08322906,,,0,,,
stop_0730,,"Corner Antree Road and Enterprise Road","",-17.79857445,31.09450531,,,0,,,
stop_0731,,"Pahasha shops","",-17.90068054,30.92807198,,,0,,,
stop_0732,,"Waterfalls ZRP","",-17.8953495,31.03134918,,,0,,,
stop_0733,,"Masowe","",-17.89592361,30.93278694,,,0,,,
stop_0734,,"Saint Luke, Rhodesville Avenue","",-17.82561493,31.09629059,,,0,,,
stop_0735,,"Corner Magoda Road and Chitowa Road","",-17.88340569,30.93883514,,,0,,,
stop_0736,,"Corner Mantoba Road and Learoyd Road","",-17.84624481,31.06163979,,,0,,,
stop_0737,,"Puma Garag","",-17.82181931,30.88817024,,,0,,,
stop_0738,,"Drum, Chitungwiza Road","",-17.96749306,31.02310562,,,0,,,
stop_0739,,"Westgate Shopping Mall","",-17.7661438,30.97775269,,,0,,,
stop_0740,,"Warren Park High School","",-17.82618332,30.98239136,,,0,hub_0129,,
stop_0741,,"Masoja","",-17.89170456,31.06964111,,,0,,,
stop_0742,,"Corner Crowhill Rd & Luna Rd","",-17.70042992,31.14314079,,,0,,,
stop_0743,,"Pentecostal Holiness Church","",-17.8676548,30.92453384,,,0,,,
stop_0744,,"Uni Products","",-17.87393379,31.00347519,,,0,,,
stop_0745,,"Corner Josiah Chinamano Avenue and Seventh Street","",-17.81551552,31.05626297,,,0,,,
stop_0746,,"Right Turn","",-17.69203949,31.16337776,,,0,,,
stop_0747,,"Hopley Tuckshop","",-17.9355793,30.98714447,,,0,,,
stop_0748,,"Waterfalls Mainway","",-17.91860771,31.03102112,,,0,hub_0130,,
stop_0749,,"Total Service Station","",-17.7492218,31.0939846,,,0,,,
stop_0750,,"Mufakose High 1","",-17.87216949,30.93139076,,,0,hub_0096,,
stop_0751,,"PSG Fitting Centre","",-17.82134819,30.95586586,,,0,,,
stop_0752,,"Central Cash Butchery Bus Stop","",-17.86525536,31.02462769,,,0,,,
stop_0753,,"Corner Robert Mugabe Rd & Intez Terrace","",-17.83290482,31.0483036,,,0,hub_0027,,
stop_0754,,"Ziko Tollgate","",-18.0304985,31.16018677,,,0,hub_0135,,
stop_0755,,"Malbereign Hub","",-17.79021645,30.99832344,,,0,hub_0079,,
stop_0756,,"Saint Luke's Angllican Church","",-17.82458305,31.09705925,,,0,,,
stop_0757,,"Winchendon Shopping Centre","",-17.70940971,31.11261559,,,0,,,
stop_0758,,"Hopley Stop B","",-17.94944572,31.01147461,,,0,,,
stop_0759,,"Corner Rue Close and Fennel Avenue","",-17.86224365,31.11384773,,,0,,,
stop_0760,,"Seke Road Left Turn Stop","",-18.05784416,31.20376587,,,0,,,
stop_0761,,"Royal","",-17.92282486,30.95554733,,,0,,,
stop_0762,,"Prison Stop","",-17.81380844,31.06906319,,,0,,,
stop_0763,,"Ocean Estates Bottle Store","",-17.75828934,30.96536064,,,0,,,
stop_0764,,"Engen Filling Station","",-17.85315132,31.05072975,,,0,,,
stop_0765,,"Cimas Clinic","",-17.82152176,31.20116806,,,0,,,
stop_0766,,"Corner Rydale Ridge & Oatlands Road","",-17.86408424,30.86089325,,,0,,,
stop_0767,,"KFC, Belgravia","",-17.79398918,31.04491997,,,0,hub_0023,,
stop_0768,,"Dombo RaMwari Shops","",-17.90329933,31.14597893,,,0,hub_0048,,
stop_0769,,"Longcheng Plaza, Corner Samora Mache Avenue and Bulawayo Road","",-17.82786369,31.0044632,,,0,,,
stop_0770,,"Pamusau, Nyandoro Road","",-17.88063431,31.00018501,,,0,,,
stop_0771,,"Junction","",-18.10373688,31.23185158,,,0,,,
stop_0772,,"Corner Terenure Road and Pringle Road","",-17.79746437,31.1494503,,,0,,,
stop_0773,,"Corner Reinsurance Close and Pringle Road","",-17.79413795,31.15538216,,,0,,,
stop_0774,,"Taj Cafe and Restaurant","",-17.78790855,31.07051086,,,0,,,
stop_0775,,"Glenorah","",-17.91446114,30.96310234,,,0,hub_0062,,
stop_0776,,"Huku Bus Stop","",-17.83748627,31.205019,,,0,,,
stop_0777,,"Corner Balfour Road and Arcturus Road","",-17.80556488,31.13648224,,,0,,,
stop_0778,,"Bee Hive","",-17.96591568,30.96014977,,,0,,,
stop_0779,,"Corner Seke Road and Masotsha Ndlovu Way","",-17.89023972,31.06973076,,,0,,,
stop_0780,,"Southlands Shops","",-17.95285416,31.01265717,,,0,hub_0116,,
stop_0781,,"Shaftberry","",-17.85478592,31.07917213,,,0,,,
stop_0782,,"Accolade Academy","",-17.99543953,31.05172729,,,0,hub_0009,,
stop_0783,,"Engen Bus Stop","",-17.79572296,30.96082115,,,0,,,
stop_0784,,"ZNA National Range","",-17.81152153,31.15958023,,,0,,,
stop_0785,,"Budiriro 4 & 5","",-17.88446999,30.91704559,,,0,,,
stop_0786,,"Chishawasha Hills Hub","",-17.76388931,31.17221451,,,0,hub_0029,,
stop_0787,,"Netfuel Service Station","",-17.81770134,31.1809082,,,0,,,
stop_0788,,"Greencroft Shops","",-17.77565575,31.01130104,,,0,hub_0068,,
stop_0789,,"Corner Dieppe Road and Joshua NkomoRoad","",-17.84873772,31.06153297,,,0,,,
stop_0790,,"Lafarge Cement Sign","",-17.92988396,31.00151443,,,0,,,
stop_0791,,"Pope cl","",-17.87244606,31.08170509,,,0,,,
stop_0792,,"Kamfinsa Shops Bus Stop","",-17.80574989,31.12322235,,,0,hub_0073,,
stop_0793,,"Corner Trinity Road and Greengrove Drive","",-17.82237625,31.12634087,,,0,,,
stop_0794,,"Queendon Road Bus Stop","",-17.79358673,31.00529671,,,0,,,
stop_0795,,"Dulux","",-17.86444473,31.01724434,,,0,,,
stop_0796,,"Montagu, Harare Street","",-17.81839561,31.03872681,,,0,,,
stop_0797,,"Machipisa, Main Street","",-17.89319992,30.99038696,,,0,hub_0103,,
stop_0798,,"Arrupe Jesuit University","",-17.78067589,31.064888,,,0,,,
stop_0799,,"Zuva Service Station","",-17.79715538,31.02239037,,,0,,,
stop_0800,,"Kuwadzana 4 Unkown Stop","",-17.82588387,30.901474,,,0,,,
stop_0801,,"Carrick Creagh Bus Stop","",-17.73290062,31.13162613,,,0,,,
stop_0802,,"Waterfalls Gardens Pre School","",-18.0073967,31.03954506,,,0,,,
stop_0803,,"Kambuzuma","",-17.86453056,30.96318054,,,0,,,
stop_0804,,"VID","",-17.83003807,31.06360817,,,0,,,
stop_0805,,"Chan's Bus Stop","",-17.87423706,31.11756516,,,0,,,
stop_0806,,"T.C Heart Secondary School","",-17.89857864,31.23447227,,,0,,,
stop_0807,,"Flyover Rank, Seke Road","",-17.83724976,31.04718781,,,0,hub_0057,,
stop_0808,,"OK Houghton Park","",-17.88077545,31.01454544,,,0,,,
stop_0810,,"Corner 10th Avenue and 4th Avennue","",-17.83605957,30.98098373,,,0,,,
stop_0811,,"St Aidan's Primary School","",-18.02723694,31.08441162,,,0,,,
stop_0812,,"Baines","",-17.81830978,31.05696487,,,0,,,
stop_0813,,"Corner Jabavu Dr & Main Street","",-17.88574028,30.99809074,,,0,,,
stop_0814,,"Pamukanya","",-18.02212334,31.08383942,,,0,,,
stop_0815,,"High Street Bus Stop","",-17.83943939,31.1862793,,,0,,,
stop_0816,,"GoodHope Hub","",-17.74293137,30.95410919,,,0,hub_0066,,
stop_0817,,"Corner Drummond Road and Rhodesville Avenue","",-17.81533623,31.10592079,,,0,,,
stop_0818,,"Puma Whitehouse","",-17.82241249,30.88825607,,,0,,,
stop_0819,,"Pama Watchtower","",-17.88295746,31.09884453,,,0,,,
stop_0820,,"Corner Jampies Street and Stuhadt Avenue","",-17.84553909,31.05363655,,,0,,,
stop_0821,,"Gorge Ruwa Hub","",-17.8903389,31.24198151,,,0,hub_0060,,
stop_0822,,"Corner Mbuya Nehanda Street & Nelson Mandela Avenue","",-17.83067131,31.04261971,,,0,,,
stop_0823,,"Green Tank","",-18.02864456,31.08180428,,,0,,,
stop_0824,,"Head Office Bustop","",-18.00579453,31.06250191,,,0,,,
stop_0825,,"Chapman Christian School","",-17.66630936,31.17314529,,,0,,,
stop_0826,,"LP Gas","",-18.01363945,31.05870438,,,0,,,
stop_0827,,"Thuli Fuel","",-17.85715294,30.97476959,,,0,,,
stop_0828,,"Corner Suffolk Road and Lomagundi Road","",-17.77763939,31.02154922,,,0,,,
stop_0829,,"Corner Nyaagodo Street & Mugabe Street","",-17.800951,30.93060112,,,0,,,
stop_0830,,"Eversharp, Seke Road","",-17.85831642,31.05679131,,,0,,,
stop_0831,,"Demil","",-18.01596832,31.07777405,,,0,,,
stop_0832,,"Sisonke Shopping Centre","",-17.85531425,30.95900726,,,0,,,
stop_0833,,"Mbuya nehanda Street Hub","",-17.83353233,31.04249001,,,0,hub_0102,,
stop_0834,,"Gazeb","",-17.8440094,31.23213005,,,0,hub_0059,,
stop_0835,,"Zuva Service Station, Entreprise Road","",-17.77852821,31.13090706,,,0,,,
stop_0836,,"Coca Cola Bus Stop","",-17.8539257,31.05397034,,,0,,,
stop_0837,,"Machipisa","",-17.89411354,30.98944283,,,0,hub_0103,,
stop_0838,,"Corner Benghazi Road and Joshua Nkomo Road","",-17.84546471,31.06050682,,,0,,,
stop_0839,,"Herentials College","",-17.90282059,30.92917061,,,0,,,
stop_0840,,"Corner High Glen Road and Willowvale Road","",-17.89266396,30.96525192,,,0,,,
stop_0841,,"Mt Pleasant Pendennis","",-17.75152779,31.048666,,,0,,,
stop_0842,,"Corner Gumbe Rd & Zvimba St","",-17.90685654,30.96371841,,,0,,,
stop_0843,,"Left Turn","",-17.66127014,31.19820023,,,0,,,
stop_0844,,"Mhishi, Mufakose","",-17.86988449,30.9157505,,,0,hub_0092,,
stop_0845,,"Greystone Park, Borrowdale Road Stop","",-17.73096466,31.10643196,,,0,,,
stop_0846,,"Warren Park 2 Hub","",-17.83813477,30.97256088,,,0,,,
stop_0847,,"Tuckshop","",-18.0096283,31.08299255,,,0,,,
stop_0848,,"Teachers college","",-17.83395004,31.01005173,,,0,,,
stop_0849,,"Koala","",-17.92450523,31.07158661,,,0,,,
stop_0850,,"Gensville drive","",-17.7420578,31.154953,,,0,hub_0061,,
stop_0851,,"Telecel","",-17.84993172,31.052742,,,0,,,
stop_0852,,"Mereki","",-17.83952332,30.95867157,,,0,hub_0122,,
stop_0853,,"Dema Shops","",-18.08035469,31.21865654,,,0,hub_0047,,
stop_0854,,"Kuwadzana","",-17.8263588,30.91375351,,,0,,,
stop_0856,,"Car Park","",-17.89056969,31.13491058,,,0,,,
stop_0857,,"Corner Victoria and Newlands Bypass","",-17.81074333,31.07316971,,,0,,,
stop_0858,,"Corner Clavering Road and Harare Drive","",-17.80039787,30.98461342,,,0,,,
stop_0859,,"Eve's Bar","",-17.85486794,31.020504,,,0,,,
stop_0860,,"Wingate, Corner Harris Road and Rhodesville Avenue","",-17.81786346,31.10342026,,,0,,,
stop_0861,,"Hatfield Infant School","",-17.88035774,31.08211136,,,0,,,
stop_0862,,"Avondale Shops","",-17.80165482,31.03606224,,,0,,,
stop_0863,,"Tobacco Processors Zimbabwe Bus Stop","",-17.8597393,31.02817154,,,0,,,
stop_0864,,"The Hunter hub","",-17.83594513,31.19074821,,,0,hub_0124,,
stop_0866,,"Good Shepherd Recordz","",-17.89555931,30.94688988,,,0,hub_0020,,
stop_0867,,"Halsted Timbers Bus stop","",-17.87528992,30.97249031,,,0,,,
stop_0868,,"Sanganai","",-17.7929821,30.95541382,,,0,,,
stop_0869,,"Blue Lagon Bus Stop","",-17.78105354,31.02926636,,,0,,,
stop_0870,,"Dombo Stop Over","",-17.90898323,31.16228676,,,0,hub_0049,,
stop_0871,,"Car sales","",-17.83057022,31.07148743,,,0,,,
stop_0872,,"Tafara","",-17.82934952,31.21134949,,,0,hub_0120,,
stop_0873,,"Z.B.C. Radio Zimbabwe, Simon Mazorodze Road","",-17.85574913,31.03092957,,,0,,,
stop_0874,,"Corner Forbes Rd & Chitungwiza Rd","",-17.92993927,31.00175095,,,0,,,
stop_0875,,"Garage","",-18.00857353,31.10297203,,,0,,,
stop_0876,,"Southside Pre-school","",-17.96310616,30.9779644,,,0,,,
stop_0878,,"Corner William Powlet Drive and Borrowdale Road","",-17.70083046,31.11366272,,,0,,,
stop_0879,,"Beta Logistics","",-17.84548759,31.1362381,,,0,,,
stop_0880,,"Kingdom Church","",-18.01058197,31.04635811,,,0,,,
stop_0881,,"Norton","",-17.87933159,30.64954376,,,0,,,
stop_0882,,"Warren Park High School","",-17.82608032,30.98225021,,,0,hub_0129,,
stop_0883,,"Sunway City","",-17.86893272,31.20013428,,,0,hub_0118,,
stop_0884,,"Gwebi College","",-17.69343758,30.85716629,,,0,,,
stop_0885,,"Chikwanha Hub","",-17.99537468,31.07189751,,,0,,,
stop_0886,,"Corner Chinhoyi Street and Bank Street","",-17.83660126,31.04333496,,,0,,,
stop_0887,,"Aloe Way Bus Stop","",-17.77692032,31.01772499,,,0,,,
stop_0888,,"Corner Swan Drive and Churchill Avenue","",-17.7910099,31.0650692,,,0,,,
stop_0889,,"Pagomba","",-18.01117706,31.06789589,,,0,,,
stop_0890,,"Corner Huyton Road and Pringle Road","",-17.79682922,31.15055656,,,0,,,
stop_0891,,"Maruva","",-17.89414787,30.96030998,,,0,,,
stop_0892,,"Solar Solutions Bus Stop","",-17.82300949,31.06386375,,,0,,,
stop_0893,,"Glen Norah Hub","",-17.89498329,30.97088623,,,0,,,
stop_0894,,"Prospect Industrial","",-17.8719101,31.06406212,,,0,,,
stop_0895,,"Princess Margaret Road","",-17.74530983,30.98771477,,,0,,,
stop_0897,,"Corner Acturus Road and Unnamed Road","",-17.80816269,31.26478386,,,0,,,
stop_0898,,"Pacorner","",-17.8814888,30.92170525,,,0,,,
stop_0899,,"Zuva Service Station","",-17.87602043,31.00758934,,,0,,,
stop_0900,,"Corner Simon Mazorodze Rd & Manchester Rd","",-17.87244225,31.01986313,,,0,,,
stop_0901,,"Millennium Office Park","",-17.78472519,31.07565308,,,0,,,
stop_0902,,"Corner Econet Park Road and Samora Machel Avenue","",-17.83566093,31.10397339,,,0,,,
stop_0903,,"Coppacabana Rank","",-17.83190918,31.044384,,,0,hub_0108,,
stop_0904,,"Ariel Bus Stop","",-17.8652668,31.29097748,,,0,hub_0015,,
stop_0905,,"Corner Lyn Rd & Alpes Rd","",-17.75328636,31.07052803,,,0,,,
stop_0906,,"FedEx Bus stop","",-17.79891777,31.04502296,,,0,,,
stop_0907,,"Irvines","",-17.93388939,31.00561905,,,0,,,
stop_0908,,"Amalinda High School","",-17.92474937,30.96857071,,,0,,,
stop_0909,,"Kuwadzana 8 Shops","",-17.83002663,30.89933014,,,0,,,
stop_0910,,"Tensor Pvt Ltd","",-17.94528008,30.97813797,,,0,,,
stop_0911,,"Yellow Bus Stop","",-17.86196518,31.21777153,,,0,,,
stop_0912,,"Blue Shop","",-18.01375008,31.09957504,,,0,,,
stop_0913,,"Challote Brook","",-17.66968727,31.22457123,,,0,,,
stop_0914,,"Parktown","",-17.8908596,31.02338791,,,0,,,
stop_0915,,"Willowvale Motors","",-17.8751049,30.97621536,,,0,,,
stop_0916,,"Corner Bilton Road & Woodlands Road","",-17.91449928,31.02345085,,,0,,,
stop_0917,,"Bottlestore","",-17.90336037,31.23681068,,,0,,,
stop_0918,,"Fourth Street Rank","",-17.82958984,31.05511093,,,0,hub_0058,,
stop_0919,,"New Start Wellness Center","",-17.92800713,30.97281837,,,0,,,
stop_0920,,"Budiriro 1 and 2 Z.R.P","",-17.90306854,30.92813683,,,0,,,
stop_0921,,"Newlands Bus Stop","",-17.80981064,31.0733757,,,0,hub_0117,,
stop_0922,,"Corner Fura Avenue and Westwood Drive","",-17.85407829,30.97698593,,,0,,,
stop_0923,,"Mapuranga Hub","",-17.90252876,30.98078537,,,0,hub_0084,,
stop_0924,,"Salvation Army Church","",-18.00444984,31.0512619,,,0,,,
stop_0925,,"Colour Purple Club, Willowale Road","",-17.87706566,31.00338745,,,0,,,
stop_0926,,"Besa Primary School","",-18.03155518,31.17899895,,,0,,,
stop_0927,,"Corner Henley Drive & Ferndale Rd","",-17.91682243,31.01377487,,,0,,,
stop_0928,,"DAF, Paisely Road","",-17.85404778,31.0266304,,,0,,,
stop_0931,,"Unilever Bus Stop, Corner Stirling Road and Lytton Road","",-17.84839058,31.02928162,,,0,,,
stop_0932,,"Glen View 3 Shopping Centre","",-17.90316963,30.94187927,,,0,hub_0063,,
stop_0933,,"2nd Gate Mainway","",-17.89619446,31.05057526,,,0,,,
stop_0934,,"Sanganai","",-17.79368973,30.95717049,,,0,,,
stop_0935,,"Leopold Takawira Hub","",-17.82802773,31.0434227,,,0,,,
stop_0936,,"St. Dominic Bus Stop","",-17.82197189,31.05299377,,,0,,,
stop_0937,,"Corner Coucal Drive and Pringle Road","",-17.79952621,31.14632607,,,0,,,
stop_0938,,"University Of Zimbabwe Rank","",-17.78030968,31.05696869,,,0,,,
stop_0939,,"Pam Golding, Corner Grasme Lane and Borrowdale Road","",-17.75207901,31.09208107,,,0,,,
stop_0940,,"Mwamuka Market","",-17.86387444,31.03780365,,,0,,,
stop_0941,,"Rezende Hub 2","",-17.83651352,31.04585075,,,0,hub_0110,,
stop_0942,,"Zengeza 7 Primary School Sign","",-17.99727249,31.05433083,,,0,,,
stop_0943,,"Rhodesville","",-17.82056999,31.10152435,,,0,hub_0035,,
stop_0944,,"Corner Waterfalls Avenue & Strachan St","",-17.87818336,31.03210258,,,0,,,
stop_0945,,"Kambuzuma 3 Shops","",-17.85491371,30.97086525,,,0,,,
stop_0946,,"Booster Bus Stop, Zimre Drive","",-17.86511993,31.20577049,,,0,,,
stop_0947,,"Cnr 7th avenue and 4th Avenue","",-17.82862091,30.98179054,,,0,,,
stop_0948,,"Highfield, Main Street Stop","",-17.88580894,30.99792671,,,0,,,
stop_0949,,"Mabvuku Turnoff Bus Stop","",-17.8580761,31.17248154,,,0,,,
stop_0950,,"Glenridge High School Bus Stop","",-17.91129875,31.15509224,,,0,,,
stop_0951,,"Goodhope 2 Bus Stop","",-17.7347908,30.95454979,,,0,,,
stop_0952,,"Corner High Glen Rd & Kambuzuma Rd","",-17.86744308,30.95187187,,,0,,,
stop_0953,,"Malbereign Hub","",-17.79061699,30.99828529,,,0,hub_0079,,
stop_0954,,"Corner Glen View Way & Patrenda Street","",-17.90650558,30.94989586,,,0,,,
stop_0955,,"Damofalls","",-17.85933685,31.23963547,,,0,hub_0044,,
stop_0956,,"Mbudzi Shopping Mall, simon Mazorodze Road","",-17.92313385,30.98363495,,,0,,,
stop_0957,,"Damofalls Phase 5","",-17.85485268,31.23906326,,,0,hub_0045,,
stop_0958,,"Rezende Rank","",-17.82996941,31.04615021,,,0,,,
stop_0959,,"Maps Petroleum","",-17.78547478,30.91376495,,,0,,,
stop_0961,,"Trek Petroleum","",-17.85343361,31.04749298,,,0,,,
stop_0963,,"Noble close","",-17.87231255,31.0751667,,,0,,,
stop_0964,,"T-Junction","",-18.11971855,31.25048637,,,0,,,
stop_0965,,"Corner Chiremba Rd & Glencoe Rd","",-17.85792542,31.09204674,,,0,,,
stop_0966,,"T-Junction","",-17.88162422,30.66622353,,,0,,,
stop_0967,,"Total Msasa 2","",-17.83958435,31.12130356,,,0,,,
stop_0968,,"Masotsha Way Road Stop","",-17.89506531,31.05392456,,,0,,,
stop_0969,,"Dzivarasekwa 3, Kwayedza Street","",-17.80809402,30.92464256,,,0,,,
stop_0970,,"Muguta Secondary School Turn off","",-17.87905121,31.13069153,,,0,,,
stop_0971,,"Makoni Hub","",-18.01515388,31.10345078,,,0,hub_0082,,
stop_0972,,"Delta Beverages","",-18.01843262,31.0507431,,,0,,,
stop_0973,,"Develop It Zimbabwe Sign","",-17.89777184,30.92852402,,,0,,,
stop_0974,,"St Marys Police","",-17.98568916,31.05568314,,,0,,,
stop_0976,,"Copacabana Rank","",-17.83216667,31.04397392,,,0,hub_0108,,
stop_0977,,"Pa Tuck Shop","",-18.02511024,31.14807129,,,0,,,
stop_0978,,"PSI, Chitungwiza","",-18.00673294,31.0620327,,,0,,,
stop_0979,,"Corner 5th Street and 1st Street","",-17.69747162,31.10787582,,,0,,,
stop_0980,,"Mighty Minds Junior School","",-17.68168068,31.17279053,,,0,,,
stop_0981,,"TSF","",-17.87441826,30.99259377,,,0,,,
stop_0982,,"Bricks Bus Stop","",-17.75211906,31.12312317,,,0,,,
stop_0983,,"Corner Harare Drive & Simon Mazodze Rd","",-17.88471413,31.01182175,,,0,,,
stop_0984,,"Barracks, Kirkman Road","",-17.7823391,30.92801857,,,0,hub_0022,,
stop_0985,,"Corner Woodlands Rd & Cheviot Avenue","",-17.90890694,31.02157402,,,0,,,
stop_0986,,"Tendeseka Office, Samora Machel Avenue","",-17.82182884,31.0792675,,,0,,,
stop_0987,,"Pamarori","",-17.93354797,30.97972298,,,0,,,
stop_0988,,"Tomb Sale","",-17.98462486,31.05773354,,,0,,,
stop_0989,,"Gateway High School Bus Stop","",-17.76027107,31.03142738,,,0,,,
stop_0991,,"Nando's","",-17.75986481,31.08733177,,,0,,,
stop_0992,,"Zenda Tyres","",-18.00149155,31.05343246,,,0,,,
stop_0993,,"Pilgrims","",-17.68118286,31.11961937,,,0,,,
stop_0994,,"Corner Harare Drive and Simon Mazorodze Road","",-17.88578987,31.01048279,,,0,,,
stop_0995,,"Corner Tynwald Rd & Kirkman Rd","",-17.80545044,30.97356033,,,0,,,
stop_0996,,"Malbereign Hub","",-17.7901516,30.99831963,,,0,hub_0079,,
stop_0997,,"Corner Walmer Avenue and Samora Machel Avenue","",-17.82362938,31.08942223,,,0,,,
stop_0998,,"Malborough Extension, Admiral Tate Road","",-17.74422836,31.01135254,,,0,,,
stop_0999,,"Samora Machel Avenue Bus Stop","",-17.82438087,31.09433174,,,0,,,
stop_1000,,"Budiriro 2 Primary School","",-17.89271164,30.93646049,,,0,,,
stop_1001,,"Corner zou Road and Ashburton Avenue","",-17.85535812,31.10391045,,,0,,,
stop_1002,,"Chitungwiza, Mharapara Road Stop A","",-18.01651382,31.09627342,,,0,,,
stop_1003,,"Dreamlife Ministries Bus Stop","",-17.99326134,31.03271484,,,0,,,
stop_1004,,"Corner Leroyd Road and Joshua Nkomo Road","",-17.84638977,31.06087494,,,0,,,
stop_1005,,"Mufakose","",-17.86940193,30.91877937,,,0,,,
stop_1006,,"Corner Orange Drive Bus Stop","",-17.86831284,31.24252319,,,0,,,
stop_1008,,"Rezende Hub 2","",-17.83643913,31.04591942,,,0,hub_0110,,
stop_1009,,"Puma Filling Station","",-17.8209362,30.89404678,,,0,,,
stop_1010,,"Corner Newsead Rd & Elisabeth Windsor Rd","",-17.74635124,30.98860168,,,0,,,
stop_1011,,"Corner Balfour Road and Arcturus Road","",-17.80551529,31.13661194,,,0,,,
stop_1012,,"Pannar","",-17.89569092,31.23634148,,,0,,,
stop_1013,,"Kamfinsa Shopping Centre","",-17.80561066,31.12409019,,,0,hub_0073,,
stop_1014,,"High Glen Complex","",-17.88432312,30.95825768,,,0,,,
stop_1015,,"Domboshava","",-17.5680294,31.18460274,,,0,,,
stop_1016,,"Corner Bristol Road and Lytton Road","",-17.85061264,31.02268219,,,0,,,
stop_1017,,"Puma, Willowvale Road","",-17.88944244,30.97061348,,,0,,,
stop_1018,,"Southleigh Park","",-17.94980049,30.99770927,,,0,,,
stop_1019,,"Stoneridge Park","",-17.99103165,31.00510406,,,0,,,
stop_1020,,"Opposite Tuckshop","",-18.02590561,31.15449333,,,0,,,
stop_1021,,"Musika, Seke Road","",-18.02314186,31.13047791,,,0,,,
stop_1022,,"Worship Centre","",-17.91531944,30.96656799,,,0,,,
stop_1023,,"Avondale Shopping Centre","",-17.80265045,31.03663635,,,0,hub_0018,,
stop_1024,,"Mambo Restaurant","",-17.99296951,31.05047989,,,0,,,
stop_1025,,"AgriFoods bus stop","",-17.84004974,31.04396057,,,0,,,
stop_1026,,"Right Turn","",-17.6725769,31.16960144,,,0,,,
stop_1027,,"Mupedzanhamo Flea Market","",-17.849123,31.04065323,,,0,,,
stop_1029,,"Mabre Rank","",-17.85913086,31.03875923,,,0,hub_0089,,
stop_1030,,"Lolgan, Joshua Nkomo Road","",-17.88807678,31.08315086,,,0,,,
stop_1031,,"Green Roof","",-17.8837986,31.13278389,,,0,,,
stop_1032,,"St David's Close","",-17.8752861,31.07665443,,,0,,,
stop_1033,,"Domboshava (Showground)","",-17.56911278,31.18442345,,,0,hub_0050,,
stop_1034,,"Dzivarasekwa Bus Stop","",-17.80174828,30.92921066,,,0,hub_0053,,
stop_1036,,"Pamashops","",-17.82039452,30.97850609,,,0,,,
stop_1037,,"High Glen","",-17.875,30.95476532,,,0,,,
stop_1038,,"Star Bar & Groceries","",-17.981493,31.0107708,,,0,,,
stop_1039,,"Rufaro Stadium bus stop","",-17.85097313,31.03900909,,,0,,,
stop_1040,,"Corner Nyandoro Road and Willowvale Road","",-17.87790489,31.00019646,,,0,,,
stop_1042,,"Nyati Takeaway","",-17.87019157,30.93151093,,,0,,,
stop_1043,,"Trade Centre","",-17.87675667,31.0242691,,,0,,,
stop_1044,,"Pamusika","",-18.02531052,31.02018356,,,0,,,
stop_1045,,"Community Medical Clinic","",-18.00222015,31.06143951,,,0,hub_0007,,
stop_1046,,"Corner Harvey Brown Avenue and Prince Edward Street, Bus Stop","",-17.81297302,31.03581619,,,0,,,
stop_1047,,"St Mary's Police","",-17.98328209,31.05802155,,,0,,,
stop_1048,,"Left Turn","",-17.8646965,30.92605209,,,0,,,
stop_1049,,"Corner Scam Way and Borrowdale Road","",-17.69931602,31.11383057,,,0,,,
stop_1050,,"Panyatsime Hills Sign","",-18.00180054,31.03450775,,,0,,,
stop_1051,,"T-Junction","",-17.96183586,30.95977592,,,0,,,
stop_1052,,"OK","",-17.99365425,31.04490852,,,0,,,
stop_1053,,"Malbelreign Police Camp","",-17.7982235,30.98395729,,,0,hub_0085,,
stop_1054,,"Right Turn","",-17.67539978,31.16377831,,,0,,,
stop_1055,,"Corner Bodle Avenue and Robert Mugabe Road","",-17.82999039,31.06610489,,,0,,,
stop_1056,,"Total Garage","",-17.92586327,30.98176956,,,0,,,
stop_1057,,"Pamu Banana","",-17.85333633,30.99490929,,,0,,,
stop_1058,,"Poshai, Mharapara Road","",-18.02894402,31.08083344,,,0,,,
stop_1059,,"AMFCC","",-17.92866325,30.96059227,,,0,,,
stop_1060,,"Corner Harare Drive & Borrowdale Rd","",-17.74436951,31.09746933,,,0,,,
stop_1061,,"Helensvale Shopping Centre","",-17.73718262,31.10226631,,,0,hub_0025,,
stop_1063,,"Corner Gumbe Rd & High Glen Rd","",-17.89525414,30.96875191,,,0,,,
stop_1065,,"Simplex Saloon","",-17.96206474,30.98087502,,,0,,,
stop_1066,,"Glentwyn Rooad 2 Bus Stop","",-17.76834297,31.14697838,,,0,,,
stop_1067,,"Runhare House","",-17.82703972,31.054039,,,0,,,
stop_1068,,"Corner 10th avenue & 4th Avenue","",-17.83597755,30.98106384,,,0,,,
stop_1069,,"Oroman Hub Mbare","",-17.86016655,31.03827095,,,0,hub_0089,,
stop_1070,,"Pamatombo","",-17.88837624,31.12536812,,,0,,,
stop_1072,,"Corner Kerward Avenue and Richwell Avenue","",-17.80743217,30.99657822,,,0,,,
stop_1073,,"Mbudzi Roundabout, Simon Mazorodze Road","",-17.91973495,30.98552513,,,0,hub_0090,,
stop_1074,,"St Martin","",-17.86238861,31.05950928,,,0,,,
stop_1075,,"Maximum Support","",-17.79484367,31.19310379,,,0,hub_0088,,
stop_1077,,"Corner 89th Street","",-17.88848686,30.98169899,,,0,,,
stop_1079,,"Confrence Centre","",-17.88586426,31.03461075,,,0,,,
stop_1080,,"Winchendon","",-17.7123394,31.11244583,,,0,,,
stop_1081,,"ARDA Dairy","",-17.97900772,31.02168465,,,0,hub_0013,,
stop_1082,,"Westgate Shopping Centre","",-17.7620697,30.98103905,,,0,hub_0133,,
stop_1083,,"South Wind Bottle Store","",-17.92842865,30.97992706,,,0,,,
stop_1084,,"Pamusika Mharapara Road","",-18.01382065,31.09959984,,,0,,,
stop_1085,,"Chapman Golf Club","",-17.82065201,31.07302666,,,0,,,
stop_1086,,"Uplannds Shops","",-17.91954231,31.0249691,,,0,,,
stop_1087,,"T-Juction","",-17.73082352,30.9546833,,,0,,,
stop_1089,,"Mbare Musika Rank","",-17.8607502,31.03745461,,,0,hub_0089,,
stop_1090,,"Bus Stop","",-17.69731331,31.09222984,,,0,,,
stop_1091,,"State House","",-17.91936493,30.95637321,,,0,,,
stop_1092,,"Seke Road Stop","",-17.86361694,31.06056595,,,0,,,
stop_1094,,"Wedding Garden","",-18.08319473,31.22094154,,,0,,,
stop_1095,,"Reuben Shopping Center","",-17.90893936,31.16222,,,0,hub_0049,,
stop_1096,,"Total Service Station","",-17.83667564,31.1082325,,,0,,,
stop_1097,,"Tregaers Factory","",-17.88786316,30.97332573,,,0,,,
stop_1098,,"Dzivarasekwa Police Station","",-17.80277824,30.92777634,,,0,,,
stop_1100,,"Chirunga","",-18.03292847,31.0681572,,,0,,,
stop_1101,,"Solomio Hub","",-17.90921021,31.19755554,,,0,hub_0114,,
stop_1102,,"M and C Study Centre","",-18.07298851,31.20980453,,,0,,,
stop_1103,,"Glenview 3 shopsping Centre","",-17.90400314,30.94198418,,,0,,,
stop_1104,,"Cornerstone College","",-17.7199955,30.95392227,,,0,,,
stop_1105,,"Ashdown Park Shops","",-17.79182053,30.98192024,,,0,hub_0017,,
stop_1106,,"The Hunter hub","",-17.83602333,31.19085693,,,0,hub_0124,,
stop_1107,,"Corner Can. Chipunza Street and Ardbennie Road","",-17.86954117,31.03654289,,,0,,,
stop_1108,,"OK Marimba Bus Stop","",-17.82873726,31.00920677,,,0,,,
stop_1109,,"Msasa Park","",-17.86531639,31.11372566,,,0,hub_0095,,
stop_1110,,"Long Cheng Plaza Bus Stop","",-17.82747269,31.00297165,,,0,,,
stop_1111,,"Puma Service Station Bus Stop","",-17.83621788,31.10730171,,,0,,,
stop_1112,,"Glen Norah Flats","",-17.9141655,30.97168159,,,0,,,
stop_1114,,"Dema","",-18.08054543,31.21895409,,,0,hub_0047,,
stop_1115,,"Kenya House Bus Stop","",-17.75315857,31.09122276,,,0,,,
stop_1116,,"ZANU PF headquarters","",-17.82874489,31.03948975,,,0,,,
stop_1117,,"Machipisa Shops","",-17.89302635,30.99076843,,,0,hub_0103,,
stop_1118,,"Kuwadzana 4 Primary","",-17.82189178,30.96012688,,,0,,,
stop_1119,,"Corner Cusson Close and kaye Eddie Drive","",-17.85687256,31.1075592,,,0,,,
stop_1120,,"Whenchi","",-17.8598175,31.11465645,,,0,,,
stop_1121,,"OK Mart","",-17.83552361,31.06940269,,,0,,,
stop_1122,,"Warren Park Market","",-17.83427811,30.98113251,,,0,,,
stop_1123,,"Toyota Car Sales","",-17.83640671,31.10703278,,,0,,,
stop_1124,,"The Medical Hub","",-17.76413345,31.08697319,,,0,,,
stop_1125,,"Seke","",-18.1216526,31.25189781,,,0,,,
stop_1126,,"Corner Sebakwe Rd & Manyika St","",-17.91294289,30.96124268,,,0,,,
stop_1127,,"Inez Terrace","",-17.83291626,31.0479393,,,0,hub_0027,,
stop_1128,,"Market Square Bus Stop","",-17.83747864,31.04144287,,,0,hub_0086,,
stop_1129,,"Corner Esher Close and Cronwill Road","",-17.71889114,31.12731552,,,0,,,
stop_1130,,"Zengeza 2 Bustop","",-17.99798012,31.05553246,,,0,,,
stop_1131,,"OK","",-17.86493111,30.93045235,,,0,hub_0101,,
stop_1132,,"Wired Gate","",-18.09440994,31.22123909,,,0,,,
stop_1133,,"Total Warren Park","",-17.83268356,30.98126411,,,0,,,
stop_1134,,"Dzivarasekwa","",-17.79879379,30.93047714,,,0,hub_0037,,
stop_1136,,"Chitungwiza Hospital Hub","",-18.01543045,31.0621624,,,0,hub_0031,,
stop_1138,,"TM Ruwa Bus Stop","",-17.88345718,31.21855545,,,0,,,
stop_1139,,"Tafara 1 High School","",-17.83742523,31.1961174,,,0,,,
stop_1140,,"Overspill Shops","",-17.88271523,31.15693665,,,0,hub_0104,,
stop_1141,,"Waterfalls Unnamed Stop","",-17.89643097,31.05908966,,,0,,,
stop_1142,,"Lyndhurst Road Bus Stop","",-17.80072021,31.0195179,,,0,,,
stop_1143,,"Makombe Hub","",-17.99839783,31.05661201,,,0,,,
stop_1144,,"Arcturus","",-17.77833176,31.3167057,,,0,hub_0012,,
stop_1146,,"OK Shops","",-17.86481476,30.93040848,,,0,hub_0101,,
stop_1147,,"Corner First Street and Bulwayo Road","",-17.81947708,30.9171257,,,0,hub_0034,,
stop_1148,,"Flats","",-17.87880898,30.9948101,,,0,,,
stop_1149,,"Corner Teviotdale Rd & Whitwell Rd","",-17.76876259,31.07043839,,,0,,,
stop_1150,,"Cottco Zimbabwe","",-17.84683609,31.03356934,,,0,,,
stop_1151,,"Corner Fleming Rd & Lyndon Moore Rd","",-17.86474991,31.00636292,,,0,hub_0039,,
stop_1152,,"Besa Turn Off","",-18.03775024,31.17744827,,,0,,,
stop_1153,,"Show House","",-17.8989563,31.08121109,,,0,,,
stop_1154,,"Tavaka","",-17.93574524,30.97958946,,,0,,,
stop_1155,,"Simon Mazorodze Flyover, Rotten Row Road","",-17.84646988,31.03800583,,,0,hub_0113,,
stop_1156,,"Parklane Hub","",-17.82700157,31.04446793,,,0,hub_0107,,
stop_1157,,"Corner Henley Drive and Forbes Rd","",-17.92238617,31.01512718,,,0,,,
stop_1158,,"Corner Suffolk Rd & Lomagundi Road","",-17.7775898,31.02164459,,,0,,,
stop_1160,,"Nyandoro","",-17.89724922,30.98626518,,,0,,,
stop_1161,,"Corner Athlone Avenue and Wilson Drive","",-17.82697487,31.12536049,,,0,,,
stop_1162,,"Duku Road","",-18.01934242,31.07866478,,,0,,,
stop_1163,,"Chikwanha Hotel, Seke Road","",-17.99277496,31.07373047,,,0,,,
stop_1164,,"Sunway City","",-17.87055206,31.2021904,,,0,,,
stop_1165,,"Mhazvi Wholesale","",-17.62461281,31.14671326,,,0,,,
stop_1166,,"Mabvuku Pakamunhu Hub","",-17.83849335,31.19865799,,,0,,,
stop_1167,,"Christchurch Avenue","",-17.80694962,31.02603912,,,0,,,
stop_1169,,"Red Cross National Training Centre","",-17.85658264,30.97710991,,,0,,,
stop_1170,,"Madokero","",-17.78052902,30.96928787,,,0,,,
stop_1171,,"Xerox Bus Stop","",-17.78489304,31.03399658,,,0,,,
stop_1172,,"Warren Park","",-17.84092712,30.97218704,,,0,,,
stop_1173,,"Barclays Bank, Paisley Road","",-17.85319519,31.02606773,,,0,hub_0021,,
stop_1174,,"Junction","",-17.95765305,31.01425362,,,0,,,
stop_1175,,"Stop Borner Gumbe Road and High Glen Road","",-17.89531898,30.96871376,,,0,,,
stop_1176,,"Southlands Shops","",-17.95305443,31.01282883,,,0,hub_0116,,
stop_1177,,"Lafarge Bus Stop","",-17.86458778,31.24485397,,,0,,,
stop_1178,,"Bridge","",-17.9234581,30.96717644,,,0,,,
stop_1179,,"Town Centre","",-18.00888824,31.08178711,,,0,hub_0127,,
stop_1180,,"Engen Service Station","",-17.87503242,30.9762516,,,0,,,
stop_1181,,"Wobble bees","",-17.87103271,31.21468353,,,0,,,
stop_1182,,"Welcome","",-18.02308464,31.12410164,,,0,,,
stop_1183,,"Left Turn","",-17.8867569,31.16097069,,,0,,,
stop_1184,,"Puma Service Station","",-17.87911034,31.07880592,,,0,,,
stop_1185,,"Corner George Silundika Avenue & Fourth Street","",-17.82871628,31.05454826,,,0,,,
stop_1186,,"Gaydon Road Stop","",-17.76312256,31.12252998,,,0,,,
stop_1187,,"Mbare Rank","",-17.86101913,31.03894806,,,0,hub_0089,,
stop_1188,,"Bus Stop","",-17.85060501,31.14639091,,,0,,,
stop_1190,,"Gatland Road 3 Stop","",-17.8439579,30.87548065,,,0,,,
stop_1191,,"Pakona Pezvidavado","",-17.83792686,31.30617905,,,0,,,
stop_1192,,"Corner Nelson Mandela Avenue & Seventh Street","",-17.8267746,31.05905533,,,0,,,
stop_1193,,"Corner Daveyton Road and Robert Mugabe Road","",-17.83202362,31.08037949,,,0,,,
stop_1194,,"Corner 176th Avenue & 11th Avenue","",-17.82039833,30.97857094,,,0,,,
stop_1195,,"Crowhill Primary School","",-17.691185,31.15354156,,,0,,,
stop_1197,,"Mudaz Connection","",-18.05170631,31.19758606,,,0,,,
stop_1198,,"Green House","",-17.94044495,31.00977325,,,0,,,
stop_1199,,"Damofalls Phase 1 and 2 Pamusasa Rank","",-17.8631115,31.24262428,,,0,,,
stop_1200,,"Kamfinsa Shops Bus Stop","",-17.80595016,31.12332535,,,0,hub_0073,,
stop_1201,,"Ashdown Park Shops","",-17.79198265,30.98137283,,,0,hub_0017,,
stop_1202,,"Jacha","",-17.89007187,31.14065742,,,0,hub_0071,,
stop_1203,,"Sally Mugabe","",-17.65629959,31.17515373,,,0,,,
stop_1204,,"Bus Stop","",-17.72234344,30.89215088,,,0,,,
stop_1206,,"MMCZ Bus Stop","",-17.83755875,31.11121559,,,0,,,
stop_1207,,"Chamboko Rank","",-17.77470589,31.1633358,,,0,,,
stop_1208,,"Tafara High 1 Turn off","",-17.83704758,31.19523239,,,0,,,
stop_1209,,"Salvation Army Church","",-17.99330521,31.04596519,,,0,,,
stop_1210,,"Corner Canberra Road and Lytton Road","",-17.85651016,31.00592804,,,0,,,
stop_1211,,"Tafara","",-17.82956505,31.21146202,,,0,hub_0120,,
stop_1212,,"Corner Anthony Road and Samora Machel Avenue","",-17.83699989,31.11001205,,,0,,,
stop_1213,,"Corner Horseferry Road and Richwell Avenue","",-17.80592155,30.99023247,,,0,,,
stop_1214,,"Construction site, Bulawayo Road Bus stop","",-17.81928444,30.9125824,,,0,,,
stop_1215,,"Fundo Council Primary School","",-17.8106842,30.92782211,,,0,,,
stop_1216,,"Corner Learoyd Road and Malta Road","",-17.84567261,31.0650959,,,0,,,
stop_1217,,"Hebert Bus Stop","",-17.83210182,31.08044624,,,0,,,
stop_1218,,"Mabvuku High School","",-17.83803368,31.18787384,,,0,,,
stop_1219,,"Hurudza Tavern","",-17.83774948,31.20428467,,,0,,,
stop_1220,,"2nd Road Stop","",-17.8923111,30.93753433,,,0,,,
stop_1221,,"Richwell Gardens","",-17.80675125,30.99367905,,,0,,,
stop_1222,,"Thuli Service Station","",-17.85717583,30.97494507,,,0,,,
stop_1223,,"Rainbow Pre School","",-17.91315079,31.0383358,,,0,,,
stop_1224,,"Zimre Park, Lemon Drive","",-17.87170029,31.21422386,,,0,,,
stop_1225,,"Mbuya Dorcas Hospital, Masotsha Ndlovu Way","",-17.89308739,31.06291008,,,0,,,
stop_1226,,"Mabelrigh, Harare Drive Stop","",-17.80208015,30.98526573,,,0,,,
stop_1228,,"Life Pharmacy","",-17.84651375,31.05209541,,,0,,,
stop_1229,,"Green Tank","",-17.84246254,31.1826458,,,0,,,
stop_1230,,"Helensvale Shopping Centre","",-17.73766899,31.10292244,,,0,hub_0025,,
stop_1231,,"Keldon","",-17.88035011,31.07043648,,,0,,,
stop_1232,,"ATZ","",-17.88878441,30.97179604,,,0,,,
stop_1233,,"Puma Service Station Bus Stop","",-17.78964043,30.99764061,,,0,,,
stop_1234,,"Main Street Stop A","",-17.88832855,30.99534225,,,0,,,
stop_1235,,"Muhacha","",-17.86615372,30.95652771,,,0,,,
stop_1236,,"Supernova","",-18.00244141,31.0752964,,,0,,,
stop_1237,,"Stephen Margolis Resort","",-17.96187592,31.02237892,,,0,,,
stop_1238,,"National Sports Stadium Bus Stop","",-17.82582664,30.99692345,,,0,,,
stop_1239,,"Chitungwiza Stop B","",-18.02617073,31.05993462,,,0,,,
stop_1241,,"Borrowdale Villa","",-17.69664955,31.11494255,,,0,,,
stop_1242,,"Prospect Primary School","",-17.89486122,31.05605125,,,0,,,
stop_1243,,"Golden Barn Tobacco Bus Stop","",-17.87515068,30.97537804,,,0,,,
stop_1244,,"Zuva Service Station","",-17.84222984,31.18306541,,,0,,,
stop_1245,,"Travel Plaza","",-17.81815147,31.04619408,,,0,,,
stop_1246,,"Corner Hives Road and Samora Machel Avenue","",-17.83781815,31.11270142,,,0,,,
stop_1247,,"Seed Cop","",-17.66273308,31.21756172,,,0,,,
stop_1248,,"Kanoruma Walling and Bricks","",-17.82733536,31.19381523,,,0,,,
stop_1250,,"DC campus","",-17.79530716,31.15274048,,,0,,,
stop_1251,,"Bloomingdale, Harare Road Stop","",-17.7904644,30.98796654,,,0,,,
stop_1252,,"Pa Corner","",-17.95951843,30.96759415,,,0,,,
stop_1253,,"Four Ways Bus Stop","",-17.91100693,31.04581833,,,0,,,
stop_1256,,"KFC, Belgravia","",-17.79405022,31.04501915,,,0,hub_0023,,
stop_1258,,"TSF bonus Stop","",-17.87451553,30.99069023,,,0,,,
stop_1259,,"Corner St Patrick's Road and Chiremba Road","",-17.86546326,31.10658646,,,0,,,
stop_1260,,"Pakabaya","",-17.81413651,30.96922684,,,0,,,
stop_1261,,"Eastview","",-17.81998253,31.25048637,,,0,hub_0056,,
stop_1262,,"Matapi Police Station","",-17.85362434,31.04293251,,,0,,,
stop_1263,,"Mutangaz Bottle store","",-17.93814468,31.29366112,,,0,,,
stop_1264,,"Suffolk Road Stop","",-17.78006172,31.02112389,,,0,,,
stop_1265,,"Machipisa","",-17.89217758,30.99141121,,,0,hub_0103,,
stop_1266,,"Peoples Market","",-17.75590134,31.00084877,,,0,,,
stop_1267,,"KFC, Belgravia","",-17.79394913,31.04504013,,,0,hub_0023,,
stop_1268,,"Green House","",-17.89250946,30.94499207,,,0,,,
stop_1269,,"T-Junction","",-17.99435616,31.02525139,,,0,,,
stop_1270,,"Tyre Sale","",-17.88695335,30.9592762,,,0,,,
stop_1272,,"L.T.M. Shops","",-17.96393776,30.98745918,,,0,hub_0078,,
stop_1273,,"Corner Chiremba Rd & Wheeler Avenue","",-17.83167267,31.07014847,,,0,,,
stop_1276,,"Mudaz Connection","",-18.04460335,31.18605995,,,0,,,
stop_1277,,"GMB Sign","",-17.8632164,30.96593285,,,0,,,
stop_1280,,"Intersection","",-18.02259254,31.05575562,,,0,,,
stop_1281,,"Shalom Junior School","",-17.85725021,30.96182251,,,0,,,
stop_1282,,"Pringle Road Bus Stop","",-17.80525589,31.1373558,,,0,,,
stop_1283,,"Edgar's","",-17.85209465,31.03370476,,,0,,,
stop_1284,,"Chitungwiza, Padudzai","",-18.01832771,31.07657814,,,0,hub_0032,,
stop_1287,,"Bonybrook Road Stop","",-17.8493576,31.17407036,,,0,,,
stop_1288,,"Panyatsime Hills","",-17.99840164,31.02940941,,,0,,,
stop_1290,,"Corner Park Lane and Harare Street","",-17.82791328,31.04122543,,,0,,,
stop_1291,,"Tower Light","",-17.81690598,30.91968346,,,0,,,
stop_1292,,"T-Junction","",-17.90306091,31.23450851,,,0,,,
stop_1293,,"Glow Petroleum, Willowvale Road","",-17.88149071,30.98374176,,,0,,,
stop_1294,,"Corner Cheviot Avenue and Henley Drive","",-17.91249275,31.01236343,,,0,,,
stop_1295,,"Golden Kids Center","",-17.80503845,31.12618446,,,0,,,
stop_1297,,"Lorraine","",-17.78853226,30.9895134,,,0,,,
stop_1298,,"Warren Park","",-17.82556725,30.98673439,,,0,,,
stop_1299,,"Corner Harare Drive and Twentydales Road","",-17.88913727,31.10834503,,,0,,,
stop_1300,,"Glenorah","",-17.91433144,30.96287918,,,0,hub_0062,,
stop_1303,,"Corner Manchester Road and Highfield Road","",-17.86822891,31.01333046,,,0,,,
stop_1304,,"Budiriro","",-17.90543747,30.93115234,,,0,,,
stop_1305,,"First Class Academy","",-18.02322578,31.02419281,,,0,,,
stop_1306,,"Telone, Corner Hampden Street and Samora Machel Avenue","",-17.82889366,31.02393341,,,0,,,
stop_1307,,"Seke 3 left Turn","",-18.03193855,31.0713501,,,0,,,
stop_1308,,"Mark Green Wave","",-17.99048996,31.05210495,,,0,,,
stop_1309,,"Elephant High School Bus Stop","",-17.76428223,30.99353409,,,0,,,
stop_1312,,"Tafara High 1 Turnoff","",-17.83708382,31.19511223,,,0,,,
stop_1313,,"Pepsi Zimbabwe Bus Stop","",-17.87680626,31.01735115,,,0,,,
stop_1314,,"Gombo Government Primary School","",-17.80512238,30.92468452,,,0,,,
stop_1315,,"Penyai Shops","",-17.81916428,30.97867584,,,0,,,
stop_1316,,"Murape Secondary School","",-18.05067444,31.19585037,,,0,,,
stop_1317,,"Chishawasha Hills Hub","",-17.76399231,31.17242241,,,0,hub_0029,,
stop_1318,,"Prospect","",-17.88656998,31.05761909,,,0,,,
stop_1319,,"Corner Saint Patricks's Road and Twentydales Road","",-17.87363052,31.09580994,,,0,hub_0043,,
stop_1320,,"AGCO Agriculture Company","",-17.85274887,31.02639008,,,0,,,
stop_1321,,"St Mary's Clinic","",-17.99438858,31.04217148,,,0,,,
stop_1322,,"Stop 2, 2nd Road","",-17.89247513,30.94215012,,,0,,,
stop_1324,,"Car Junk Yard","",-17.79972458,30.9676342,,,0,,,
stop_1326,,"Hatcliff 1st Bus Stop","",-17.66507721,31.0880146,,,0,,,
stop_1327,,"Inez Terrace","",-17.83370972,31.04842949,,,0,,,
stop_1328,,"Boka","",-17.93157387,30.97967529,,,0,,,
stop_1329,,"Harare Central Hospital","",-17.86041641,31.01831055,,,0,,,
stop_1330,,"Southley Park, Seventh Day Adventist","",-17.96501923,30.99178505,,,0,,,
stop_1331,,"Masowe","",-17.95833588,30.97681236,,,0,,,
stop_1332,,"High Glen Complex","",-17.88480949,30.95861435,,,0,,,
stop_1333,,"Right Turn","",-17.67387199,31.18606758,,,0,,,
stop_1336,,"Engen Filing Station, Gleneagles Road","",-17.87511826,30.97596359,,,0,,,
stop_1337,,"Seke Teachers College Sign","",-18.01131821,31.10275459,,,0,,,
stop_1338,,"High Glen Road Stop","",-17.90611458,30.98237419,,,0,,,
stop_1339,,"Corner Harare Street & Chatter Road","",-17.84074593,31.04132652,,,0,,,
stop_1340,,"Prospect","",-17.88829422,31.05617142,,,0,,,
stop_1341,,"Maharapara Road, Left Turn Stop","",-18.02783966,31.08342934,,,0,,,
stop_1342,,"Damofalls Phase 3 and 4 Rank","",-17.85957909,31.23221779,,,0,hub_0046,,
stop_1343,,"B and P Study Centre","",-17.99983025,31.07530975,,,0,hub_0019,,
stop_1344,,"Methodist Church","",-17.79751778,30.99858475,,,0,,,
stop_1345,,"Paright","",-17.90356064,31.23577881,,,0,,,
stop_1347,,"Banc ABC","",-17.8566227,31.0246048,,,0,,,
stop_1348,,"Mabika Drive","",-18.0235405,31.13670921,,,0,,,
stop_1349,,"B and P Study Centre","",-17.99974632,31.07506371,,,0,hub_0019,,
stop_1350,,"Corner Ottawa Crescent and Learoyd Road","",-17.84566689,31.06351471,,,0,,,
stop_1352,,"Kirkman Road Stop","",-17.78785706,30.94291496,,,0,,,
stop_1353,,"TC Superchoice Bus Stop","",-17.91290665,30.97715569,,,0,,,
stop_1355,,"Pezulu Farm Produce","",-17.80272865,31.09924316,,,0,,,
stop_1358,,"Belvedere Shopping Centre","",-17.81945992,31.02401924,,,0,hub_0024,,
stop_1359,,"Bus Stop","",-17.76814079,31.1476078,,,0,,,
stop_1360,,"T-Junction","",-17.92583466,30.99461174,,,0,,,
stop_1362,,"Corner Hurworth Road and Enterprise Road","",-17.79719543,31.09764099,,,0,,,
stop_1363,,"Nyashadzamwari Shops","",-18.01868248,31.09342766,,,0,,,
stop_1364,,"Netfuel","",-17.73443031,31.12978363,,,0,,,
stop_1365,,"Rufaro Stadium Bus Stop","",-17.85149574,31.03845978,,,0,,,
stop_1366,,"Barclays Bank, Paisley Road","",-17.85338593,31.0260582,,,0,hub_0021,,
stop_1368,,"CSC","",-17.87459564,30.98672485,,,0,,,
stop_1370,,"Good Hope","",-17.74293709,30.95415115,,,0,hub_0066,,
stop_1371,,"Maroon Gate","",-17.87763023,31.12491989,,,0,,,
stop_1372,,"Mt Hampden Shops","",-17.74396324,30.9313221,,,0,,,
stop_1373,,"Total Service Station","",-17.90463638,30.9502964,,,0,,,
stop_1374,,"Tuck Shop 2","",-17.65841675,31.20380402,,,0,,,
stop_1375,,"Corner Lyndhurst Road and Quendon Road","",-17.80062294,31.01962662,,,0,,,
stop_1376,,"Spar Shop Arcadia, Stuhadt Avenue","",-17.84653091,31.0521431,,,0,,,
stop_1377,,"Bus Stop","",-17.86335945,31.23226929,,,0,,,
stop_1378,,"Zimre Primary Turnoff Bus Stop","",-17.86151886,31.2151947,,,0,,,
stop_1379,,"Mbare","",-17.85869598,31.03679657,,,0,hub_0089,,
stop_1380,,"Corner Winchcombe Road and Gaydon Road","",-17.75590706,31.12578964,,,0,,,
stop_1381,,"Corner Tatend Road and Seke Road","",-18.00314522,31.09078789,,,0,,,
stop_1382,,"Mereki","",-17.83920479,30.9585247,,,0,hub_0122,,
stop_1384,,"Harare Road Bus Stop","",-17.80279541,30.98550797,,,0,,,
stop_1386,,"Stephen Margolis Resort","",-17.96124268,31.0221138,,,0,,,
stop_1387,,"Hunyani","",-17.85884094,31.02276039,,,0,,,
stop_1388,,"Focus Academy","",-17.90019035,30.92798424,,,0,,,
stop_1389,,"Hilton Road Stop 2","",-17.91592216,31.02022362,,,0,,,
stop_1391,,"Corner DR Nyamusa Road and Kirkman Road","",-17.793787,30.95723343,,,0,,,
stop_1392,,"Sisonke Shopping Centre Kambuzuma","",-17.85429955,30.95810318,,,0,,,
stop_1393,,"Corner 11th Avenue Willowvale Road","",-17.89783478,30.94046974,,,0,,,
stop_1394,,"Chiremba Road Stop","",-17.86040878,31.09750938,,,0,,,
stop_1395,,"Damofalls Park, Unkown Left Turn Stop","",-17.84856415,31.24133873,,,0,,,
stop_1396,,"ARDA Dairy","",-17.97909927,31.0218792,,,0,hub_0013,,
stop_1397,,"Pachinhamo","",-17.93708801,31.07096863,,,0,,,
stop_1398,,"Central Police Station","",-17.83513832,31.04647827,,,0,,,
stop_1399,,"Glen View 3 Shoppping Centre","",-17.90294647,30.94182014,,,0,hub_0063,,
stop_1400,,"Corner 5th Avenue and Ardbennie Road","",-17.86160469,31.03785515,,,0,,,
stop_1401,,"Zimbiru Primary School","",-17.61938095,31.14936447,,,0,,,
stop_1402,,"Corner Porter Rd","",-17.90447807,31.01576614,,,0,,,
stop_1404,,"Masotsha Ndlovu Way Meadows","",-17.89544868,31.05069351,,,0,,,
stop_1405,,"Waterfalls Left Turn Stop","",-17.89887428,31.05944824,,,0,,,
stop_1406,,"Corner George Walker Road and Kilwinning Road","",-17.8752079,31.08326149,,,0,,,
stop_1407,,"Corner 12th Avenue and Willowavale Road","",-17.89669991,30.94378853,,,0,,,
stop_1408,,"Wezhire Shopping Centre","",-17.82889748,30.90011024,,,0,,,
stop_1409,,"Chitungwiza, Padudzai","",-18.0177803,31.07577515,,,0,hub_0032,,
stop_1410,,"Machipisa, Main Street","",-17.89426041,30.98937416,,,0,hub_0103,,
stop_1411,,"Chigayo Bus Stop","",-17.90499878,31.21065903,,,0,,,
stop_1413,,"Show Grounds hub","",-17.82958221,31.03261757,,,0,,,
stop_1414,,"Long Chen Plaza","",-17.82588387,31.00491714,,,0,,,
stop_1415,,"Corner Chaminuka Road and Chitungwiza Road","",-17.99588776,31.02664566,,,0,,,
stop_1416,,"Vainona","",-17.7582016,31.07000732,,,0,,,
stop_1417,,"Glenorah Community Centre","",-17.91275215,30.97762871,,,0,,,
stop_1418,,"Eastlea Shops","",-17.82129669,31.07640266,,,0,hub_0055,,
stop_1419,,"Dema","",-18.0778389,31.21560669,,,0,,,
stop_1420,,"Nyatsime College, Seke Road","",-18.00212669,31.0845871,,,0,,,
stop_1422,,"Corner Monavale Road and Princess Drive","",-17.81664085,31.01373672,,,0,,,
stop_1423,,"Spar Shops, Kilwinning Road","",-17.87924576,31.08872414,,,0,,,
stop_1424,,"Angwa Street Stop","",-17.83059692,31.04829788,,,0,,,
stop_1425,,"Nazerth House Bus Stop","",-17.79417038,31.10330009,,,0,,,
stop_1426,,"Hellenic School","",-17.78657722,31.0728817,,,0,,,
stop_1427,,"Chinembiri Primary School","",-18.01538467,31.09768105,,,0,,,
stop_1428,,"Zuva Service Station","",-17.88220406,31.07018089,,,0,,,
stop_1429,,"Southerton Post Office","",-17.86190414,31.01921082,,,0,,,
stop_1430,,"Thatched Tuckshop","",-18.05696869,31.20334244,,,0,,,
stop_1431,,"Bus Stop","",-17.86456299,31.23999214,,,0,,,
stop_1432,,"Cyprus Gardens","",-17.81748772,30.93392754,,,0,,,
stop_1433,,"Msasa Shops","",-17.83794975,31.11450768,,,0,,,
stop_1434,,"Population Service","",-18.01049232,31.05284691,,,0,,,
stop_1435,,"Puma Bus Stop","",-17.87638092,31.03731155,,,0,,,
stop_1436,,"Corner Harare Drive and Samora Machel Avenue, Bus Stop","",-17.84338951,31.13169289,,,0,,,
stop_1437,,"Airport Hub","",-17.91173553,31.09537506,,,0,hub_0010,,
stop_1438,,"Corner Joshua Nkomo Road and Saint Patrick's Road","",-17.88126564,31.07961464,,,0,,,
stop_1440,,"Show Ground Bus Stop","",-17.82904625,31.02910233,,,0,,,
stop_1441,,"Corner St Patrick's Road and Seke Road","",-17.88575363,31.07018471,,,0,,,
stop_1443,,"Mereki","",-17.83875847,30.95805168,,,0,hub_0122,,
stop_1444,,"Corner Portland Road and Lytton Road","",-17.85852242,31.00047112,,,0,,,
stop_1445,,"Telecel, Seke Road","",-17.85581589,31.05516815,,,0,,,
stop_1446,,"LP Gas","",-17.84996223,31.08122826,,,0,,,
stop_1447,,"Greydon Road Bus Stop","",-17.75821686,31.12540817,,,0,,,
stop_1448,,"T-Junction","",-17.897295,31.05079842,,,0,,,
stop_1449,,"Kent Academy, Masotsha Ndlovu Way","",-17.89107704,31.0677681,,,0,,,
stop_1450,,"Hurudza Tavern","",-17.83769035,31.20425034,,,0,,,
stop_1451,,"Holy Cross Paradise","",-17.89679337,30.93182373,,,0,,,
stop_1452,,"Irvines","",-17.93440819,31.00587273,,,0,,,
stop_1453,,"Mbare Hub","",-17.85898399,31.03674507,,,0,hub_0089,,
stop_1454,,"Chibamu","",-17.83278465,31.3228569,,,0,,,
stop_1456,,"Gate Sale","",-18.01626205,31.07439804,,,0,,,
stop_1457,,"Lomagundi Road","",-17.76375198,30.99061394,,,0,,,
stop_1458,,"Northfield Bus Stop","",-17.81572342,31.05133629,,,0,,,
stop_1459,,"Grocery Inn Wholesale","",-17.88139534,30.91846275,,,0,hub_0070,,
stop_1460,,"Leopold Takawira Hub","",-17.82753754,31.04511452,,,0,,,
stop_1462,,"Machipisa Hub","",-17.89200592,30.99167824,,,0,hub_0103,,
stop_1463,,"Corner North Way and Seke Road","",-17.88159561,31.07018852,,,0,,,
stop_1464,,"Mapuranga Hub","",-17.90263176,30.98077202,,,0,hub_0084,,
stop_1465,,"Glen View 3 Shoppping Centre","",-17.90288162,30.94175339,,,0,hub_0063,,
stop_1467,,"Cranborne","",-17.85411072,31.07777405,,,0,,,
stop_1468,,"Corner Donnybrook Road and Delport Road","",-17.85547447,31.16979408,,,0,,,
stop_1469,,"Barbour","",-17.85198212,31.07957268,,,0,,,
stop_1470,,"Sunway City","",-17.86913109,31.20000839,,,0,hub_0118,,
stop_1471,,"Bus Stop","",-17.76399994,31.15930367,,,0,,,
stop_1473,,"Grocery Inn Wholesale","",-17.88126945,30.91923332,,,0,,,
stop_1474,,"Barber","",-17.89011765,31.13994598,,,0,,,
stop_1475,,"Dzivarasekwa","",-17.79885674,30.93052673,,,0,hub_0037,,
stop_1476,,"Mkwisi, Msasa Drive","",-17.85673141,31.1111145,,,0,,,
stop_1477,,"Maximum Support","",-17.79473877,31.19301414,,,0,hub_0088,,
stop_1478,,"Mapuranga Hub","",-17.90189934,30.98011589,,,0,hub_0084,,
stop_1479,,"Gain Cash and Carry","",-18.02240562,31.05542755,,,0,,,
stop_1480,,"Bema Road Bus Stop","",-17.73079109,30.96328163,,,0,,,
stop_1482,,"Southleigh Park","",-17.94908142,30.9972744,,,0,,,
stop_1483,,"Rezende Hub 2","",-17.83336639,31.04608536,,,0,hub_0038,,
stop_1484,,"Pamsika","",-17.82349586,30.90226555,,,0,,,
stop_1485,,"Avondale Police Station Bus Stop","",-17.79400253,31.03339958,,,0,,,
stop_1486,,"N. Richards Bus Stop, Corner Tynwal Road and Bulwayo Road","",-17.8217659,30.9612484,,,0,,,
stop_1487,,"Car Wash","",-18.02459908,31.14291,,,0,,,
stop_1488,,"Manresa Turn Off","",-17.81846619,31.17331696,,,0,,,
stop_1489,,"Bus Stop","",-17.76515579,31.15251541,,,0,,,
stop_1490,,"Flats Bus Stop, Corner Ridgeview Drive and Quendon Road","",-17.79820824,31.01197243,,,0,,,
stop_1491,,"Rejoice Pre-School","",-17.85566902,30.97516251,,,0,,,
stop_1492,,"Corner Harris Road and Rhodesville Avenue","",-17.81766129,31.10359573,,,0,,,
stop_1493,,"Apostolic Church of Christ","",-18.02219009,31.12124062,,,0,hub_0011,,
stop_1494,,"T-jucntion","",-17.80270386,30.94184303,,,0,,,
stop_1495,,"National Railways Bus Stop","",-17.83455849,31.0522728,,,0,,,
stop_1497,,"Tuck Shop","",-17.95117569,30.97150803,,,0,,,
stop_1499,,"Corner Kambuzuma Road and High Glen Road","",-17.86792946,30.95200539,,,0,,,
stop_1500,,"Right Turn","",-17.68016434,31.17897034,,,0,,,
stop_1501,,"Corner George Road and Joshua Nkomo Road","",-17.86823654,31.07299995,,,0,,,
stop_1502,,"Puma Service Station Bus Stop","",-17.82233238,31.10045052,,,0,,,
stop_1503,,"Gazeb","",-17.8443203,31.23227692,,,0,hub_0059,,
stop_1504,,"Dreadlock waxing","",-17.90176773,31.23239326,,,0,,,
stop_1505,,"Parklane Hub","",-17.82672501,31.04561996,,,0,,,
stop_1506,,"Makomac Trading","",-17.97233963,31.0229454,,,0,,,
stop_1507,,"Fingold","",-17.69517326,31.11544037,,,0,,,
stop_1508,,"Bus Stop, Dieppe Road","",-17.85256386,31.05402565,,,0,,,
stop_1509,,"Dzivarasekwa High 1 School","",-17.81235886,30.92545509,,,0,,,
stop_1510,,"Puma Filling Station","",-17.82274246,31.10016632,,,0,,,
stop_1511,,"Catholic Church","",-17.61104965,31.15418816,,,0,,,
stop_1512,,"Chikwanha Engine Station","",-17.99374962,31.07095718,,,0,,,
stop_1513,,"Somos Foods","",-17.99540329,31.03763199,,,0,,,
stop_1514,,"Chiremba Road","",-17.86167336,31.10039902,,,0,,,
stop_1515,,"Kuwadzana 8 Shops","",-17.82725143,30.90089226,,,0,,,
stop_1516,,"Pana First","",-17.90227318,30.95133209,,,0,,,
stop_1517,,"Shades","",-17.65572548,31.19870949,,,0,,,
stop_1519,,"Solomio Hub","",-17.90916443,31.19747734,,,0,hub_0114,,
stop_1520,,"Tuck Shop","",-17.68065834,31.17335892,,,0,,,
stop_1521,,"Upstairs","",-17.86103249,31.09885406,,,0,,,
stop_1522,,"Corner Jason Moyo Avenue & Mbuya Nehanda Street","",-17.83139992,31.04265976,,,0,hub_0040,,
stop_1523,,"Glenorah Police Station","",-17.89493942,30.96800041,,,0,,,
stop_1524,,"Corner kilwinning Road and St Andrews Road","",-17.87044525,31.08061409,,,0,,,
stop_1525,,"Queensdale Spar","",-17.85429573,31.08767128,,,0,hub_0109,,
stop_1527,,"Star FM","",-17.86815643,31.02272034,,,0,,,
stop_1528,,"Barracks, Kirkman Road","",-17.78226089,30.9279995,,,0,hub_0022,,
stop_1529,,"Ruwa Shops 2","",-17.90297127,31.23750877,,,0,,,
stop_1530,,"Pafrank","",-17.84353256,31.30474663,,,0,,,
stop_1532,,"Rezende Hub 2","",-17.83338928,31.0459938,,,0,hub_0038,,
stop_1533,,"Pamugum","",-17.86292076,31.28341484,,,0,,,
stop_1534,,"Right Turn","",-17.67994118,31.17511559,,,0,,,
stop_1535,,"Mimi's Kitchen","",-17.91919136,30.98619461,,,0,,,
stop_1536,,"T-Junction","",-18.01126862,31.05279541,,,0,,,
stop_1537,,"Good Shepherd Recordz","",-17.89550972,30.94738388,,,0,hub_0020,,
stop_1539,,"Enterprise Road Stop","",-17.75980568,31.14557838,,,0,,,
stop_1540,,"Avondale Shopping Centre","",-17.80304527,31.0369873,,,0,hub_0018,,
stop_1541,,"Corner St Malo Avenue and Wilson Drive","",-17.82932091,31.12475777,,,0,,,
stop_1542,,"Corner Lytton Rd & Charter Rd","",-17.84528351,31.03899002,,,0,,,
stop_1543,,"Zuva Service Station","",-17.88160706,31.07044983,,,0,,,
stop_1544,,"Warren Park High School","",-17.82552338,30.98202133,,,0,hub_0129,,
stop_1545,,"Belvedere Shopping Centre","",-17.81940079,31.02408028,,,0,hub_0024,,
stop_1548,,"Mbare","",-17.87446594,31.03783989,,,0,,,
stop_1549,,"New Life Academy","",-17.6561985,31.1973114,,,0,,,
stop_1550,,"Pamukoto","",-17.86102676,31.27710533,,,0,,,
stop_1551,,"Kuwadzana Unkown Right Turn Stop","",-17.80260086,30.9419899,,,0,,,
stop_1552,,"Milford","",-17.8905735,31.02145958,,,0,,,
stop_1553,,"Croco Motors","",-17.84329987,31.05006027,,,0,hub_0008,,
stop_1554,,"Malbereign Hub","",-17.79097939,30.99802589,,,0,hub_0079,,
stop_1555,,"Rawson Properties, Corner Glen Helen Way and Enterprise Road","",-17.7497654,31.1571579,,,0,,,
stop_1557,,"Chanceworth Bus Stop","",-17.76473427,31.07003784,,,0,,,
stop_1558,,"Legend Pharmacy Bus Stop","",-17.81614304,31.03648186,,,0,,,
stop_1559,,"PaCross","",-17.92890167,31.13630676,,,0,,,
stop_1560,,"Glenlorne Gainsville drive","",-17.74209595,31.15483093,,,0,hub_0061,,
stop_1561,,"Chirera Nherera Mini Market","",-17.89784813,31.14022446,,,0,,,
stop_1562,,"L.T.M. Shops","",-17.96390152,30.98745728,,,0,hub_0078,,
stop_1563,,"Warren Park","",-17.84159279,30.97145271,,,0,,,
stop_1564,,"Corner Harare Drive Bus Stop and Enterprise Road","",-17.77975655,31.12718582,,,0,,,
stop_1565,,"Budiriro 1 Shopping Centre","",-17.88327217,30.93337822,,,0,,,
stop_1566,,"San Souci Road Bus Stop","",-17.89461708,31.21858978,,,0,,,
stop_1567,,"Newlands Bus Stop","",-17.8014431,31.08752251,,,0,hub_0041,,
stop_1568,,"Kamfinsa Shopping Centre","",-17.80560493,31.12427521,,,0,hub_0073,,
stop_1569,,"Left turn","",-18.03303337,31.18160057,,,0,,,
stop_1570,,"Paleft","",-17.82686234,31.03278732,,,0,,,
stop_1571,,"Corner Samora Machel Avenue & Chinhoyi Street","",-17.82817459,31.0428524,,,0,,,
stop_1572,,"Nyaradzo Warehouse","",-17.88352966,31.03435326,,,0,,,
stop_1573,,"Moonchies Place Bus Stop","",-17.87301254,31.21362686,,,0,hub_0093,,
stop_1574,,"Avondale Shopping Centre","",-17.80405426,31.03782845,,,0,hub_0018,,
stop_1577,,"Pacific Limited","",-17.87403107,31.00071907,,,0,,,
stop_1578,,"Mbare Hub","",-17.85516548,31.02562714,,,0,,,
stop_1579,,"Westlea","",-17.81271172,30.96765518,,,0,hub_0134,,
stop_1580,,"Shumba Salon","",-17.82551956,31.19139862,,,0,,,
stop_1581,,"Laptop Centre","",-17.83009911,31.04317665,,,0,,,
stop_1582,,"The Gospel of God Church","",-17.91193962,31.1556015,,,0,,,
stop_1583,,"Prospect Park","",-17.87229729,31.0641346,,,0,,,
stop_1584,,"South African Embassy Bus Stop","",-17.80649376,31.04537582,,,0,,,
stop_1585,,"Corner Masotcha Ndlovu Way & Joshua Nkomo Rd","",-17.88492584,31.08155632,,,0,,,
stop_1586,,"Left Turn Stop","",-17.78732491,30.91170692,,,0,,,
stop_1587,,"Donborough College Sign","",-17.84395409,30.941576,,,0,,,
stop_1588,,"Pachurch","",-17.83961105,30.93957329,,,0,,,
stop_1589,,"Corner Rotten Row and Pennefather Avenue","",-17.83071899,31.03992653,,,0,,,
stop_1590,,"Police Camp Bus Stop","",-17.79867172,30.98406792,,,0,hub_0085,,
stop_1592,,"Corner Dust Road","",-17.91836739,31.13128662,,,0,,,
stop_1593,,"Left Turn, Pagondo","",-17.83475113,31.2224102,,,0,,,
stop_1594,,"Total Bus Stop","",-17.89330864,30.93523407,,,0,,,
stop_1595,,"Nazerth House Bus Stop","",-17.79265022,31.10485649,,,0,,,
stop_1597,,"Zengeza 5 Primary School","",-18.00335312,31.06305695,,,0,,,
stop_1598,,"Zuva Service Station Bus Stop","",-17.77851868,31.13108826,,,0,,,
stop_1599,,"Copacabana Rank","",-17.83460045,31.04427528,,,0,,,
stop_1600,,"Service Station","",-17.89783287,31.24034691,,,0,,,
stop_1601,,"Corner Cumberland Road and Samora Machel Road","",-17.82018852,31.07086182,,,0,,,
stop_1602,,"Dzivarasekwa Unkown Stop","",-17.79156876,30.90686035,,,0,,,
stop_1603,,"Corner West Road & Suffolk Road","",-17.79902649,31.02658081,,,0,,,
stop_1604,,"Main Street Stop B","",-17.88519669,30.99858093,,,0,,,
stop_1605,,"Copacabana Rank","",-17.83202553,31.04422379,,,0,hub_0108,,
stop_1606,,"Parklane Hub","",-17.82720757,31.04502106,,,0,hub_0107,,
stop_1607,,"Corner 17th Road and High Glen Road","",-17.88666534,30.95919418,,,0,,,
stop_1608,,"Ruwa Local Board","",-17.89458656,31.23697853,,,0,,,
stop_1609,,"PUMA Service Station","",-17.86008644,31.09672928,,,0,,,
stop_1610,,"Padust","",-17.86157417,31.23133087,,,0,,,
stop_1611,,"Engen Service station","",-17.85739136,31.03628349,,,0,,,
stop_1612,,"Helensvale Shopping Centre","",-17.73734665,31.10251808,,,0,hub_0025,,
stop_1613,,"Right turn","",-18.02657127,31.0259552,,,0,,,
stop_1614,,"Sunshine Barber","",-17.8789959,31.13075256,,,0,,,
stop_1615,,"Tombstone Sale, Chitungwiza","",-18.00980949,31.06620407,,,0,hub_0126,,
stop_1616,,"Mukati Bus stop","",-17.5977478,31.16981125,,,0,,,
stop_1617,,"Blue Tank","",-17.9885006,31.02059937,,,0,,,
stop_1619,,"Tobacco Processors Zimbabwe","",-17.8584938,31.02904129,,,0,,,
stop_1620,,"Hukuru","",-17.86493683,31.28978729,,,0,,,
stop_1622,,"Car Park","",-17.9283905,31.14080811,,,0,,,
stop_1623,,"Murape Secondary School, Seke Road","",-18.05045891,31.19565773,,,0,,,
stop_1624,,"Car Wash","",-17.95069885,31.01636505,,,0,,,
stop_1625,,"Food World","",-17.83004761,31.06188202,,,0,,,
stop_1626,,"Chiweshe Shops","",-17.87767029,31.12476158,,,0,,,
stop_1628,,"Corner Gleneagles Road and High Glen Road","",-17.8780899,30.95589638,,,0,,,
stop_1629,,"Bus Stop","",-17.90804863,31.04919052,,,0,,,
stop_1630,,"Waterfalls East Church","",-17.89927483,31.05581284,,,0,,,
stop_1631,,"Corner Greengrove and Russel Avenue","",-17.82247925,31.12631226,,,0,,,
stop_1633,,"Corner Caen Road and Joshua Nkomo Road","",-17.84471512,31.06037903,,,0,,,
stop_1634,,"Air force Bus Stop","",-17.79751205,31.06209373,,,0,,,
stop_1635,,"Holiday Inn, Corner 5th Street and Samora Machel Avenue","",-17.82526207,31.05523491,,,0,,,
stop_1636,,"Booster","",-17.83220482,31.21541786,,,0,,,
stop_1637,,"Right Turn","",-17.65912819,31.20794487,,,0,,,
stop_1639,,"Zimre Drive Bus Stop","",-17.86436081,31.21371651,,,0,,,
stop_1640,,"Warren Park Primary School","",-17.85128784,30.97694206,,,0,,,
stop_1641,,"Yellow Bus Stop","",-17.86201668,31.21776009,,,0,,,
stop_1642,,"Corner Glen Forest Road and Borrowdale Road","",-17.6714859,31.12723923,,,0,,,
stop_1644,,"Harare High School","",-17.85782814,31.02986526,,,0,,,
stop_1645,,"Bridge","",-17.99113846,31.02184677,,,0,hub_0001,,
stop_1646,,"Corner Alexandra and Twentydales Road","",-17.88595963,31.10643959,,,0,,,
stop_1647,,"Puma Filling Station","",-17.79286957,30.95527649,,,0,,,
stop_1648,,"Better Bricks","",-17.94407272,30.97827911,,,0,,,
stop_1649,,"Mt pleasant Heights Stop","",-17.70114326,31.05084229,,,0,,,
stop_1650,,"Complex","",-18.0036068,31.07500267,,,0,,,
stop_1651,,"GMB Cleveland","",-17.85072327,31.14558411,,,0,,,
stop_1652,,"Agrifoods","",-17.84604263,31.04172325,,,0,,,
stop_1654,,"Koala Park","",-17.92413712,31.07131577,,,0,,,
stop_1655,,"Highlands, Corner Arcturus Road and Enterprise Road","",-17.79698753,31.09848976,,,0,,,
stop_1656,,"Makandiwa Bus Stop","",-17.65939903,31.07491684,,,0,,,
stop_1657,,"Bus Stop","",-17.89574623,31.21751595,,,0,hub_0003,,
stop_1658,,"Windsor Medical Bus Stop","",-17.88774109,31.22092056,,,0,,,
stop_1660,,"Pick n Pay,Msasa","",-17.84487534,31.13476372,,,0,,,
stop_1661,,"Chitungwiza Municipality","",-18.01397514,31.10489082,,,0,,,
stop_1662,,"Pamuzhanje","",-17.83564568,31.31701279,,,0,,,
stop_1663,,"Trek Service Station Bus Stop","",-17.74469566,31.07195854,,,0,,,
stop_1664,,"Malborough Police Station","",-17.74972534,31.02828407,,,0,,,
stop_1665,,"AFM Church Bus Stop","",-17.88169098,30.92321205,,,0,,,
stop_1666,,"Dzivarasekwa 3 Bus Stop","",-17.80711174,30.92350578,,,0,hub_0052,,
stop_1667,,"Corner High Glen Rd & Willowvale Rd","",-17.89313126,30.96466255,,,0,,,
stop_1668,,"Arcturus Post Office","",-17.78700447,31.32259178,,,0,,,
stop_1669,,"St Daves","",-17.87736511,31.06932449,,,0,,,
stop_1670,,"Mbuya Dorcus Hospital","",-17.8946209,31.05877686,,,0,,,
stop_1671,,"Bulawayo Road Stop","",-17.81967163,30.90335274,,,0,,,
stop_1672,,"Commando","",-17.85824966,31.06642723,,,0,,,
stop_1673,,"Warren Park","",-17.82455254,30.97689629,,,0,,,
stop_1674,,"Herbet","",-17.90243721,31.23351479,,,0,,,
stop_1675,,"Reg Harris Motors Bus Stop","",-17.89340401,31.00616455,,,0,,,
stop_1676,,"Corner Stout Road and Alpes Road","",-17.74697113,31.07154846,,,0,,,
stop_1677,,"Corner Saint Patricks's Road and Twentydales Road","",-17.87373161,31.09586716,,,0,hub_0043,,
stop_1678,,"Pepsi Zimbabwe Bus Stop","",-17.87416458,31.01906967,,,0,,,
stop_1679,,"Tubeless Tyre","",-17.76564026,30.99819183,,,0,,,
stop_1680,,"Corner High Glen Rd & Willowvale Rd","",-17.89296722,30.96453667,,,0,,,
stop_1681,,"Nortic","",-17.91211128,30.99436569,,,0,,,
stop_1682,,"Food Court, Simon Mazorodze Road","",-17.8548317,31.03152084,,,0,,,
stop_1683,,"Mbare Rank","",-17.86080933,31.03831482,,,0,hub_0089,,
stop_1684,,"Kwadzana Extention Hub","",-17.82838249,30.89495659,,,0,hub_0076,,
stop_1685,,"Mbare Rank","",-17.85903549,31.03855896,,,0,hub_0089,,
stop_1686,,"PaLeft","",-17.82382584,30.97550392,,,0,,,
stop_1687,,"Mabvuku Turn off","",-17.85715485,31.16991806,,,0,,,
stop_1689,,"Chichester Convert Sisters","",-17.81164932,31.21247673,,,0,,,
stop_1690,,"Corner Alberta Road and Learoyd Road","",-17.84570885,31.06464577,,,0,,,
stop_1691,,"Nhegure Market","",-17.82612991,31.19159508,,,0,,,
stop_1692,,"Mbudzi Round About","",-17.92119026,30.98483086,,,0,hub_0090,,
stop_1693,,"OK Super Market","",-17.89512634,31.00511932,,,0,,,
stop_1694,,"Chinoyi Road","",-17.82914925,31.04288864,,,0,,,
stop_1695,,"Corner 20th Street and 1st Street","",-17.82751465,30.93803215,,,0,,,
stop_1697,,"Durawall","",-18.07344055,31.21169853,,,0,,,
stop_1698,,"Chireya Shops","",-17.98372269,31.00909615,,,0,,,
stop_1699,,"ZRP Budiriro, Glenview Shopping Centre","",-17.90436363,30.93055534,,,0,,,
stop_1700,,"Telecel","",-17.84988403,31.05280495,,,0,,,
stop_1701,,"Aquatic Complex","",-18.00427055,31.07263947,,,0,,,
stop_1702,,"Future Generations Junior School","",-17.64108276,31.13868141,,,0,,,
stop_1703,,"Ifield","",-17.78725052,30.9939518,,,0,,,
stop_1704,,"Magnum Tyres","",-17.99192047,31.04982948,,,0,hub_0005,,
stop_1705,,"Corner Chatima Road and Ardbennie Road","",-17.87103844,31.03666496,,,0,,,
stop_1706,,"Corner Unnamed Road and Dieppe Road","",-17.8479023,31.06659508,,,0,,,
stop_1707,,"Corner Riverton Road and Pringle Road","",-17.79294014,31.15780067,,,0,hub_0042,,
stop_1708,,"Autoworld, Enterprise Road","",-17.78320885,31.11662865,,,0,,,
stop_1709,,"After Hump","",-17.86911964,30.94261932,,,0,,,
stop_1710,,"Mapuranga Hub","",-17.90231705,30.98041534,,,0,hub_0084,,
stop_1711,,"Westlea","",-17.81277466,30.96758461,,,0,hub_0134,,
stop_1712,,"Mandela and Chinoyi Road Hub","",-17.82829857,31.04240417,,,0,,,
stop_1713,,"Corner Mangwende Drive and 41st Street","",-17.88101006,30.98768997,,,0,,,
stop_1714,,"Mbudzi Hub","",-17.92296028,30.98349953,,,0,,,
stop_1715,,"M and C Study Centre","",-18.07324982,31.21028709,,,0,,,
stop_1716,,"Glen Norah Shops","",-17.90200996,30.9647007,,,0,hub_0004,,
stop_1717,,"SPCA","",-17.79347038,31.10401917,,,0,,,
stop_1718,,"Westlea","",-17.81720924,30.97925568,,,0,,,
stop_1719,,"Mandara Shops, Corner Balgowan Road and Shaneragh Road","",-17.79417801,31.14293861,,,0,,,
stop_1720,,"Corner Harare Drive and Pringle Road","",-17.80321312,31.14065933,,,0,,,
stop_1722,,"Hatfield Spar Shop","",-17.87927055,31.08898735,,,0,,,
stop_1723,,"Western Triangle","",-17.89576149,30.9696846,,,0,,,
stop_1724,,"Zengeza 2 High School","",-18.00413322,31.05149269,,,0,,,
stop_1725,,"Hustle Car Wash, Mharapara Road","",-18.01840019,31.09389496,,,0,,,
stop_1726,,"Westgate Shopping Centre","",-17.76159668,30.97890091,,,0,hub_0133,,
stop_1727,,"Kirkman","",-17.8118515,30.98285484,,,0,,,
stop_1728,,"Puma Service Statiom","",-17.88017464,31.07930946,,,0,,,
stop_1729,,"Car Park","",-17.8891468,30.95718956,,,0,,,
stop_1730,,"Queensdale","",-17.8561058,31.08703995,,,0,hub_0109,,
stop_1731,,"Gas Tank","",-18.0039711,31.0708313,,,0,,,
stop_1733,,"Fotress, Donybrooks Road","",-17.85663033,31.16949463,,,0,,,
stop_1734,,"Corner Patrenda Street and 2nd Second Street","",-17.89594841,30.92983627,,,0,,,
stop_1735,,"Mbare Musika","",-17.85944939,31.03718376,,,0,hub_0089,,
stop_1736,,"Hatfield Maruta, Corner Macintosh Road and Seke Road","",-17.89409256,31.06950378,,,0,,,
stop_1738,,"Zimre Primary School, Lemon Drive","",-17.86146927,31.21517754,,,0,,,
stop_1739,,"Corner Gleneagles Rd & Eltham Rd","",-17.87459755,30.98926735,,,0,,,
stop_1740,,"Chitungwiza Hospital Hub","",-18.01546097,31.06200409,,,0,hub_0031,,
stop_1741,,"Boost Africa","",-17.94344521,31.01174927,,,0,,,
stop_1742,,"Tyre Service Bus Stop","",-17.69152641,31.0923214,,,0,,,
stop_1744,,"OK","",-17.9937439,31.04488564,,,0,,,
stop_1745,,"Shelton Bus Stop","",-17.90312386,31.21092033,,,0,,,
stop_1748,,"Damofalls Phase 5","",-17.85484123,31.23913002,,,0,hub_0045,,
stop_1749,,"Left Turn","",-17.96317482,30.98477364,,,0,,,
stop_1750,,"Tsungai Primary School","",-17.89603996,30.98743248,,,0,,,
stop_1751,,"Bridge","",-17.96294975,30.98392868,,,0,,,
stop_1752,,"Dzivarasekwa Extension","",-17.79376793,30.90439606,,,0,hub_0054,,
stop_1753,,"Seventh Day Adventist Southley Park","",-17.96512604,30.99325752,,,0,hub_0112,,
stop_1754,,"Glenwood Bus Stop","",-17.92541122,31.14672089,,,0,hub_0064,,
stop_1755,,"Mount Hampden","",-17.74111938,30.92410088,,,0,hub_0094,,
stop_1756,,"Epworth Mission Church","",-17.8775177,31.12795067,,,0,,,
stop_1757,,"Corner Angwa Street & Kenneth Kaunda Avenue","",-17.83515739,31.0494957,,,0,,,
stop_1758,,"Corner Fleming Rd & Britannia Rd","",-17.86682701,31.00757027,,,0,,,
stop_1759,,"Post Office","",-17.86272812,31.01912498,,,0,,,
stop_1760,,"Right Turn","",-17.87732315,30.95575333,,,0,,,
stop_1763,,"Manresa","",-17.82176208,31.19805336,,,0,hub_0083,,
stop_1764,,"White House Newlands Bypass","",-17.80183029,31.08390427,,,0,,,
stop_1765,,"St Aidan's Primary School","",-18.02715874,31.08440018,,,0,,,
stop_1766,,"Moonchies Place Bus Stop","",-17.87316132,31.21372223,,,0,hub_0093,,
stop_1767,,"Corner Kelvin Road and Cripps Road","",-17.85354042,31.04847336,,,0,,,
stop_1768,,"Avondale Shops","",-17.8046608,31.03833961,,,0,,,
stop_1769,,"Trek Service Station Bus Stop","",-17.7448349,31.07184219,,,0,,,
stop_1770,,"Chinamano Bus Stop","",-17.81775665,31.04826736,,,0,,,
stop_1771,,"Bus Stop","",-17.6005249,31.16687393,,,0,,,
stop_1772,,"P.H.D. Ministries","",-17.89857674,31.0029335,,,0,,,
stop_1773,,"Pamsika","",-17.83877182,31.30614662,,,0,,,
stop_1774,,"Chizhanje, Unkown Left Turn Stop","",-17.84833145,31.17672729,,,0,,,
stop_1776,,"Audley Street","",-17.85467529,31.07735252,,,0,,,
stop_1777,,"T-Junction","",-17.82990265,30.96617889,,,0,,,
stop_1778,,"Musika","",-17.84859657,31.08003616,,,0,,,
stop_1780,,"Eversharp","",-17.86658096,31.05007362,,,0,,,
stop_1781,,"Corner Lomagundi Road & Sam Nujoma Street","",-17.7837944,31.03907394,,,0,,,
stop_1782,,"Zuva Service Station","",-17.73528671,31.10356331,,,0,,,
stop_1783,,"Solani","",-17.89327621,31.1547699,,,0,,,
stop_1784,,"Mt Hampden Shops","",-17.7439518,30.93148422,,,0,,,
stop_1785,,"Chinoyi Rd Hub","",-17.82867241,31.04276657,,,0,,,
stop_1786,,"Glenorah","",-17.91453934,30.96307373,,,0,hub_0062,,
stop_1787,,"Mbudzi Roundabout","",-17.91923904,30.9859333,,,0,,,
stop_1788,,"Mhishi Shopping Centre, Mufakose","",-17.86933899,30.91611862,,,0,hub_0092,,
stop_1789,,"Hatfield Marut, Arington Road","",-17.89417839,31.07682228,,,0,,,
stop_1790,,"Corner Coronation Avenue and Samora Machel Avenue","",-17.83577919,31.10486794,,,0,,,
stop_1791,,"Total Seven Miles","",-17.91425323,30.99168015,,,0,,,
stop_1792,,"Glenridge College","",-17.91057396,31.15450287,,,0,,,
stop_1793,,"Glen Norah, Gumbe Road","",-17.90989685,30.96066856,,,0,hub_0074,,
stop_1794,,"Queensdale Shops","",-17.85460091,31.08807755,,,0,hub_0109,,
stop_1795,,"Corner Cam Rd & Seke Rd","",-17.8451252,31.05095291,,,0,,,
stop_1796,,"Corner Glenara Avenue South and Robert Mugabe Road","",-17.83358765,31.08807182,,,0,,,
stop_1797,,"Trek Petroleum","",-17.85858154,31.09333801,,,0,,,
stop_1798,,"OK Zindoga","",-17.89908791,31.00291252,,,0,,,
stop_1800,,"Corner Seke Road and Cripps Road","",-17.85273552,31.05314636,,,0,,,
stop_1801,,"Harare Central Hospital, Lobengula Road","",-17.86035538,31.01839066,,,0,,,
stop_1802,,"Gas Tank","",-18.00404167,31.07078743,,,0,,,
stop_1803,,"Chinhoyi Street","",-17.83402252,31.043396,,,0,,,
stop_1805,,"Mukonono","",-17.85726166,30.94701958,,,0,,,
stop_1807,,"ZRP","",-17.90374374,30.93014717,,,0,,,
stop_1808,,"Corner Olwyn Avenue and Argyle Road","",-17.80209541,31.02405548,,,0,,,
stop_1809,,"Royals ECD Centre","",-17.67080307,31.18867302,,,0,,,
stop_1810,,"Nyabira","",-17.67357254,30.80642319,,,0,hub_0100,,
stop_1811,,"Eco Build","",-17.84354019,31.05018044,,,0,hub_0008,,
stop_1812,,"Gain Cash and Carry, Lytton Road","",-17.85429382,31.01228714,,,0,,,
stop_1813,,"Seris","",-17.88355827,31.07032776,,,0,,,
stop_1814,,"Amtech","",-17.83136368,31.0577774,,,0,,,
stop_1815,,"Boost Africa","",-17.94338608,31.01162529,,,0,,,
stop_1816,,"Apostolic Church of Christ","",-18.02211952,31.12129974,,,0,hub_0011,,
stop_1819,,"Magada Road Stop","",-17.88168907,30.92411041,,,0,,,
stop_1820,,"Donview","",-17.82079506,30.94613266,,,0,,,
stop_1821,,"Corner Whitehall Drive and Richwell Avenue","",-17.8067379,30.99360657,,,0,,,
stop_1823,,"Community Medical Clinic","",-18.00217056,31.06148911,,,0,hub_0007,,
stop_1824,,"Bus Stop","",-17.66093826,31.17098236,,,0,,,
stop_1825,,"Container Bus Stop","",-17.90728378,31.20429611,,,0,,,
stop_1827,,"Chikwanha","",-17.9867878,31.06106758,,,0,,,
stop_1828,,"Whelson Transport, Corner Charing Cross and Lytton Road","",-17.85394478,31.01330757,,,0,,,
stop_1829,,"Corner Chiremba Rd & Limpopo Way","",-17.84671021,31.07748032,,,0,,,
stop_1830,,"Tenth Bus Stop","",-17.83441162,30.98112106,,,0,,,
stop_1831,,"Borrowdale Brooke","",-17.71751213,31.13302803,,,0,hub_0123,,
stop_1832,,"Corner Ashdown Rd & Harare Drive","",-17.79225159,30.98644638,,,0,,,
stop_1833,,"Ruthworths, Willovale Road","",-17.873106,31.01786041,,,0,,,
stop_1834,,"Brooks Drive Bus Stop","",-17.83712387,31.06901741,,,0,,,
stop_1835,,"Westgate","",-17.76527596,30.97929192,,,0,,,
stop_1836,,"Corner Pasipanodya Street and Mugabe Street","",-17.80358505,30.92666054,,,0,,,
stop_1837,,"Zacks Hardware","",-17.88937378,31.16180038,,,0,,,
stop_1838,,"Glenorah","",-17.91438103,30.96282768,,,0,hub_0062,,
stop_1839,,"Ashdown Park Shops","",-17.79199028,30.98117256,,,0,hub_0017,,
stop_1840,,"Pamshika","",-17.82128143,30.90285492,,,0,,,
stop_1842,,"Emirates Bus Stop","",-17.79737854,31.03383255,,,0,,,
stop_1843,,"Greatstride College","",-17.89904022,30.97556114,,,0,,,
stop_1844,,"TSF Auction Floors","",-17.87445068,30.99054527,,,0,,,
stop_1845,,"Corner Peppermint Street and Fennel Street","",-17.86277962,31.11381912,,,0,,,
stop_1846,,"Chogugudza Primary School","",-17.59099579,31.17590523,,,0,,,
stop_1847,,"Kwadzana Satellite Clinic Turnoff","",-17.82621956,30.9014492,,,0,,,
stop_1848,,"Chinhoyi Street Hub","",-17.8333168,31.04334259,,,0,hub_0028,,
stop_1849,,"Reserve Bank, Samora Machel Avenue","",-17.82648849,31.0501709,,,0,,,
stop_1850,,"Step in Style","",-18.01584053,31.04660034,,,0,,,
stop_1853,,"Tower Light Bus Stop","",-17.80358696,30.92677307,,,0,,,
stop_1855,,"Malbereign Hub","",-17.78998947,30.99867058,,,0,hub_0079,,
stop_1856,,"Community Medical Clinic","",-18.00196838,31.06105614,,,0,hub_0007,,
stop_1857,,"Barber Shop","",-17.84709358,31.30156326,,,0,,,
stop_1859,,"Corner Harare Drive and Enterprise Road","",-17.77942085,31.12815666,,,0,,,
stop_1860,,"Goodhope","",-17.74349213,30.95408249,,,0,hub_0066,,
stop_1863,,"Drummond Road","",-17.8165741,31.10726738,,,0,,,
stop_1864,,"After Hump","",-17.88643074,31.13367271,,,0,,,
stop_1866,,"Gwebi College","",-17.69369888,30.85798264,,,0,,,
stop_1867,,"Drip Tech","",-17.82403183,31.09172249,,,0,,,
stop_1868,,"Goodhope Bus Stop","",-17.76030159,30.97386169,,,0,,,
stop_1870,,"Whitehouse Shops","",-17.82581902,30.88871765,,,0,,,
stop_1872,,"Corner Shop Bus Stop","",-17.86741638,31.2346096,,,0,,,
stop_1873,,"PARCS","",-17.80447388,31.13594818,,,0,,,
stop_1877,,"Right Turn","",-17.69085121,31.11667252,,,0,,,
stop_1879,,"Car Sale, Mharapara Road","",-18.02505875,31.08673668,,,0,,,
stop_1880,,"Zembe turnoff","",-17.82014275,30.90326118,,,0,,,
stop_1881,,"Rezende Rank","",-17.8308506,31.04610443,,,0,hub_0072,,
stop_1882,,"Tobacco Research","",-17.91962624,31.13210678,,,0,,,
stop_1883,,"Chiwawa Southlands","",-17.95828629,31.01567841,,,0,hub_0033,,
stop_1884,,"L Bus Stop, Mharapara Road","",-18.02957916,31.0790329,,,0,hub_0077,,
stop_1885,,"Bus Stop","",-17.68780136,31.11718369,,,0,,,
stop_1887,,"Charge Office","",-17.83376884,31.04890251,,,0,hub_0026,,
stop_1888,,"Dynamic Nursery School","",-17.82527733,31.09524918,,,0,,,
stop_1889,,"Westgate Red Roofs","",-17.75131607,30.97792244,,,0,hub_0132,,
stop_1890,,"Bus Stop","",-17.8955307,31.21380997,,,0,,,
stop_1891,,"Eversharp","",-17.85953903,31.0548687,,,0,,,
stop_1892,,"Left Turn","",-17.82179642,31.19750023,,,0,,,
stop_1893,,"Mukuvisi Woodlands","",-17.8360672,31.0873909,,,0,,,
stop_1894,,"T-junction","",-17.80270386,30.94548035,,,0,,,
stop_1895,,"Tafara Clinic","",-17.82462692,31.21515846,,,0,,,
stop_1896,,"Maruta Tyres","",-18.01543236,31.04673195,,,0,,,
stop_1897,,"Barber","",-17.78113365,30.96242714,,,0,,,
stop_1899,,"OK Mart","",-17.83569908,31.0694313,,,0,,,
stop_1900,,"Msasa Bus Stop","",-17.83793831,31.11236763,,,0,,,
stop_1903,,"Parirenyatwa Hospital","",-17.81552505,31.04198456,,,0,,,
stop_1904,,"Engen","",-17.87940216,31.01541901,,,0,,,
stop_1905,,"Epworth Mission Church","",-17.87747002,31.12801933,,,0,,,
stop_1906,,"British American Tobacco","",-17.87227631,31.02023888,,,0,,,
stop_1907,,"Harare Drive","",-17.8031826,30.98571587,,,0,,,
stop_1908,,"Chikwanha Hotel","",-17.99274063,31.07407951,,,0,,,
stop_1909,,"Overspill Shops","",-17.88299179,31.15684128,,,0,hub_0104,,
stop_1910,,"Corner Upper East Rd & Dorset Rd","",-17.77898407,31.04416466,,,0,,,
stop_1911,,"Budiriro","",-17.89431572,30.91377258,,,0,,,
stop_1912,,"Bus Stop","",-17.75452042,30.95530701,,,0,,,
stop_1913,,"Corner Boshoff Drive and Kelvin Road","",-17.86222649,31.05603027,,,0,,,
stop_1914,,"UBC Hospitality","",-17.86816025,31.07733917,,,0,,,
stop_1915,,"Spairspain","",-17.90221977,30.96468925,,,0,hub_0004,,
stop_1917,,"Mupedzanhamo Bus Stop","",-17.84816933,31.04123878,,,0,,,
stop_1918,,"The Hunter hub","",-17.83594894,31.19069099,,,0,hub_0124,,
stop_1919,,"Chisipite Shops Bus Stop","",-17.78246689,31.11821175,,,0,hub_0030,,
stop_1920,,"Bus Stop","",-17.70304871,31.04926682,,,0,,,
stop_1921,,"Vitamed Phamarcy, Carrick Creagh Road","",-17.7297821,31.11325073,,,0,,,
stop_1924,,"Wise Owl Pre School Bus Stop","",-17.78307533,31.03265762,,,0,,,
stop_1925,,"Pahot","",-17.90424728,31.14764595,,,0,,,
stop_1926,,"Corner Chiremba Rd & Hillside Rd","",-17.83315849,31.07008553,,,0,,,
stop_1927,,"A. F. M","",-17.78600883,30.9619503,,,0,,,
stop_1928,,"River of Life Greyston","",-17.74793243,31.1213398,,,0,,,
stop_1929,,"Chicago Bottle Store","",-17.84082222,30.94957161,,,0,,,
stop_1931,,"Sam Levys Village Hub","",-17.75846672,31.08802986,,,0,,,
stop_1932,,"Rezende Rank","",-17.83103752,31.04615593,,,0,hub_0072,,
stop_1934,,"Service Station","",-18.02055359,31.11660767,,,0,,,
stop_1935,,"Corner Cranborne Avenue and Seke Road","",-17.87132835,31.06370544,,,0,,,
stop_1936,,"Mega Petroleum","",-17.97518921,31.02248764,,,0,,,
stop_1937,,"Balancing Rocks Gate","",-17.88734245,31.12437439,,,0,,,
stop_1938,,"Turn Off Fungisai","",-18.01466942,31.09181786,,,0,,,
stop_1939,,"Pamusau","",-17.89970779,31.05691338,,,0,,,
stop_1940,,"Strathaven Shopping Centre","",-17.79536819,31.02110863,,,0,,,
stop_1941,,"Kwadzana Extention Hub","",-17.82840919,30.89491272,,,0,hub_0076,,
stop_1942,,"Brook Fabrics","",-17.79084969,31.1067543,,,0,,,
stop_1943,,"Corner Pauling Drive and Enterprise Road South","",-17.81583786,31.06684875,,,0,,,
stop_1944,,"National Tyre Service","",-17.85498428,31.05446053,,,0,,,
stop_1946,,"Warren Park D","",-17.83439255,30.94789124,,,0,hub_0128,,
stop_1947,,"T-Junction","",-17.74842072,30.93811417,,,0,,,
stop_1948,,"Moonchies Place, Corner Orange Drive and Lemon Drive","",-17.87297058,31.21367836,,,0,hub_0093,,
stop_1949,,"Left Turn","",-18.06795883,31.20784187,,,0,,,
stop_1950,,"Mapfeni Primary","",-17.84625053,31.30028152,,,0,,,
stop_1951,,"Budiriro Training Centre","",-17.89691544,30.92912674,,,0,,,
stop_1952,,"Arundel Pick n Pay","",-17.76283455,31.0518055,,,0,hub_0016,,
stop_1953,,"Grace Fountain, Corner Tatenda Road and Seke Road","",-18.00314522,31.09030724,,,0,,,
stop_1954,,"Total Garage","",-17.91466522,30.99093437,,,0,,,
stop_1955,,"Worship Centre","",-17.9149704,30.96466446,,,0,,,
stop_1956,,"Corner Coull Drive & Sims Road","",-17.75684357,31.04918671,,,0,,,
stop_1957,,"Damofalls Park, Bradford College","",-17.83888817,31.22675323,,,0,,,
stop_1958,,"Blessed Angels Junior School","",-17.83150291,31.21661949,,,0,,,
stop_1959,,"Msasa Bus Stop","",-17.83813477,31.11450005,,,0,,,
stop_1960,,"Cranborne High School","",-17.84954834,31.08151627,,,0,,,
stop_1961,,"Welston Road Stop","",-17.65774345,31.07813263,,,0,,,
stop_1962,,"Chiremba Turnoff","",-17.87770271,31.12182617,,,0,,,
stop_1963,,"World Class Motors Bus Stop","",-17.83418655,31.09427261,,,0,,,
stop_1964,,"British Tobacco Company","",-17.87319565,31.01853752,,,0,,,
stop_1965,,"Left Turn","",-17.83360672,31.22066689,,,0,,,
stop_1966,,"Overspill Shops","",-17.88197327,31.158144,,,0,hub_0104,,
stop_1967,,"Waterfalls Right Turn Stop","",-17.8995533,31.0593071,,,0,,,
stop_1968,,"Valley Security Services","",-17.8232193,31.05782509,,,0,,,
stop_1969,,"Norton","",-17.88205338,30.664608,,,0,,,
stop_1970,,"Eastview","",-17.83193016,31.21730804,,,0,,,
stop_1972,,"Bus Stop","",-17.70011902,31.11372185,,,0,,,
stop_1973,,"Gate","",-18.05329514,31.20020676,,,0,,,
stop_1974,,"Forit Chinese School Bus Stop","",-17.68111992,31.09316063,,,0,,,
stop_1975,,"Scan Center Bus Stop","",-18.01576996,31.10928345,,,0,,,
stop_1976,,"T-Junction","",-17.88118172,31.13194466,,,0,,,
stop_1977,,"Durawall end","",-17.88107681,31.12346458,,,0,,,
stop_1978,,"Pamuti Unovava","",-17.85557747,31.29548836,,,0,,,
stop_1979,,"Corner 11th and 4th Avenue","",-17.82417488,30.97771263,,,0,,,
stop_1980,,"Catholic Church","",-17.61116219,31.15410614,,,0,,,
stop_1981,,"Ruwa High school","",-17.90592194,31.23218346,,,0,,,
stop_1983,,"Norton Roundabout","",-17.82035255,30.94343185,,,0,,,
stop_1984,,"Mbudzi Round About","",-17.9197197,30.98583221,,,0,hub_0090,,
stop_1985,,"Epworth High School","",-17.89435959,31.15222931,,,0,,,
stop_1986,,"The Medical Hub Bus Stop","",-17.76480675,31.08722687,,,0,,,
stop_1987,,"Greendale Methodist Church","",-17.8088131,31.12336159,,,0,,,
stop_1988,,"Eagie Gardens","",-17.66216278,31.13236046,,,0,,,
stop_1989,,"Msasa, Union Hardware","",-17.84399223,31.13333511,,,0,,,
stop_1990,,"Tyre Serve Bus Stop","",-17.98595047,31.05563927,,,0,,,
stop_1991,,"Helping Hand Gallery","",-17.83331299,31.21081352,,,0,,,
stop_1992,,"T-Junction","",-17.96525574,30.95907784,,,0,,,
stop_1993,,"Foot bridge","",-17.99537849,31.03894997,,,0,,,
stop_1994,,"Corner Overspill Rd & Garan'anga Rd","",-17.89055443,31.15812874,,,0,,,
stop_1995,,"Village Walk","",-17.76208305,31.08677864,,,0,,,
stop_1996,,"Cranebourne Boys High School","",-17.85025215,31.08247375,,,0,,,
stop_1998,,"Avondale Shopping Centre","",-17.80355072,31.03729057,,,0,hub_0018,,
stop_1999,,"L Bustop","",-18.02933693,31.07952309,,,0,hub_0077,,
stop_2000,,"Glenwood Bus Stop","",-17.9252224,31.14685059,,,0,hub_0064,,
stop_2001,,"Millwall Meadows","",-17.89682007,31.04049301,,,0,,,
stop_2002,,"Corner Bishop Gaul Avenue and Princess Drive","",-17.81902504,31.02230453,,,0,,,
stop_2004,,"Embassy of Canada","",-17.8208065,31.04321098,,,0,,,
stop_2005,,"Mereki","",-17.83864975,30.95786285,,,0,hub_0122,,
stop_2006,,"Argyle Apartments Bus Stop","",-17.80318069,31.03272057,,,0,hub_0014,,
stop_2009,,"Corner Boterekwa Street & Mugabe Street","",-17.80563354,30.9244194,,,0,,,
stop_2011,,"Jehovah Witness Church","",-18.00286293,31.08893967,,,0,,,
stop_2012,,"Engen Fourth","",-17.83075333,31.05499458,,,0,hub_0058,,
stop_2013,,"Goodhope 1st Bus Stop","",-17.72672653,30.95970917,,,0,,,
stop_2014,,"Bridge","",-17.99106979,31.02184105,,,0,hub_0001,,
stop_2015,,"Corner 8th Avenue & Westwood Rd","",-17.82839775,30.98662567,,,0,,,
stop_2016,,"Southgate 24hr Clinic","",-17.96419907,30.95808792,,,0,hub_0115,,
stop_2017,,"Philadelphia","",-17.70650673,31.11227226,,,0,,,
stop_2018,,"Puma Service station","",-17.78669357,31.11148453,,,0,,,
stop_2019,,"Corner Shaneragh Road and Pringle Road","",-17.80035591,31.14495659,,,0,,,
stop_2020,,"George Ruwa Hub","",-17.89068222,31.24313354,,,0,hub_0060,,
stop_2021,,"Corner Enterprise Road South & Amagh Avenue","",-17.82059479,31.06348991,,,0,,,
stop_2022,,"Queensdale Shops","",-17.85592461,31.08712959,,,0,hub_0109,,
stop_2023,,"Lafarge Cement","",-17.81749153,31.18741608,,,0,,,
stop_2024,,"Kopje Plaza","",-17.83145142,31.04114342,,,0,,,
stop_2025,,"Before Bridge","",-17.8908577,31.00721741,,,0,,,
stop_2026,,"Corner Horatio Avenue and Chiremba Road","",-17.83983231,31.06834412,,,0,,,
stop_2027,,"Tuck Shop","",-17.91874695,30.95848274,,,0,,,
stop_2029,,"Police Headquarters","",-17.81641579,31.05640793,,,0,,,
stop_2030,,"Zengeza 2 High School Sign","",-18.00711823,31.03955841,,,0,,,
stop_2031,,"AFM Bus Stop","",-17.85537148,31.23898125,,,0,,,
stop_2033,,"Gletwyn Road Bus Stop","",-17.76706886,31.15018654,,,0,,,
stop_2034,,"Corner Glamis Road and Kilwinning Road","",-17.88027191,31.09165955,,,0,,,
stop_2035,,"Kuwadzana Bulawayo Road Bus Stop","",-17.81957436,30.90494537,,,0,,,
stop_2036,,"Machipisa Shops","",-17.89304161,30.99063683,,,0,hub_0103,,
stop_2037,,"Nyatsime College","",-18.00643539,31.07790184,,,0,,,
stop_2038,,"Corner Seventh Street & Samora Machel Avenue","",-17.82445717,31.0585537,,,0,,,
stop_2039,,"Corner Wheldon Avenue and Borrowdale Road","",-17.72904778,31.1076355,,,0,,,
stop_2040,,"Corner Simon Mazorodze Rd","",-17.96424675,30.97443199,,,0,,,
stop_2042,,"Goodhope","",-17.73887825,30.95289612,,,0,,,
stop_2044,,"Pasajeni","",-17.85749054,31.296175,,,0,,,
stop_2045,,"Bumble Bee","",-17.97023392,31.02314568,,,0,,,
stop_2046,,"Corner First Street & Bulawayo Rd","",-17.81947517,30.91725731,,,0,hub_0034,,
stop_2047,,"Drummond Close Bus Stop","",-17.8150177,31.11894989,,,0,,,
stop_2048,,"Accolade Academy","",-17.99503136,31.05128479,,,0,hub_0009,,
stop_2050,,"Nyamudzura Avenue","",-17.86042595,31.11462021,,,0,,,
stop_2051,,"Makomo Primary School","",-17.89469147,31.13664436,,,0,,,
stop_2052,,"Chinembiri Primary School","",-18.01603889,31.09685707,,,0,,,
stop_2053,,"Corner Twentydales Road and Kilwinning Road","",-17.88394928,31.10131264,,,0,,,
stop_2055,,"Corner Sheirwood Drive and Suffolk Road","",-17.78147316,31.02121162,,,0,,,
stop_2056,,"Borrowdale Brooke, Bon Marche","",-17.71711349,31.13195419,,,0,,,
stop_2057,,"Ashdown Drive Bus Stop","",-17.79226112,30.98638344,,,0,,,
stop_2058,,"Mbare Rank","",-17.86269188,31.03963089,,,0,,,
stop_2059,,"Mabelreign Shopping Centre","",-17.79205322,30.99819946,,,0,,,
stop_2060,,"T-Junction","",-17.94471359,30.97449493,,,0,,,
stop_2062,,"Corner 17th Street & High Glen Rd","",-17.88558578,30.95876694,,,0,,,
stop_2063,,"Stop A","",-17.89007568,30.98169708,,,0,,,
stop_2064,,"Corner Griton Rd & Lomagundi Rd","",-17.77184105,31.00397491,,,0,,,
stop_2065,,"T-Junction","",-18.02049255,31.09126663,,,0,,,
stop_2066,,"Pomona Dump Site","",-17.73355484,31.07096481,,,0,,,
stop_2067,,"Clinic","",-17.99429893,31.04276848,,,0,,,
stop_2068,,"Chinese Embassy Bus Stop","",-17.76807404,31.0341568,,,0,,,
stop_2069,,"Corner Cunningham Roa and Rhodesville Avenue","",-17.8112793,31.11104965,,,0,,,
stop_2072,,"Corner Cecil Road and Greendale Avenue","",-17.8224678,31.10676193,,,0,,,
stop_2073,,"Gwanzura Stadium","",-17.89162445,30.99205589,,,0,hub_0103,,
stop_2074,,"Arundel Pick n Pay","",-17.76284027,31.05187988,,,0,hub_0016,,
stop_2075,,"Mathew Rusike College","",-17.89361,31.14917564,,,0,,,
stop_2076,,"Sofa Sale, Chitungwiza","",-18.01178551,31.06868172,,,0,,,
stop_2077,,"Warren Park Round About","",-17.82414246,30.97390175,,,0,,,
stop_2078,,"OK Mbare Hub","",-17.85850716,31.04006386,,,0,hub_0080,,
stop_2079,,"Bridge Spar","",-17.77716446,31.06613922,,,0,,,
stop_2081,,"Chimbarembare Bus Stop","",-17.86820221,31.05492973,,,0,,,
stop_2082,,"Merrywood","",-17.86006546,31.29516792,,,0,,,
stop_2083,,"C Junction","",-18.0205822,31.08130074,,,0,,,
stop_2085,,"Corner Dehwe Rd & Chitwa Rd","",-17.87998009,30.93905449,,,0,,,
stop_2086,,"Ushewekunze Southgate Clinic","",-17.96426773,30.95809174,,,0,hub_0115,,
stop_2087,,"Argyle Apartments Bus Stop","",-17.80314064,31.03264999,,,0,hub_0014,,
stop_2088,,"Greenview Primary School","",-18.02435684,31.14103317,,,0,,,
stop_2089,,"Speciss","",-17.82710075,31.04097176,,,0,,,
stop_2090,,"Gatlands Road 2 Stop","",-17.83072853,30.885252,,,0,,,
stop_2091,,"Pamugamu Tuckshop, Seke Road","",-18.06445503,31.20649338,,,0,,,
stop_2092,,"Royal Stars College","",-17.95461845,30.9700222,,,0,,,
stop_2093,,"Amalinda Road Bridge","",-17.92233086,30.96660995,,,0,,,
stop_2094,,"Munyuki","",-17.8900795,31.13136101,,,0,,,
stop_2095,,"Munyuki Shops","",-17.87787819,31.12199402,,,0,,,
stop_2096,,"Manresa, Arcturus Road","",-17.82161331,31.1997242,,,0,,,
stop_2097,,"Town Centre","",-18.00882912,31.0815773,,,0,hub_0127,,
stop_2101,,"Murape Primary School. Seke Road","",-18.04762268,31.190979,,,0,,,
stop_2102,,"Chiremba Balancing Rocks","",-17.8844986,31.13302231,,,0,,,
stop_2103,,"Lewisam School Turnoff Bus Stop","",-17.79051971,31.10699654,,,0,,,
stop_2105,,"Bus Stop, Harare Drive","",-17.76037407,30.99885941,,,0,,,
stop_2107,,"Hedsor Drive","",-17.72510338,31.11016083,,,0,,,
stop_2108,,"ARDA Dairy","",-17.9791832,31.0218029,,,0,hub_0013,,
stop_2109,,"States of Youth Bus Stop","",-17.67026711,31.08816147,,,0,,,
stop_2111,,"Simon Mazorodze","",-17.84669876,31.03882217,,,0,hub_0113,,
stop_2113,,"Show Ground, Samora Machele Avenue","",-17.82929611,31.02877426,,,0,,,
stop_2114,,"Dana Meats","",-17.62580109,31.14622116,,,0,,,
stop_2115,,"Corner Saint Malo Avenue and Wilson Drive","",-17.82945251,31.12494278,,,0,,,
stop_2116,,"Mbudzi Roundabout","",-17.92123795,30.98636246,,,0,hub_0090,,
stop_2117,,"Copacabana Rank","",-17.83219147,31.04428673,,,0,hub_0108,,
stop_2118,,"Gazeb","",-17.84400749,31.23204041,,,0,hub_0059,,
stop_2119,,"Golic Fibre","",-18.02446938,31.08720589,,,0,,,
stop_2120,,"Corner Clare Road and Suffolk Road","",-17.78420639,31.02100754,,,0,,,
stop_2121,,"Lobels Bakeries","",-17.86024284,31.02783394,,,0,,,
stop_2122,,"Netfuel Bus Stop","",-17.81763268,31.18089294,,,0,,,
stop_2123,,"Powerful Bus Stop","",-17.85083389,31.03174973,,,0,,,
stop_2124,,"Corner Kilwinning Road and St Patrick's Road","",-17.8779068,31.08735466,,,0,,,
stop_2125,,"Sunway City","",-17.87041664,31.20163918,,,0,,,
stop_2126,,"Strachan Street Stop","",-17.88165092,31.03324318,,,0,,,
stop_2127,,"Queensdale Shops Bus Stop","",-17.8546524,31.08801842,,,0,hub_0109,,
stop_2128,,"Seke Chirunga","",-18.03237534,31.06994247,,,0,hub_0111,,
stop_2129,,"Pakaperera A","",-18.01235771,31.08749008,,,0,,,
stop_2130,,"Puma Service Station","",-17.82276535,31.09990311,,,0,,,
stop_2131,,"Green Shop","",-18.02494049,31.02507591,,,0,,,
stop_2134,,"Side Road","",-17.74877739,30.94086647,,,0,,,
stop_2135,,"Nyabira","",-17.67350006,30.80676079,,,0,hub_0100,,
stop_2136,,"Corner Powell Road","",-17.89045334,31.03274345,,,0,,,
stop_2137,,"Pamatombo","",-17.87034035,31.0940361,,,0,,,
stop_2139,,"Rezende Rank","",-17.83138084,31.04664612,,,0,hub_0072,,
stop_2140,,"Zin'anga Tuckshop","",-18.03258324,31.18135452,,,0,,,
stop_2141,,"Unilever","",-17.84864044,31.02826309,,,0,,,
stop_2142,,"Ravage","",-18.02345848,31.12804031,,,0,,,
stop_2143,,"George Stark High School","",-17.87248611,31.03716278,,,0,,,
stop_2144,,"Young Africa","",-18.03074455,31.0750351,,,0,,,
stop_2145,,"Auction","",-17.88197327,31.15839577,,,0,,,
stop_2146,,"Tynwald High School Bus Stop","",-17.81848335,30.97505379,,,0,,,
stop_2147,,"Corner Cheviot Ave and Henley Drive","",-17.91245079,31.01234627,,,0,,,
stop_2148,,"Coner Store Shops","",-17.88957024,31.16172791,,,0,,,
stop_2149,,"Right Turn","",-17.66320419,31.21857071,,,0,,,
stop_2151,,"Eagles Vale School","",-17.87534142,30.96625137,,,0,,,
stop_2152,,"Trek Petroleum","",-17.84218979,31.04001999,,,0,,,
stop_2153,,"St Mary's, Chaminuka Road","",-17.99419594,31.03557205,,,0,,,
stop_2154,,"Corner Mhlanga Avenue and Simon Mazorodze Road","",-17.86101913,31.02775192,,,0,,,
stop_2155,,"Helensvale Shopping Centre","",-17.73702431,31.10226631,,,0,hub_0025,,
stop_2156,,"Sam Levy TM Bus Stop","",-17.76280594,31.0867691,,,0,,,
stop_2157,,"Ecobank","",-17.82489586,31.05667877,,,0,,,
stop_2158,,"Pam Golding, Corner Greenhithe Lane and Borrowdale Road","",-17.7491951,31.09417915,,,0,,,
stop_2159,,"Bus Stop","",-17.89608574,31.21549988,,,0,,,
stop_2160,,"Sari Road","",-17.85341835,30.97008133,,,0,,,
stop_2161,,"Meyrick Park Bus Stop","",-17.80903816,31.00180054,,,0,,,
stop_2162,,"Chirunga","",-18.03230095,31.06985474,,,0,hub_0111,,
stop_2163,,"Bus Stop","",-17.78252602,31.08026695,,,0,,,
stop_2166,,"Orange Tuckshop","",-17.959198,30.96642303,,,0,,,
stop_2167,,"Airport Hub","",-17.9119091,31.09480095,,,0,hub_0010,,
stop_2169,,"The Gate Bus Stop","",-17.7291069,31.07060051,,,0,,,
stop_2170,,"Corner 111th Crescent and Willowvale Road","",-17.89777756,30.9404068,,,0,,,
stop_2172,,"Vainona High School, Alpes Road","",-17.76070786,31.06969261,,,0,,,
stop_2173,,"The Redeemed House of God","",-17.84015465,31.04866219,,,0,,,
stop_2174,,"Tamuka Government Primary School","",-18.02322197,31.08836746,,,0,,,
stop_2175,,"Windsor Park Hub","",-17.89480972,31.2125206,,,0,hub_0125,,
stop_2176,,"Nelson Mandela Hub","",-17.83043861,31.04184723,,,0,,,
stop_2177,,"Left Turn","",-17.82783699,31.21325684,,,0,,,
stop_2178,,"Mufakose","",-17.87232018,30.9315033,,,0,hub_0096,,
stop_2179,,"Pasango, Enterprise Road","",-17.76003265,31.14537239,,,0,,,
stop_2181,,"Malbereign Hub","",-17.78999138,30.99877548,,,0,hub_0079,,
stop_2182,,"Hopely","",-17.92671394,30.99614334,,,0,,,
stop_2183,,"Champions Bus Stop","",-17.80661583,31.03396034,,,0,,,
stop_2184,,"Jefferson","",-17.89637947,31.07117462,,,0,,,
stop_2185,,"Zengeza 5 Corner Shop","",-18.00645065,31.0512867,,,0,,,
stop_2186,,"Simon Mazorodze Flyover","",-17.84630394,31.03888702,,,0,hub_0113,,
stop_2187,,"Pre-School","",-17.89215851,30.94024086,,,0,,,
stop_2188,,"Ariel Bus Stop","",-17.8654213,31.29119492,,,0,hub_0015,,
stop_2189,,"Gardiner Road","",-17.81430817,31.25905991,,,0,,,
stop_2190,,"Corner Baines Avenue and Leopold Takawira Street","",-17.8203373,31.04302979,,,0,,,
stop_2191,,"MCH Fuels","",-17.9626236,30.97807121,,,0,,,
stop_2192,,"Chibvuti Primary School Turn Off","",-17.66680908,31.22316551,,,0,,,
stop_2193,,"Celebration Centre","",-17.78494263,31.0757637,,,0,,,
stop_2194,,"Tafara Shops","",-17.92392731,30.95385551,,,0,hub_0121,,
stop_2196,,"Pro Brands Hub","",-17.83035469,31.05953217,,,0,,,
stop_2197,,"Kingdom Hall, Jehovah's Witnesses Church","",-17.87176323,30.92157364,,,0,,,
stop_2198,,"Yellow House","",-17.93101883,31.00324821,,,0,,,
stop_2199,,"Corner Clifton Road and Rhodesville Avenue","",-17.80956841,31.11544228,,,0,,,
stop_2200,,"St Aedens","",-18.02815437,31.08301926,,,0,,,
stop_2201,,"Mighty Minds Junior School","",-17.68161011,31.17274094,,,0,,,
stop_2202,,"Borrowdale Junior School","",-17.77407074,31.08834267,,,0,,,
stop_2203,,"Right Turn","",-17.86751366,30.92590523,,,0,,,
stop_2204,,"Before Robots","",-17.89814949,30.98531914,,,0,,,
stop_2205,,"Ashdown Park","",-17.79171944,30.98700714,,,0,,,
stop_2206,,"Kanon Oil Service Station","",-17.84851074,31.14048004,,,0,,,
stop_2207,,"Westgate Shopping Centre","",-17.76188278,30.98075104,,,0,hub_0133,,
stop_2208,,"Drumond Bus Stop","",-17.81595421,31.10528946,,,0,,,
stop_2209,,"Keren","",-17.84272575,31.06191444,,,0,,,
stop_2210,,"Corner Harare Drive and Gaydon Road","",-17.76453018,31.11865616,,,0,,,
stop_2211,,"Corner Churchill Avenue and Borrowdale Road","",-17.79183769,31.06553078,,,0,,,
stop_2212,,"Red Cross National Training Centre","",-17.85668945,30.97694778,,,0,,,
stop_2213,,"Engen Service Station Bus Stop","",-17.83868217,31.11886024,,,0,,,
stop_2214,,"Advertising Marketing Design","",-17.82223511,31.08312988,,,0,,,
stop_2215,,"Left Turn","",-17.87345695,31.11619568,,,0,,,
stop_2217,,"ZRP Budiriro 1-2","",-17.90420723,30.93059158,,,0,,,
stop_2218,,"Casino","",-17.90097809,31.00173378,,,0,,,
stop_2219,,"National Sports Stadium","",-17.82604408,30.99694824,,,0,,,
stop_2220,,"Prince Charles Airport Bus Stop","",-17.74380302,30.93089294,,,0,,,
stop_2221,,"Carrick Creagh Road Stop","",-17.73314667,31.1350174,,,0,,,
stop_2222,,"Chiwawa Southlands","",-17.9584713,31.01621246,,,0,hub_0033,,
stop_2224,,"Makoni","",-18.01705933,31.10876274,,,0,,,
stop_2225,,"Mhofela Tuckshop","",-17.96149445,30.97904205,,,0,,,
stop_2226,,"Chizhanje, Donnybrook Road","",-17.8473835,31.17562294,,,0,,,
stop_2227,,"Chitungwiza Hospital Hub","",-18.01543999,31.06208992,,,0,hub_0031,,
stop_2228,,"Prince Edward School Bus Stop","",-17.82035255,31.03103447,,,0,,,
stop_2230,,"Murara","",-17.86912155,30.9315834,,,0,,,
stop_2232,,"Tavaka","",-17.93599892,30.97928429,,,0,,,
stop_2233,,"Corner High Glen Rd & Gleneagles Rd","",-17.8779583,30.9559288,,,0,,,
stop_2234,,"Seke Road Left Turn Stop","",-17.90501022,31.0692997,,,0,,,
stop_2235,,"T-Junction","",-17.89453506,31.24341011,,,0,,,
stop_2236,,"Zengeza 1 Bus Stop","",-17.99596977,31.05249023,,,0,,,
stop_2237,,"Corner Penndenis Road & The Chase","",-17.77290154,31.05646706,,,0,,,
stop_2239,,"Ruwa","",-17.8951683,31.24494362,,,0,hub_0119,,
stop_2240,,"Meyrick Park Bus Stop","",-17.80836105,31.00132179,,,0,,,
stop_2241,,"Mutangadura","",-17.9392643,31.2948761,,,0,hub_0098,,
stop_2243,,"Worship Center","",-17.91503716,30.96463394,,,0,,,
stop_2244,,"Westgate Shopping Centre","",-17.76168442,30.97894859,,,0,hub_0133,,
stop_2245,,"Total Service Station","",-17.89375877,30.93448257,,,0,,,
stop_2246,,"Kirkman Road Right Turn Stop","",-17.80408287,30.97221756,,,0,,,
stop_2247,,"Mhishi Shopping Centre, Mufakose","",-17.86949158,30.91594696,,,0,hub_0092,,
stop_2248,,"Corner Unnamed Road and Chiremba Road","",-17.91407394,31.15756989,,,0,,,
stop_2249,,"Puma Service Station","",-17.86017609,31.09674454,,,0,,,
stop_2250,,"Fortress Hospital Bus Stop","",-17.87458801,31.22350121,,,0,,,
stop_2251,,"District Office","",-17.96574974,30.97649384,,,0,,,
stop_2252,,"Glen View No. 1 Primary School","",-17.91374397,30.94513893,,,0,,,
stop_2253,,"Groceries Mini Market","",-17.96147346,30.97878838,,,0,,,
stop_2254,,"Bright Ministries","",-18.09943771,31.22503471,,,0,,,
stop_2255,,"Eastlea Shops","",-17.82103729,31.07631683,,,0,hub_0055,,
stop_2256,,"Mabvuku District Office","",-17.82068634,31.19293594,,,0,,,
stop_2257,,"Lite Ace Academy","",-18.02323914,31.13028908,,,0,,,
stop_2258,,"Corner Kambazuma Drive and Rukudzo Road","",-17.85210419,30.97309303,,,0,,,
stop_2259,,"Hellen Pre-school","",-17.59347725,31.17403221,,,0,,,
stop_2260,,"Zimre Drive Bust Stop","",-17.86519814,31.21284485,,,0,,,
stop_2261,,"Rhodesville","",-17.82035065,31.10173988,,,0,hub_0035,,
stop_2262,,"Makoni","",-17.57996178,31.18059349,,,0,,,
stop_2263,,"Southlands","",-17.95379829,31.01334572,,,0,,,
stop_2264,,"Ashdown Park Shops","",-17.79202271,30.98121643,,,0,hub_0017,,
stop_2265,,"Mhasvi Wholesalers","",-17.62462234,31.14679337,,,0,,,
stop_2266,,"Glen Norah Police Station","",-17.894701,30.96770287,,,0,,,
stop_2268,,"Sturgees","",-17.85049248,31.08080864,,,0,,,
stop_2269,,"Vainona School Bus Stop","",-17.75914955,31.06985283,,,0,,,
stop_2270,,"Car Sale","",-18.02498245,31.08671379,,,0,,,
stop_2271,,"Cornway College Bus Stop","",-17.74678993,30.9383297,,,0,,,
stop_2272,,"Corner St Dunstan's Close and Brooks Drive","",-17.83716774,31.06792259,,,0,,,
stop_2273,,"Farm and City","",-17.92874718,30.97960854,,,0,,,
stop_2274,,"Prochem","",-17.87477875,30.98211861,,,0,,,
stop_2275,,"Pink house, Corner Gauva Drive and Zimre Drive","",-17.86625481,31.210495,,,0,,,
stop_2276,,"Exhibition Park Bus Stop","",-17.8288269,31.02605247,,,0,,,
stop_2277,,"The Chase Road Bus Stop","",-17.77033997,31.03500938,,,0,,,
stop_2278,,"Westlea Shops Bus Stop","",-17.8200779,30.97857094,,,0,,,
stop_2279,,"Chillaz, Kambuuma Road","",-17.85118675,30.98632431,,,0,,,
stop_2280,,"Nehanda Co-operative","",-17.78586006,30.91346169,,,0,,,
stop_2281,,"Budiriro Police Station","",-17.90377235,30.93007469,,,0,,,
stop_2282,,"Corner Culverwell Road and Seke Road","",-17.84434509,31.05070114,,,0,,,
stop_2283,,"Vehicle Trade Centre","",-17.92296791,30.98943901,,,0,,,
stop_2284,,"Mestwako","",-17.91342926,30.9747982,,,0,,,
stop_2285,,"Town Centre","",-18.01103973,31.08155632,,,0,,,
stop_2286,,"Side Road","",-18.04114151,31.18161583,,,0,,,
stop_2287,,"Zupco Bus Stop","",-17.86054802,31.02118874,,,0,,,
stop_2288,,"Ridge Way Bus Stop","",-17.79449463,31.1027813,,,0,,,
stop_2290,,"Rezende Rank","",-17.83127594,31.04610062,,,0,hub_0072,,
stop_2291,,"KwaMajor Bottle store","",-17.94937515,30.97244263,,,0,,,
stop_2294,,"Corner Westwood Drive and Kambuzuma Drive","",-17.85123825,30.97683334,,,0,,,
stop_2296,,"Left Turn","",-17.72241974,30.89335251,,,0,,,
stop_2297,,"CBZ Bank","",-17.85448837,31.02599716,,,0,,,
stop_2299,,"Corner Chiremba Road and Overspill Road","",-17.8908062,31.13215828,,,0,hub_0036,,
stop_2300,,"ZRP Epworth","",-17.90065765,31.1431675,,,0,,,
stop_2301,,"Nyatsime","",-18.02563286,31.01903725,,,0,,,
stop_2302,,"Kuwadzana 2 High","",-17.82261276,30.91699982,,,0,,,
stop_2303,,"Gym, High Glen Road","",-17.91308784,30.98145485,,,0,,,
stop_2304,,"Corner Road and Ghatima Road","",-17.87128639,31.03576469,,,0,,,
stop_2305,,"Folyjon","",-17.74341774,31.16017151,,,0,,,
stop_2306,,"T-Junction","",-17.92814636,30.97401619,,,0,,,
stop_2307,,"Morgan Teacher's college","",-17.8434639,31.05967903,,,0,,,
stop_2308,,"Green Tuckshop","",-17.96278191,30.9624157,,,0,,,
stop_2309,,"Engine Filling Station, Corner Gripps Road and Kelvin Road","",-17.85322189,31.0504303,,,0,,,
stop_2310,,"Spar Shops","",-17.84651184,31.05158043,,,0,,,
stop_2311,,"Musau","",-17.93161011,31.00387001,,,0,,,
stop_2312,,"OK Mbare","",-17.85869217,31.04212952,,,0,,,
stop_2313,,"Warren Park High Bus Stop","",-17.82785225,30.98309517,,,0,,,
stop_2314,,"Corner Cumberland Road and Samora Machel Road","",-17.82045174,31.0705986,,,0,,,
stop_2315,,"Corner 5th Avenue & Arddennie Rd","",-17.86141205,31.03777313,,,0,,,
stop_2316,,"Arcturus","",-17.77823067,31.31685066,,,0,hub_0012,,
stop_2317,,"Corner Jason Moyo Avenue & Mbuya Nehanda Street","",-17.83128738,31.0424118,,,0,hub_0040,,
stop_2318,,"Chicken Slice","",-17.82942009,31.04275513,,,0,,,
stop_2319,,"Corner Doveton Avenue and Borrowdale Road","",-17.73560524,31.10325813,,,0,,,
stop_2320,,"Hair Salon","",-18.00465775,31.07462883,,,0,,,
stop_2321,,"Union Auto Motors","",-17.86215782,31.01965332,,,0,,,
stop_2322,,"Dzivarasekwa 3 Bus Stop","",-17.80695915,30.92349815,,,0,hub_0052,,
stop_2323,,"Llolers Kindergarten","",-17.85689354,31.11480713,,,0,,,
stop_2324,,"Curve","",-17.96291161,30.96460342,,,0,,,
stop_2325,,"White Sands Technical High School","",-17.60315514,31.1642437,,,0,,,
stop_2326,,"Fidelity Life Center","",-17.81723595,31.20611763,,,0,,,
stop_2329,,"Simon Mazorodze Flyover","",-17.84630394,31.03911781,,,0,hub_0113,,
stop_2330,,"First Class Academy","",-18.02324486,31.02406693,,,0,,,
stop_2332,,"St Mary's Police Station","",-17.98378944,31.05861282,,,0,,,
stop_2333,,"Herentals Turnoff","",-17.83596992,31.19236946,,,0,hub_0002,,
